[{"displayName":"Dumbarton, US","country":"US","name":"Dumbarton","_id":4756653,"coord":{"lon":-77.491371,"lat":37.60376}},{"displayName":"Dumbea, NC","country":"NC","name":"Dumbea","_id":2141394,"coord":{"lon":166.449997,"lat":-22.15}},{"displayName":"Dumblane, JM","country":"JM","name":"Dumblane","_id":3490639,"coord":{"lon":-77.73333,"lat":17.883329}},{"displayName":"Dumbleton, AU","country":"AU","name":"Dumbleton","_id":2168182,"coord":{"lon":149.100006,"lat":-21.133329}},{"displayName":"Dumbleton, GB","country":"GB","name":"Dumbleton","_id":2650800,"coord":{"lon":-1.97605,"lat":52.022148}},{"displayName":"Dumbleyung Shire, AU","country":"AU","name":"Dumbleyung Shire","_id":2072463,"coord":{"lon":117.987503,"lat":-33.2178}},{"displayName":"Dumbleyung, AU","country":"AU","name":"Dumbleyung","_id":2072465,"coord":{"lon":117.73333,"lat":-33.316669}},{"displayName":"Dumbrava de Sus, RO","country":"RO","name":"Dumbrava de Sus","_id":678719,"coord":{"lon":23.116671,"lat":44.51667}},{"displayName":"Dumbrava Rosie, RO","country":"RO","name":"Dumbrava Rosie","_id":678715,"coord":{"lon":26.433331,"lat":46.883331}},{"displayName":"Dumbrava, RO","country":"RO","name":"Dumbrava","_id":678752,"coord":{"lon":22.116671,"lat":45.816669}},{"displayName":"Dumbrava, RO","country":"RO","name":"Dumbrava","_id":678755,"coord":{"lon":26.183331,"lat":44.883331}},{"displayName":"Dumbraveni, RO","country":"RO","name":"Dumbraveni","_id":678700,"coord":{"lon":26.41667,"lat":47.650002}},{"displayName":"Dumbraveni, RO","country":"RO","name":"Dumbraveni","_id":678704,"coord":{"lon":24.566669,"lat":46.23333}},{"displayName":"Dumbraveni, RO","country":"RO","name":"Dumbraveni","_id":678705,"coord":{"lon":27.116671,"lat":45.533329}},{"displayName":"Dumbravesti, RO","country":"RO","name":"Dumbravesti","_id":678693,"coord":{"lon":26.0,"lat":45.083328}},{"displayName":"Dumbravita, RO","country":"RO","name":"Dumbravita","_id":678688,"coord":{"lon":21.2425,"lat":45.79694}},{"displayName":"Dumbravita, RO","country":"RO","name":"Dumbravita","_id":678680,"coord":{"lon":23.65,"lat":47.599998}},{"displayName":"Dumbravita, RO","country":"RO","name":"Dumbravita","_id":678689,"coord":{"lon":25.433331,"lat":45.76667}},{"displayName":"Dumbria, ES","country":"ES","name":"Dumbria","_id":3123779,"coord":{"lon":-9.11328,"lat":43.008362}},{"displayName":"Dumbría, ES","country":"ES","name":"Dumbría","_id":6357304,"coord":{"lon":-8.68926,"lat":43.01355}},{"displayName":"Dumbéa, NC","country":"NC","name":"Dumbéa","_id":2141390,"coord":{"lon":166.447327,"lat":-22.14957}},{"displayName":"Dumenza, IT","country":"IT","name":"Dumenza","_id":3177448,"coord":{"lon":8.78753,"lat":46.018879}},{"displayName":"Dumes, FR","country":"FR","name":"Dumes","_id":6448888,"coord":{"lon":-0.58333,"lat":43.700001}},{"displayName":"Dumes, FR","country":"FR","name":"Dumes","_id":3020703,"coord":{"lon":-0.58399,"lat":43.705608}},{"displayName":"Dumesnil, AR","country":"AR","name":"Dumesnil","_id":3859082,"coord":{"lon":-64.327888,"lat":-31.32198}},{"displayName":"Dumesti, RO","country":"RO","name":"Dumesti","_id":678665,"coord":{"lon":27.35,"lat":47.183331}},{"displayName":"Dumesti, RO","country":"RO","name":"Dumesti","_id":678666,"coord":{"lon":27.283331,"lat":46.849998}},{"displayName":"Dumfries and Galloway, GB","country":"GB","name":"Dumfries and Galloway","_id":2650797,"coord":{"lon":-3.83333,"lat":55.083328}},{"displayName":"Dumfries, GB","country":"GB","name":"Dumfries","_id":2650798,"coord":{"lon":-3.61139,"lat":55.069592}},{"displayName":"Dumfries, US","country":"US","name":"Dumfries","_id":4756643,"coord":{"lon":-77.328041,"lat":38.567619}},{"displayName":"Dumingag, PH","country":"PH","name":"Dumingag","_id":1714121,"coord":{"lon":123.350563,"lat":8.16917}},{"displayName":"Duminichi, RU","country":"RU","name":"Duminichi","_id":564191,"coord":{"lon":35.109928,"lat":53.93446}},{"displayName":"Dumitra, RO","country":"RO","name":"Dumitra","_id":678660,"coord":{"lon":24.48333,"lat":47.216671}},{"displayName":"Dumitresti-Fata, RO","country":"RO","name":"Dumitresti-Fata","_id":678649,"coord":{"lon":26.91667,"lat":45.566669}},{"displayName":"Dumjor, IN","country":"IN","name":"Dumjor","_id":1348739,"coord":{"lon":88.220284,"lat":22.640829}},{"displayName":"Dumka, IN","country":"IN","name":"Dumka","_id":1272237,"coord":{"lon":87.25,"lat":24.26667}},{"displayName":"Dumlan, PH","country":"PH","name":"Dumlan","_id":1714118,"coord":{"lon":125.881897,"lat":7.4275}},{"displayName":"Dumlupinar, TR","country":"TR","name":"Dumlupinar","_id":316165,"coord":{"lon":30.0,"lat":38.866669}},{"displayName":"Dummer, DE","country":"DE","name":"Dummer","_id":2934643,"coord":{"lon":11.2,"lat":53.583328}},{"displayName":"Dummer, GB","country":"GB","name":"Dummer","_id":2650793,"coord":{"lon":-1.16571,"lat":51.209061}},{"displayName":"Dummerstorf, DE","country":"DE","name":"Dummerstorf","_id":6547769,"coord":{"lon":12.2333,"lat":54.016701}},{"displayName":"Dummerstorf, DE","country":"DE","name":"Dummerstorf","_id":2934635,"coord":{"lon":12.23333,"lat":54.01667}},{"displayName":"Dumoga, ID","country":"ID","name":"Dumoga","_id":1645124,"coord":{"lon":124.082603,"lat":0.6096}},{"displayName":"Dumont, US","country":"US","name":"Dumont","_id":5097357,"coord":{"lon":-73.996811,"lat":40.940651}},{"displayName":"Dumpelfeld, DE","country":"DE","name":"Dumpelfeld","_id":2934624,"coord":{"lon":6.95,"lat":50.433331}},{"displayName":"Dumra, IN","country":"IN","name":"Dumra","_id":1272229,"coord":{"lon":85.51667,"lat":26.566669}},{"displayName":"Dumraon, IN","country":"IN","name":"Dumraon","_id":1272225,"coord":{"lon":84.150002,"lat":25.549999}},{"displayName":"Dumān, NP","country":"NP","name":"Dumān","_id":1283422,"coord":{"lon":85.116669,"lat":27.683332}},{"displayName":"Dun Laoghaire, IE","country":"IE","name":"Dun Laoghaire","_id":2964506,"coord":{"lon":-6.13586,"lat":53.293949}},{"displayName":"Dun Laoghire, IE","country":"IE","name":"Dun Laoghire","_id":7838913,"coord":{"lon":-6.13604,"lat":53.289742}},{"displayName":"Dun-le-Palestel, FR","country":"FR","name":"Dun-le-Palestel","_id":3020681,"coord":{"lon":1.66667,"lat":46.299999}},{"displayName":"Dun-sur-Auron, FR","country":"FR","name":"Dun-sur-Auron","_id":3020678,"coord":{"lon":2.57345,"lat":46.884899}},{"displayName":"Dunaalmas, HU","country":"HU","name":"Dunaalmas","_id":3053497,"coord":{"lon":18.32235,"lat":47.72868}},{"displayName":"Dunabogdany, HU","country":"HU","name":"Dunabogdany","_id":3053495,"coord":{"lon":19.04125,"lat":47.79052}},{"displayName":"Dunach, AU","country":"AU","name":"Dunach","_id":2168175,"coord":{"lon":143.716675,"lat":-37.216671}},{"displayName":"Dunafoldvar, HU","country":"HU","name":"Dunafoldvar","_id":3053489,"coord":{"lon":18.92638,"lat":46.807999}},{"displayName":"Dunaharaszti Rév, HU","country":"HU","name":"Dunaharaszti Rév","_id":3053483,"coord":{"lon":19.049999,"lat":47.349998}},{"displayName":"Dunaharaszti, HU","country":"HU","name":"Dunaharaszti","_id":3053485,"coord":{"lon":19.098221,"lat":47.3545}},{"displayName":"Dunaivtsi, UA","country":"UA","name":"Dunaivtsi","_id":709429,"coord":{"lon":26.856359,"lat":48.889091}},{"displayName":"Dunajska Streda, SK","country":"SK","name":"Dunajska Streda","_id":3060308,"coord":{"lon":17.61211,"lat":47.99268}},{"displayName":"Dunakeszi, HU","country":"HU","name":"Dunakeszi","_id":3053476,"coord":{"lon":19.138639,"lat":47.636398}},{"displayName":"Dunalley, AU","country":"AU","name":"Dunalley","_id":2168174,"coord":{"lon":147.806946,"lat":-42.888611}},{"displayName":"Dunapataj, HU","country":"HU","name":"Dunapataj","_id":3053459,"coord":{"lon":18.996321,"lat":46.644001}},{"displayName":"Dunas, BR","country":"BR","name":"Dunas","_id":3464379,"coord":{"lon":-52.283329,"lat":-31.75}},{"displayName":"Dunaszekcso, HU","country":"HU","name":"Dunaszekcso","_id":3053454,"coord":{"lon":18.75865,"lat":46.086632}},{"displayName":"Dunaszentgyorgy, HU","country":"HU","name":"Dunaszentgyorgy","_id":3053450,"coord":{"lon":18.817711,"lat":46.528519}},{"displayName":"Dunaujvaros, HU","country":"HU","name":"Dunaujvaros","_id":3053438,"coord":{"lon":18.933331,"lat":46.98333}},{"displayName":"dunaujvaros, HU","country":"HU","name":"dunaujvaros","_id":3047474,"coord":{"lon":18.93288,"lat":46.967369}},{"displayName":"Dunavarsany, HU","country":"HU","name":"Dunavarsany","_id":3053434,"coord":{"lon":19.06617,"lat":47.278591}},{"displayName":"Dunavci, BG","country":"BG","name":"Dunavci","_id":6460657,"coord":{"lon":22.82111,"lat":43.921108}},{"displayName":"Dunavecse, HU","country":"HU","name":"Dunavecse","_id":3053432,"coord":{"lon":18.974331,"lat":46.91407}},{"displayName":"Dunavtsi, BG","country":"BG","name":"Dunavtsi","_id":731809,"coord":{"lon":22.82111,"lat":43.921108}},{"displayName":"Dunay, RU","country":"RU","name":"Dunay","_id":564181,"coord":{"lon":42.433334,"lat":59.200001}},{"displayName":"Dunay, RU","country":"RU","name":"Dunay","_id":2024800,"coord":{"lon":132.337494,"lat":42.88028}},{"displayName":"Dunbar, GB","country":"GB","name":"Dunbar","_id":2650776,"coord":{"lon":-2.51418,"lat":56.000622}},{"displayName":"Dunbar, US","country":"US","name":"Dunbar","_id":4557629,"coord":{"lon":-79.614479,"lat":39.977852}},{"displayName":"Dunbar, US","country":"US","name":"Dunbar","_id":4804563,"coord":{"lon":-81.73735,"lat":38.360649}},{"displayName":"Dunbarton, US","country":"US","name":"Dunbarton","_id":5251010,"coord":{"lon":-90.133179,"lat":42.561668}},{"displayName":"Dunblane, CA","country":"CA","name":"Dunblane","_id":5943853,"coord":{"lon":-106.867973,"lat":51.183369}},{"displayName":"Dunblane, GB","country":"GB","name":"Dunblane","_id":2650769,"coord":{"lon":-3.96417,"lat":56.188431}},{"displayName":"Dunbogan, AU","country":"AU","name":"Dunbogan","_id":2168164,"coord":{"lon":152.816666,"lat":-31.65}},{"displayName":"Dunboyne, IE","country":"IE","name":"Dunboyne","_id":2964547,"coord":{"lon":-6.46667,"lat":53.400002}},{"displayName":"Dunbyrne, IE","country":"IE","name":"Dunbyrne","_id":3314668,"coord":{"lon":-6.85806,"lat":53.227501}},{"displayName":"Duncan Village, ZA","country":"ZA","name":"Duncan Village","_id":1007420,"coord":{"lon":27.863319,"lat":-33.01226}},{"displayName":"Duncan, CA","country":"CA","name":"Duncan","_id":5943865,"coord":{"lon":-123.70266,"lat":48.782928}},{"displayName":"Duncan, US","country":"US","name":"Duncan","_id":4535389,"coord":{"lon":-97.957809,"lat":34.5023}},{"displayName":"Duncan, US","country":"US","name":"Duncan","_id":4577083,"coord":{"lon":-82.145111,"lat":34.937901}},{"displayName":"Duncannon, US","country":"US","name":"Duncannon","_id":5187506,"coord":{"lon":-77.023033,"lat":40.39814}},{"displayName":"Duncans Creek, AU","country":"AU","name":"Duncans Creek","_id":2168159,"coord":{"lon":151.199997,"lat":-31.366671}},{"displayName":"Duncans, JM","country":"JM","name":"Duncans","_id":3490633,"coord":{"lon":-77.536331,"lat":18.468}},{"displayName":"Duncansville, US","country":"US","name":"Duncansville","_id":5187508,"coord":{"lon":-78.433899,"lat":40.423409}},{"displayName":"Duncanville, US","country":"US","name":"Duncanville","_id":4687331,"coord":{"lon":-96.90834,"lat":32.651798}},{"displayName":"Dunchurch, GB","country":"GB","name":"Dunchurch","_id":2650761,"coord":{"lon":-1.29136,"lat":52.33757}},{"displayName":"Duncormick, IE","country":"IE","name":"Duncormick","_id":2964542,"coord":{"lon":-6.64583,"lat":52.225281}},{"displayName":"Dund-Urt, MN","country":"MN","name":"Dund-Urt","_id":2031728,"coord":{"lon":105.921898,"lat":48.03791}},{"displayName":"Dunda, TZ","country":"TZ","name":"Dunda","_id":160141,"coord":{"lon":34.25,"lat":-8.11667}},{"displayName":"Dundaga, LV","country":"LV","name":"Dundaga","_id":460187,"coord":{"lon":22.35,"lat":57.51667}},{"displayName":"Dundagas Novads, LV","country":"LV","name":"Dundagas Novads","_id":7628298,"coord":{"lon":22.39472,"lat":57.566669}},{"displayName":"Dundalk, CA","country":"CA","name":"Dundalk","_id":5943968,"coord":{"lon":-80.39357,"lat":44.167919}},{"displayName":"Dundalk, IE","country":"IE","name":"Dundalk","_id":2964540,"coord":{"lon":-6.41667,"lat":54.0}},{"displayName":"Dundalk, US","country":"US","name":"Dundalk","_id":4353765,"coord":{"lon":-76.520523,"lat":39.25066}},{"displayName":"Dundas, AU","country":"AU","name":"Dundas","_id":7839503,"coord":{"lon":124.505821,"lat":-32.125019}},{"displayName":"Dundas, CA","country":"CA","name":"Dundas","_id":6948482,"coord":{"lon":-79.95237,"lat":43.263771}},{"displayName":"Dundas, GL","country":"GL","name":"Dundas","_id":3831682,"coord":{"lon":-68.800003,"lat":76.550003}},{"displayName":"Dundas, GL","country":"GL","name":"Dundas","_id":3831451,"coord":{"lon":-68.775558,"lat":76.577217}},{"displayName":"Dundas, US","country":"US","name":"Dundas","_id":5024756,"coord":{"lon":-93.201881,"lat":44.429409}},{"displayName":"Dundburd, MN","country":"MN","name":"Dundburd","_id":2031741,"coord":{"lon":111.497841,"lat":47.9459}},{"displayName":"Dundee City, GB","country":"GB","name":"Dundee City","_id":3333225,"coord":{"lon":-2.91667,"lat":56.466671}},{"displayName":"Dundee, GB","country":"GB","name":"Dundee","_id":2650752,"coord":{"lon":-2.96667,"lat":56.5}},{"displayName":"Dundee, US","country":"US","name":"Dundee","_id":4153757,"coord":{"lon":-81.61924,"lat":28.02252}},{"displayName":"Dundee, US","country":"US","name":"Dundee","_id":4991330,"coord":{"lon":-83.65966,"lat":41.957272}},{"displayName":"Dundee, US","country":"US","name":"Dundee","_id":5115475,"coord":{"lon":-76.976631,"lat":42.523399}},{"displayName":"Dundee, US","country":"US","name":"Dundee","_id":5724352,"coord":{"lon":-123.010941,"lat":45.278172}},{"displayName":"Dundee, ZA","country":"ZA","name":"Dundee","_id":1007400,"coord":{"lon":30.233709,"lat":-28.16678}},{"displayName":"Dunderry, IE","country":"IE","name":"Dunderry","_id":2964535,"coord":{"lon":-6.77417,"lat":53.605831}},{"displayName":"Dundgovĭ Aymag, MN","country":"MN","name":"Dundgovĭ Aymag","_id":2031740,"coord":{"lon":106.5,"lat":45.5}},{"displayName":"Dundonald, GB","country":"GB","name":"Dundonald","_id":2650748,"coord":{"lon":-4.58333,"lat":55.566669}},{"displayName":"Dundong, CN","country":"CN","name":"Dundong","_id":1906090,"coord":{"lon":109.144997,"lat":26.01083}},{"displayName":"Dundrum, GB","country":"GB","name":"Dundrum","_id":2650739,"coord":{"lon":-5.84455,"lat":54.2575}},{"displayName":"Dundrum, IE","country":"IE","name":"Dundrum","_id":2964532,"coord":{"lon":-6.25714,"lat":53.290668}},{"displayName":"Dundrum, IE","country":"IE","name":"Dundrum","_id":2964533,"coord":{"lon":-8.04222,"lat":52.560558}},{"displayName":"Dundry, GB","country":"GB","name":"Dundry","_id":7291921,"coord":{"lon":-2.62477,"lat":51.40036}},{"displayName":"Dundry, GB","country":"GB","name":"Dundry","_id":2650737,"coord":{"lon":-2.6375,"lat":51.40028}},{"displayName":"Dundurn, CA","country":"CA","name":"Dundurn","_id":5944013,"coord":{"lon":-106.501228,"lat":51.81678}},{"displayName":"Dundwaraganj, IN","country":"IN","name":"Dundwaraganj","_id":1272207,"coord":{"lon":78.949997,"lat":27.73333}},{"displayName":"Dundy County, US","country":"US","name":"Dundy County","_id":5694963,"coord":{"lon":-101.667122,"lat":40.16666}},{"displayName":"Dunean, US","country":"US","name":"Dunean","_id":4577121,"coord":{"lon":-82.419289,"lat":34.824841}},{"displayName":"Dunedin City, NZ","country":"NZ","name":"Dunedin City","_id":7910038,"coord":{"lon":170.243683,"lat":-45.640511}},{"displayName":"Dunedin, NZ","country":"NZ","name":"Dunedin","_id":2191562,"coord":{"lon":170.503616,"lat":-45.874161}},{"displayName":"Dunedin, US","country":"US","name":"Dunedin","_id":4153759,"coord":{"lon":-82.771767,"lat":28.019739}},{"displayName":"Dunedoo, AU","country":"AU","name":"Dunedoo","_id":2168128,"coord":{"lon":149.399994,"lat":-32.01667}},{"displayName":"Dunellen, US","country":"US","name":"Dunellen","_id":5097349,"coord":{"lon":-74.471817,"lat":40.589272}},{"displayName":"Dunes City, US","country":"US","name":"Dunes City","_id":5724361,"coord":{"lon":-124.11512,"lat":43.883179}},{"displayName":"Dunfermline, CA","country":"CA","name":"Dunfermline","_id":5944051,"coord":{"lon":-107.034554,"lat":52.133389}},{"displayName":"Dunfermline, GB","country":"GB","name":"Dunfermline","_id":2650732,"coord":{"lon":-3.45887,"lat":56.07156}},{"displayName":"Dunfus, DE","country":"DE","name":"Dunfus","_id":2934599,"coord":{"lon":7.23333,"lat":50.216671}},{"displayName":"Dunga Bunga, PK","country":"PK","name":"Dunga Bunga","_id":1179463,"coord":{"lon":73.24324,"lat":29.74931}},{"displayName":"Dungang, CN","country":"CN","name":"Dungang","_id":1917385,"coord":{"lon":114.137741,"lat":24.921499}},{"displayName":"Dungannon, GB","country":"GB","name":"Dungannon","_id":2650729,"coord":{"lon":-6.76723,"lat":54.503441}},{"displayName":"Dunganstown, IE","country":"IE","name":"Dunganstown","_id":2964529,"coord":{"lon":-6.97444,"lat":52.342781}},{"displayName":"Dungarpur, IN","country":"IN","name":"Dungarpur","_id":1272201,"coord":{"lon":73.716667,"lat":23.83333}},{"displayName":"Dungarpur, IN","country":"IN","name":"Dungarpur","_id":1272202,"coord":{"lon":71.73333,"lat":21.283331}},{"displayName":"Dungarvan, IE","country":"IE","name":"Dungarvan","_id":2964528,"coord":{"lon":-7.62528,"lat":52.088058}},{"displayName":"Dungarvan, IE","country":"IE","name":"Dungarvan","_id":2964527,"coord":{"lon":-7.08722,"lat":52.589722}},{"displayName":"Dungay, AU","country":"AU","name":"Dungay","_id":2168119,"coord":{"lon":153.366669,"lat":-28.283331}},{"displayName":"Dungelbeck, DE","country":"DE","name":"Dungelbeck","_id":2934595,"coord":{"lon":10.26758,"lat":52.294361}},{"displayName":"Dungenheim, DE","country":"DE","name":"Dungenheim","_id":2934594,"coord":{"lon":7.16667,"lat":50.26667}},{"displayName":"Dungiven, GB","country":"GB","name":"Dungiven","_id":2650726,"coord":{"lon":-6.91667,"lat":54.933331}},{"displayName":"Dunglass, GB","country":"GB","name":"Dunglass","_id":2650725,"coord":{"lon":-2.36667,"lat":55.933331}},{"displayName":"Dungloe, IE","country":"IE","name":"Dungloe","_id":2964524,"coord":{"lon":-8.35917,"lat":54.951111}},{"displayName":"Dungog, AU","country":"AU","name":"Dungog","_id":7839358,"coord":{"lon":151.611221,"lat":-32.346191}},{"displayName":"Dungog, AU","country":"AU","name":"Dungog","_id":2168112,"coord":{"lon":151.766663,"lat":-32.416672}},{"displayName":"Dungon, PH","country":"PH","name":"Dungon","_id":1714427,"coord":{"lon":122.316002,"lat":11.7196}},{"displayName":"Dungourney, IE","country":"IE","name":"Dungourney","_id":2964523,"coord":{"lon":-8.09722,"lat":51.96833}},{"displayName":"Dungowan, AU","country":"AU","name":"Dungowan","_id":2168110,"coord":{"lon":151.100006,"lat":-31.216669}},{"displayName":"Dunguan, PH","country":"PH","name":"Dunguan","_id":1714070,"coord":{"lon":124.860832,"lat":6.94972}},{"displayName":"Dungusiku, ID","country":"ID","name":"Dungusiku","_id":7921755,"coord":{"lon":107.932297,"lat":-7.1077}},{"displayName":"Dunhill, IE","country":"IE","name":"Dunhill","_id":2964521,"coord":{"lon":-7.25694,"lat":52.16972}},{"displayName":"Dunholme, GB","country":"GB","name":"Dunholme","_id":2650721,"coord":{"lon":-0.46541,"lat":53.300671}},{"displayName":"Dunhou, CN","country":"CN","name":"Dunhou","_id":1811844,"coord":{"lon":114.900002,"lat":27.049999}},{"displayName":"Dunhua, CN","country":"CN","name":"Dunhua","_id":2037534,"coord":{"lon":128.242493,"lat":43.372501}},{"displayName":"Dunhuang, CN","country":"CN","name":"Dunhuang","_id":1529531,"coord":{"lon":94.683327,"lat":40.166672}},{"displayName":"Duni, ID","country":"ID","name":"Duni","_id":7036640,"coord":{"lon":112.467796,"lat":-7.0701}},{"displayName":"Dunieres, FR","country":"FR","name":"Dunieres","_id":3020688,"coord":{"lon":4.34579,"lat":45.215981}},{"displayName":"Dunino, RU","country":"RU","name":"Dunino","_id":564152,"coord":{"lon":36.942223,"lat":55.724445}},{"displayName":"Dunipace, GB","country":"GB","name":"Dunipace","_id":2650718,"coord":{"lon":-3.91471,"lat":56.027}},{"displayName":"Dunières, FR","country":"FR","name":"Dunières","_id":6449060,"coord":{"lon":4.33333,"lat":45.216671}},{"displayName":"Dunkeld, AU","country":"AU","name":"Dunkeld","_id":2168101,"coord":{"lon":142.350006,"lat":-37.650002}},{"displayName":"Dunkelsdorf, DE","country":"DE","name":"Dunkelsdorf","_id":2934576,"coord":{"lon":10.6,"lat":53.98333}},{"displayName":"Dunkerque, FR","country":"FR","name":"Dunkerque","_id":6614519,"coord":{"lon":2.3768,"lat":51.038101}},{"displayName":"Dunkerque, FR","country":"FR","name":"Dunkerque","_id":3020686,"coord":{"lon":2.36667,"lat":51.049999}},{"displayName":"Dunkerrin, IE","country":"IE","name":"Dunkerrin","_id":2964516,"coord":{"lon":-7.90889,"lat":52.91222}},{"displayName":"Dunkirk Town Center, US","country":"US","name":"Dunkirk Town Center","_id":4353805,"coord":{"lon":-76.658569,"lat":38.72039}},{"displayName":"Dunkirk, GB","country":"GB","name":"Dunkirk","_id":2650712,"coord":{"lon":0.97929,"lat":51.291691}},{"displayName":"Dunkirk, US","country":"US","name":"Dunkirk","_id":4353798,"coord":{"lon":-76.660522,"lat":38.721779}},{"displayName":"Dunkirk, US","country":"US","name":"Dunkirk","_id":4919797,"coord":{"lon":-86.393608,"lat":40.756432}},{"displayName":"Dunkirk, US","country":"US","name":"Dunkirk","_id":4919798,"coord":{"lon":-85.209412,"lat":40.37532}},{"displayName":"Dunkirk, US","country":"US","name":"Dunkirk","_id":5115495,"coord":{"lon":-79.333931,"lat":42.4795}},{"displayName":"Dunklin County, US","country":"US","name":"Dunklin County","_id":4384778,"coord":{"lon":-90.033432,"lat":36.283401}},{"displayName":"Dunkwa, GH","country":"GH","name":"Dunkwa","_id":2301400,"coord":{"lon":-1.77995,"lat":5.96562}},{"displayName":"Dunlap, US","country":"US","name":"Dunlap","_id":4192349,"coord":{"lon":-83.253487,"lat":33.953449}},{"displayName":"Dunlap, US","country":"US","name":"Dunlap","_id":4510456,"coord":{"lon":-84.617996,"lat":39.292278}},{"displayName":"Dunlap, US","country":"US","name":"Dunlap","_id":4619629,"coord":{"lon":-85.390518,"lat":35.37146}},{"displayName":"Dunlap, US","country":"US","name":"Dunlap","_id":4854644,"coord":{"lon":-95.600563,"lat":41.854431}},{"displayName":"Dunlap, US","country":"US","name":"Dunlap","_id":4890304,"coord":{"lon":-89.678711,"lat":40.861698}},{"displayName":"Dunlap, US","country":"US","name":"Dunlap","_id":4919826,"coord":{"lon":-85.921661,"lat":41.637829}},{"displayName":"Dunlavin, IE","country":"IE","name":"Dunlavin","_id":2964507,"coord":{"lon":-6.70389,"lat":53.055561}},{"displayName":"Dunleary, US","country":"US","name":"Dunleary","_id":4290554,"coord":{"lon":-82.366257,"lat":37.318161}},{"displayName":"Dunleer, IE","country":"IE","name":"Dunleer","_id":2964504,"coord":{"lon":-6.39611,"lat":53.834999}},{"displayName":"Dunlewy, IE","country":"IE","name":"Dunlewy","_id":2964503,"coord":{"lon":-8.1,"lat":55.01667}},{"displayName":"Dunloy, GB","country":"GB","name":"Dunloy","_id":2650709,"coord":{"lon":-6.41087,"lat":55.011002}},{"displayName":"Dunluce, AU","country":"AU","name":"Dunluce","_id":2168093,"coord":{"lon":143.600006,"lat":-36.900002}},{"displayName":"Dunmanway, IE","country":"IE","name":"Dunmanway","_id":2964496,"coord":{"lon":-9.11667,"lat":51.716671}},{"displayName":"Dunmore East, IE","country":"IE","name":"Dunmore East","_id":2964492,"coord":{"lon":-6.98611,"lat":52.15139}},{"displayName":"Dunmore Town, BS","country":"BS","name":"Dunmore Town","_id":3572462,"coord":{"lon":-76.650002,"lat":25.5}},{"displayName":"Dunmore, AU","country":"AU","name":"Dunmore","_id":2168087,"coord":{"lon":150.850006,"lat":-34.599998}},{"displayName":"Dunmore, IE","country":"IE","name":"Dunmore","_id":2964494,"coord":{"lon":-8.73333,"lat":53.616669}},{"displayName":"Dunmore, US","country":"US","name":"Dunmore","_id":5187542,"coord":{"lon":-75.632408,"lat":41.4198}},{"displayName":"Dunn Corner, US","country":"US","name":"Dunn Corner","_id":5221846,"coord":{"lon":-71.768677,"lat":41.35149}},{"displayName":"Dunn County, US","country":"US","name":"Dunn County","_id":5251040,"coord":{"lon":-91.883507,"lat":44.949959}},{"displayName":"Dunn Loring, US","country":"US","name":"Dunn Loring","_id":4756736,"coord":{"lon":-77.221649,"lat":38.89344}},{"displayName":"Dunn, US","country":"US","name":"Dunn","_id":4464326,"coord":{"lon":-78.608902,"lat":35.306271}},{"displayName":"Dunnamaggan, IE","country":"IE","name":"Dunnamaggan","_id":2964487,"coord":{"lon":-7.29722,"lat":52.504719}},{"displayName":"Dunnellon, US","country":"US","name":"Dunnellon","_id":4153790,"coord":{"lon":-82.46093,"lat":29.049141}},{"displayName":"Dunnigan, US","country":"US","name":"Dunnigan","_id":5344332,"coord":{"lon":-121.969688,"lat":38.885181}},{"displayName":"Dunningen, DE","country":"DE","name":"Dunningen","_id":6555811,"coord":{"lon":8.50599,"lat":48.212029}},{"displayName":"Dunningen, DE","country":"DE","name":"Dunningen","_id":2934560,"coord":{"lon":8.50619,"lat":48.212421}},{"displayName":"Dunnington, GB","country":"GB","name":"Dunnington","_id":2650686,"coord":{"lon":-0.25,"lat":53.950001}},{"displayName":"Dunnstown, AU","country":"AU","name":"Dunnstown","_id":2168070,"coord":{"lon":143.983337,"lat":-37.599998}},{"displayName":"Dunnstown, US","country":"US","name":"Dunnstown","_id":5187573,"coord":{"lon":-77.421371,"lat":41.145901}},{"displayName":"Dunnville, CA","country":"CA","name":"Dunnville","_id":5944222,"coord":{"lon":-79.61631,"lat":42.900108}},{"displayName":"Duno, IT","country":"IT","name":"Duno","_id":6534920,"coord":{"lon":8.73763,"lat":45.913979}},{"displayName":"Dunolly, AU","country":"AU","name":"Dunolly","_id":2168068,"coord":{"lon":143.733337,"lat":-36.849998}},{"displayName":"Dunoon, AU","country":"AU","name":"Dunoon","_id":2168066,"coord":{"lon":153.333328,"lat":-28.683331}},{"displayName":"Dunoon, GB","country":"GB","name":"Dunoon","_id":2650681,"coord":{"lon":-4.92303,"lat":55.94698}},{"displayName":"Dunorlan, AU","country":"AU","name":"Dunorlan","_id":2168065,"coord":{"lon":146.550003,"lat":-41.48333}},{"displayName":"Dunowen, ZW","country":"ZW","name":"Dunowen","_id":1085511,"coord":{"lon":31.116671,"lat":-17.89139}},{"displayName":"Duns, AT","country":"AT","name":"Duns","_id":2780641,"coord":{"lon":9.71667,"lat":47.216671}},{"displayName":"Duns, GB","country":"GB","name":"Duns","_id":2650673,"coord":{"lon":-2.34575,"lat":55.777039}},{"displayName":"Dunsandel, NZ","country":"NZ","name":"Dunsandel","_id":2191553,"coord":{"lon":172.183334,"lat":-43.666672}},{"displayName":"Dunsborough, AU","country":"AU","name":"Dunsborough","_id":2078304,"coord":{"lon":115.083328,"lat":-33.583328}},{"displayName":"Dunsen, DE","country":"DE","name":"Dunsen","_id":2934548,"coord":{"lon":8.63333,"lat":52.916672}},{"displayName":"Dunsford, CA","country":"CA","name":"Dunsford","_id":5944253,"coord":{"lon":-78.649559,"lat":44.450119}},{"displayName":"Dunshang, CN","country":"CN","name":"Dunshang","_id":1811838,"coord":{"lon":119.038986,"lat":34.708721}},{"displayName":"Dunshaughlin, IE","country":"IE","name":"Dunshaughlin","_id":2964472,"coord":{"lon":-6.54,"lat":53.512501}},{"displayName":"Dunsink, IE","country":"IE","name":"Dunsink","_id":2964471,"coord":{"lon":-6.33333,"lat":53.383331}},{"displayName":"Dunsmuir, US","country":"US","name":"Dunsmuir","_id":5562961,"coord":{"lon":-122.27195,"lat":41.20821}},{"displayName":"Dunstable, GB","country":"GB","name":"Dunstable","_id":7296192,"coord":{"lon":-0.5173,"lat":51.884651}},{"displayName":"Dunstable, GB","country":"GB","name":"Dunstable","_id":2650657,"coord":{"lon":-0.52099,"lat":51.886002}},{"displayName":"Dunstable, US","country":"US","name":"Dunstable","_id":4935195,"coord":{"lon":-71.482841,"lat":42.675091}},{"displayName":"Dunster, CA","country":"CA","name":"Dunster","_id":5944276,"coord":{"lon":-119.83593,"lat":53.116699}},{"displayName":"Dunsum, DE","country":"DE","name":"Dunsum","_id":6551542,"coord":{"lon":8.42119,"lat":54.731861}},{"displayName":"Dunsum, DE","country":"DE","name":"Dunsum","_id":2934543,"coord":{"lon":8.42488,"lat":54.731258}},{"displayName":"Dunswell, GB","country":"GB","name":"Dunswell","_id":2650649,"coord":{"lon":-0.37139,"lat":53.80106}},{"displayName":"Duntocher, GB","country":"GB","name":"Duntocher","_id":2650646,"coord":{"lon":-4.41545,"lat":55.92437}},{"displayName":"Duntou, CN","country":"CN","name":"Duntou","_id":1811833,"coord":{"lon":120.366669,"lat":32.650002}},{"displayName":"Duntroon, AU","country":"AU","name":"Duntroon","_id":2168052,"coord":{"lon":149.166672,"lat":-35.299999}},{"displayName":"Duntryleague, IE","country":"IE","name":"Duntryleague","_id":3305482,"coord":{"lon":-8.35333,"lat":52.404999}},{"displayName":"Dunum, DE","country":"DE","name":"Dunum","_id":6553007,"coord":{"lon":7.6454,"lat":53.597}},{"displayName":"Dunum, DE","country":"DE","name":"Dunum","_id":2934541,"coord":{"lon":7.65,"lat":53.599998}},{"displayName":"Dunwich, AU","country":"AU","name":"Dunwich","_id":2168050,"coord":{"lon":153.399994,"lat":-27.5}},{"displayName":"Dunwoody, US","country":"US","name":"Dunwoody","_id":4192375,"coord":{"lon":-84.334648,"lat":33.946209}},{"displayName":"Dunyapur, PK","country":"PK","name":"Dunyapur","_id":1179450,"coord":{"lon":71.719582,"lat":29.7995}},{"displayName":"Dunzweiler, DE","country":"DE","name":"Dunzweiler","_id":6555086,"coord":{"lon":7.3,"lat":49.416698}},{"displayName":"Dunzweiler, DE","country":"DE","name":"Dunzweiler","_id":2934529,"coord":{"lon":7.30548,"lat":49.415859}},{"displayName":"Duobao, CN","country":"CN","name":"Duobao","_id":1811829,"coord":{"lon":112.689522,"lat":30.67}},{"displayName":"Duobao, CN","country":"CN","name":"Duobao","_id":7636886,"coord":{"lon":116.123398,"lat":29.40366}},{"displayName":"Duodaoshi, CN","country":"CN","name":"Duodaoshi","_id":1811828,"coord":{"lon":112.184761,"lat":30.96174}},{"displayName":"Duokake, CN","country":"CN","name":"Duokake","_id":1281285,"coord":{"lon":92.650002,"lat":36.616669}},{"displayName":"Duolun, CN","country":"CN","name":"Duolun","_id":2037530,"coord":{"lon":116.48909,"lat":42.187119}},{"displayName":"Duong GJong, VN","country":"VN","name":"Duong GJong","_id":1569973,"coord":{"lon":103.966667,"lat":10.21667}},{"displayName":"Duowa, CN","country":"CN","name":"Duowa","_id":7413332,"coord":{"lon":102.249168,"lat":35.196362}},{"displayName":"Duowen, CN","country":"CN","name":"Duowen","_id":1811815,"coord":{"lon":109.765831,"lat":19.77623}},{"displayName":"Duozhu, CN","country":"CN","name":"Duozhu","_id":1811812,"coord":{"lon":114.944107,"lat":23.030251}},{"displayName":"DuPage County, US","country":"US","name":"DuPage County","_id":4890213,"coord":{"lon":-88.083397,"lat":41.833359}},{"displayName":"Duparquet, CA","country":"CA","name":"Duparquet","_id":5944299,"coord":{"lon":-79.232941,"lat":48.500179}},{"displayName":"Dupi, CN","country":"CN","name":"Dupi","_id":7757665,"coord":{"lon":115.050743,"lat":30.79565}},{"displayName":"Dupnitsa, BG","country":"BG","name":"Dupnitsa","_id":726872,"coord":{"lon":23.116671,"lat":42.26667}},{"displayName":"Dupo, US","country":"US","name":"Dupo","_id":4237383,"coord":{"lon":-90.210388,"lat":38.516159}},{"displayName":"Dupont, US","country":"US","name":"Dupont","_id":5187577,"coord":{"lon":-75.745468,"lat":41.325081}},{"displayName":"DuPont, US","country":"US","name":"DuPont","_id":5792869,"coord":{"lon":-122.631241,"lat":47.09676}},{"displayName":"Duppach, DE","country":"DE","name":"Duppach","_id":6554688,"coord":{"lon":6.56667,"lat":50.266701}},{"displayName":"Duppach, DE","country":"DE","name":"Duppach","_id":2934519,"coord":{"lon":6.56667,"lat":50.26667}},{"displayName":"Duppigheim, FR","country":"FR","name":"Duppigheim","_id":3020671,"coord":{"lon":7.59421,"lat":48.52866}},{"displayName":"Dupree, US","country":"US","name":"Dupree","_id":5764313,"coord":{"lon":-101.60099,"lat":45.047482}},{"displayName":"Dupuy, CA","country":"CA","name":"Dupuy","_id":5944335,"coord":{"lon":-79.358253,"lat":48.83049}},{"displayName":"Duqu, CN","country":"CN","name":"Duqu","_id":1811801,"coord":{"lon":109.001648,"lat":34.11002}},{"displayName":"Duqu, CN","country":"CN","name":"Duqu","_id":1895288,"coord":{"lon":113.863289,"lat":33.813068}},{"displayName":"Duque Comunidad, PR","country":"PR","name":"Duque Comunidad","_id":7275055,"coord":{"lon":-65.743172,"lat":18.238171}},{"displayName":"Duque de Caxias, BR","country":"BR","name":"Duque de Caxias","_id":3464374,"coord":{"lon":-43.311668,"lat":-22.785561}},{"displayName":"Duque, PR","country":"PR","name":"Duque","_id":4564149,"coord":{"lon":-65.750443,"lat":18.239401}},{"displayName":"Duquesne, US","country":"US","name":"Duquesne","_id":4384809,"coord":{"lon":-94.459389,"lat":37.076729}},{"displayName":"Duquesne, US","country":"US","name":"Duquesne","_id":5187580,"coord":{"lon":-79.859772,"lat":40.381458}},{"displayName":"Dura al Qar, PS","country":"PS","name":"Dura al Qar","_id":284010,"coord":{"lon":35.227139,"lat":31.95862}},{"displayName":"Dura, PS","country":"PS","name":"Dura","_id":284011,"coord":{"lon":35.02652,"lat":31.507}},{"displayName":"Durach, DE","country":"DE","name":"Durach","_id":6557306,"coord":{"lon":10.35,"lat":47.700001}},{"displayName":"Durach, DE","country":"DE","name":"Durach","_id":2934509,"coord":{"lon":10.35,"lat":47.700001}},{"displayName":"Duragan, TR","country":"TR","name":"Duragan","_id":747826,"coord":{"lon":35.05444,"lat":41.415829}},{"displayName":"Dural, AU","country":"AU","name":"Dural","_id":2168041,"coord":{"lon":151.016663,"lat":-33.683331}},{"displayName":"Duran, EC","country":"EC","name":"Duran","_id":3658192,"coord":{"lon":-79.833328,"lat":-2.2}},{"displayName":"Duran, PH","country":"PH","name":"Duran","_id":1714030,"coord":{"lon":122.591698,"lat":11.2618}},{"displayName":"Durana, ES","country":"ES","name":"Durana","_id":3123774,"coord":{"lon":-2.63947,"lat":42.890678}},{"displayName":"Duranbah, AU","country":"AU","name":"Duranbah","_id":2168038,"coord":{"lon":153.533325,"lat":-28.316669}},{"displayName":"Durance, FR","country":"FR","name":"Durance","_id":6455134,"coord":{"lon":0.16667,"lat":44.166672}},{"displayName":"Durance, FR","country":"FR","name":"Durance","_id":3020669,"coord":{"lon":0.1602,"lat":44.160938}},{"displayName":"Durand, US","country":"US","name":"Durand","_id":4890327,"coord":{"lon":-89.332062,"lat":42.436401}},{"displayName":"Durand, US","country":"US","name":"Durand","_id":4991364,"coord":{"lon":-83.98468,"lat":42.91198}},{"displayName":"Durand, US","country":"US","name":"Durand","_id":5251056,"coord":{"lon":-91.965729,"lat":44.62635}},{"displayName":"Durango, ES","country":"ES","name":"Durango","_id":6362372,"coord":{"lon":-2.6498,"lat":43.16481}},{"displayName":"Durango, ES","country":"ES","name":"Durango","_id":3123773,"coord":{"lon":-2.6338,"lat":43.171242}},{"displayName":"Durango, MX","country":"MX","name":"Durango","_id":4011743,"coord":{"lon":-104.666672,"lat":24.033331}},{"displayName":"Durango, US","country":"US","name":"Durango","_id":5420241,"coord":{"lon":-107.880074,"lat":37.27528}},{"displayName":"Durania, CO","country":"CO","name":"Durania","_id":3685069,"coord":{"lon":-72.657593,"lat":7.71307}},{"displayName":"Durania, CO","country":"CO","name":"Durania","_id":3685070,"coord":{"lon":-70.183327,"lat":1.26667}},{"displayName":"Duranillin, AU","country":"AU","name":"Duranillin","_id":2072418,"coord":{"lon":116.783333,"lat":-33.51667}},{"displayName":"Durankulak, BG","country":"BG","name":"Durankulak","_id":6460527,"coord":{"lon":28.5,"lat":43.691669}},{"displayName":"Durankulak, BG","country":"BG","name":"Durankulak","_id":731803,"coord":{"lon":28.51667,"lat":43.700001}},{"displayName":"Durant, US","country":"US","name":"Durant","_id":4535414,"coord":{"lon":-96.370819,"lat":33.993992}},{"displayName":"Durant, US","country":"US","name":"Durant","_id":4424956,"coord":{"lon":-89.85453,"lat":33.07513}},{"displayName":"Durant, US","country":"US","name":"Durant","_id":4854674,"coord":{"lon":-90.910698,"lat":41.599751}},{"displayName":"Duras, FR","country":"FR","name":"Duras","_id":6455135,"coord":{"lon":0.18333,"lat":44.666672}},{"displayName":"Duras, FR","country":"FR","name":"Duras","_id":3020664,"coord":{"lon":0.18247,"lat":44.676182}},{"displayName":"Duraykish, SY","country":"SY","name":"Duraykish","_id":170572,"coord":{"lon":36.132919,"lat":34.896721}},{"displayName":"Durazno, AR","country":"AR","name":"Durazno","_id":3434966,"coord":{"lon":-59.277802,"lat":-31.98564}},{"displayName":"Durazno, UY","country":"UY","name":"Durazno","_id":3442727,"coord":{"lon":-56.500561,"lat":-33.413059}},{"displayName":"Durazzano, IT","country":"IT","name":"Durazzano","_id":3177444,"coord":{"lon":14.45063,"lat":41.063019}},{"displayName":"Durbach, DE","country":"DE","name":"Durbach","_id":2934506,"coord":{"lon":8.01667,"lat":48.48333}},{"displayName":"Durbach, DE","country":"DE","name":"Durbach","_id":2934505,"coord":{"lon":8.01736,"lat":48.493519}},{"displayName":"Durban, ZA","country":"ZA","name":"Durban","_id":1007311,"coord":{"lon":31.0292,"lat":-29.857901}},{"displayName":"Durbes Novads, LV","country":"LV","name":"Durbes Novads","_id":7628304,"coord":{"lon":21.395281,"lat":56.607498}},{"displayName":"Durbheim, DE","country":"DE","name":"Durbheim","_id":2934499,"coord":{"lon":8.78333,"lat":48.049999}},{"displayName":"Durbuy, BE","country":"BE","name":"Durbuy","_id":2799048,"coord":{"lon":5.46667,"lat":50.349998}},{"displayName":"Durbuy, BE","country":"BE","name":"Durbuy","_id":2799047,"coord":{"lon":5.45631,"lat":50.352909}},{"displayName":"Durcal, ES","country":"ES","name":"Durcal","_id":2518774,"coord":{"lon":-3.56601,"lat":36.987881}},{"displayName":"Durcet, FR","country":"FR","name":"Durcet","_id":6439083,"coord":{"lon":-0.43333,"lat":48.75}},{"displayName":"Durcet, FR","country":"FR","name":"Durcet","_id":3020650,"coord":{"lon":-0.43796,"lat":48.747021}},{"displayName":"Durchhausen, DE","country":"DE","name":"Durchhausen","_id":2934495,"coord":{"lon":8.68333,"lat":48.033329}},{"displayName":"Durchhausen, DE","country":"DE","name":"Durchhausen","_id":6555838,"coord":{"lon":8.68333,"lat":48.033298}},{"displayName":"Durdat-Larequille, FR","country":"FR","name":"Durdat-Larequille","_id":6425348,"coord":{"lon":2.7,"lat":46.25}},{"displayName":"Durdat-Larequille, FR","country":"FR","name":"Durdat-Larequille","_id":3020648,"coord":{"lon":2.70112,"lat":46.251732}},{"displayName":"Durdevo, RS","country":"RS","name":"Durdevo","_id":790898,"coord":{"lon":20.06472,"lat":45.324718}},{"displayName":"Duren, DE","country":"DE","name":"Duren","_id":2934486,"coord":{"lon":6.48333,"lat":50.799999}},{"displayName":"Duren, ID","country":"ID","name":"Duren","_id":7035381,"coord":{"lon":112.282799,"lat":-8.1213}},{"displayName":"Durenan, ID","country":"ID","name":"Durenan","_id":7083287,"coord":{"lon":113.653603,"lat":-8.2441}},{"displayName":"Durg, IN","country":"IN","name":"Durg","_id":1272181,"coord":{"lon":81.283333,"lat":21.183331}},{"displayName":"Durgapur, IN","country":"IN","name":"Durgapur","_id":1272175,"coord":{"lon":87.316673,"lat":23.48333}},{"displayName":"Durgapur, IN","country":"IN","name":"Durgapur","_id":1272177,"coord":{"lon":79.300003,"lat":20.0}},{"displayName":"Durgeli, RU","country":"RU","name":"Durgeli","_id":564098,"coord":{"lon":47.29435,"lat":42.667}},{"displayName":"Durham Bridge, CA","country":"CA","name":"Durham Bridge","_id":5944371,"coord":{"lon":-66.598869,"lat":46.11681}},{"displayName":"Durham County, US","country":"US","name":"Durham County","_id":4464374,"coord":{"lon":-78.866402,"lat":36.033482}},{"displayName":"Durham Lead, AU","country":"AU","name":"Durham Lead","_id":2168029,"coord":{"lon":143.883331,"lat":-37.700001}},{"displayName":"Durham Ox, AU","country":"AU","name":"Durham Ox","_id":2168028,"coord":{"lon":143.916672,"lat":-36.133331}},{"displayName":"Durham, CA","country":"CA","name":"Durham","_id":5944368,"coord":{"lon":-80.816422,"lat":44.16679}},{"displayName":"Durham, GB","country":"GB","name":"Durham","_id":2650628,"coord":{"lon":-1.57566,"lat":54.77676}},{"displayName":"Durham, US","country":"US","name":"Durham","_id":4464368,"coord":{"lon":-78.898621,"lat":35.99403}},{"displayName":"Durham, US","country":"US","name":"Durham","_id":4833123,"coord":{"lon":-72.681213,"lat":41.481758}},{"displayName":"Durham, US","country":"US","name":"Durham","_id":5085618,"coord":{"lon":-70.926453,"lat":43.133968}},{"displayName":"Durham, US","country":"US","name":"Durham","_id":5344359,"coord":{"lon":-121.79998,"lat":39.646271}},{"displayName":"Durham, US","country":"US","name":"Durham","_id":5724406,"coord":{"lon":-122.752869,"lat":45.402061}},{"displayName":"Duri, AU","country":"AU","name":"Duri","_id":2168026,"coord":{"lon":150.816666,"lat":-31.216669}},{"displayName":"Durici, RS","country":"RS","name":"Durici","_id":3300709,"coord":{"lon":19.41139,"lat":43.824718}},{"displayName":"Durlach, DE","country":"DE","name":"Durlach","_id":2934469,"coord":{"lon":8.47432,"lat":48.99976}},{"displayName":"Durlangen, DE","country":"DE","name":"Durlangen","_id":6555578,"coord":{"lon":9.79644,"lat":48.856289}},{"displayName":"Durlangen, DE","country":"DE","name":"Durlangen","_id":2934466,"coord":{"lon":9.79654,"lat":48.856319}},{"displayName":"Durmentingen, DE","country":"DE","name":"Durmentingen","_id":2934464,"coord":{"lon":9.53333,"lat":48.116669}},{"displayName":"Durmersheim, DE","country":"DE","name":"Durmersheim","_id":6555626,"coord":{"lon":8.274,"lat":48.938599}},{"displayName":"Durmersheim, DE","country":"DE","name":"Durmersheim","_id":2934462,"coord":{"lon":8.26667,"lat":48.933331}},{"displayName":"Durnau, DE","country":"DE","name":"Durnau","_id":2934452,"coord":{"lon":9.63544,"lat":48.640789}},{"displayName":"Durnau, DE","country":"DE","name":"Durnau","_id":2934453,"coord":{"lon":9.56667,"lat":48.066669}},{"displayName":"Durnesti, RO","country":"RO","name":"Durnesti","_id":678605,"coord":{"lon":27.1,"lat":47.76667}},{"displayName":"Durnford, GB","country":"GB","name":"Durnford","_id":2650619,"coord":{"lon":-1.81667,"lat":51.133331}},{"displayName":"Durnikha, RU","country":"RU","name":"Durnikha","_id":564081,"coord":{"lon":38.113888,"lat":55.536388}},{"displayName":"Durnkrut, AT","country":"AT","name":"Durnkrut","_id":2780607,"coord":{"lon":16.85062,"lat":48.473148}},{"displayName":"Durnstein in der Steiermark, AT","country":"AT","name":"Durnstein in der Steiermark","_id":2780603,"coord":{"lon":14.39167,"lat":46.988331}},{"displayName":"Durnstein, AT","country":"AT","name":"Durnstein","_id":2780604,"coord":{"lon":15.51667,"lat":48.383331}},{"displayName":"Durnten, CH","country":"CH","name":"Durnten","_id":2660965,"coord":{"lon":8.84156,"lat":47.278561}},{"displayName":"Duron, ES","country":"ES","name":"Duron","_id":3123770,"coord":{"lon":-2.72662,"lat":40.625301}},{"displayName":"Durong, AU","country":"AU","name":"Durong","_id":2168021,"coord":{"lon":151.25,"lat":-26.33333}},{"displayName":"Duronia, IT","country":"IT","name":"Duronia","_id":3177442,"coord":{"lon":14.45842,"lat":41.658932}},{"displayName":"Duross Heights, US","country":"US","name":"Duross Heights","_id":4142347,"coord":{"lon":-75.622429,"lat":39.680672}},{"displayName":"Durovići, HR","country":"HR","name":"Durovići","_id":3264210,"coord":{"lon":18.260281,"lat":42.55722}},{"displayName":"Durren Durren, AU","country":"AU","name":"Durren Durren","_id":2168017,"coord":{"lon":151.399994,"lat":-33.200001}},{"displayName":"Durrenasch, CH","country":"CH","name":"Durrenasch","_id":2660962,"coord":{"lon":8.1585,"lat":47.318119}},{"displayName":"Durrenbach, FR","country":"FR","name":"Durrenbach","_id":3020624,"coord":{"lon":7.76733,"lat":48.89748}},{"displayName":"Durrenroth, CH","country":"CH","name":"Durrenroth","_id":2660960,"coord":{"lon":7.7913,"lat":47.088161}},{"displayName":"Durres, AL","country":"AL","name":"Durres","_id":3185728,"coord":{"lon":19.441389,"lat":41.323059}},{"displayName":"Durrhennersdorf, DE","country":"DE","name":"Durrhennersdorf","_id":2934324,"coord":{"lon":14.61667,"lat":51.049999}},{"displayName":"Durrington, GB","country":"GB","name":"Durrington","_id":2650615,"coord":{"lon":-1.77185,"lat":51.198711}},{"displayName":"Durrlauingen, DE","country":"DE","name":"Durrlauingen","_id":2934317,"coord":{"lon":10.4286,"lat":48.46666}},{"displayName":"Durrow Cross Roads, IE","country":"IE","name":"Durrow Cross Roads","_id":2964466,"coord":{"lon":-7.51778,"lat":52.14444}},{"displayName":"Durrow, IE","country":"IE","name":"Durrow","_id":2964468,"coord":{"lon":-7.3925,"lat":52.84417}},{"displayName":"Durrrohrsdorf, DE","country":"DE","name":"Durrrohrsdorf","_id":2934286,"coord":{"lon":13.99718,"lat":51.033951}},{"displayName":"Durrwangen, DE","country":"DE","name":"Durrwangen","_id":2934281,"coord":{"lon":10.38333,"lat":49.116669}},{"displayName":"Dursley, GB","country":"GB","name":"Dursley","_id":2650613,"coord":{"lon":-2.35333,"lat":51.681389}},{"displayName":"Dursunbey, TR","country":"TR","name":"Dursunbey","_id":316102,"coord":{"lon":28.625681,"lat":39.58596}},{"displayName":"Dursunlu, TR","country":"TR","name":"Dursunlu","_id":438119,"coord":{"lon":36.159721,"lat":36.162781}},{"displayName":"Durtal, FR","country":"FR","name":"Durtal","_id":3020621,"coord":{"lon":-0.23393,"lat":47.67247}},{"displayName":"Durtol, FR","country":"FR","name":"Durtol","_id":6440022,"coord":{"lon":3.05,"lat":45.799999}},{"displayName":"Durtol, FR","country":"FR","name":"Durtol","_id":3020620,"coord":{"lon":3.05264,"lat":45.796219}},{"displayName":"Duruca, TR","country":"TR","name":"Duruca","_id":316096,"coord":{"lon":41.308609,"lat":37.09333}},{"displayName":"Duruelo de la Sierra, ES","country":"ES","name":"Duruelo de la Sierra","_id":6361129,"coord":{"lon":-2.92531,"lat":41.966099}},{"displayName":"Duruelo de la Sierra, ES","country":"ES","name":"Duruelo de la Sierra","_id":3123765,"coord":{"lon":-2.93086,"lat":41.954479}},{"displayName":"Duruelo, ES","country":"ES","name":"Duruelo","_id":6360807,"coord":{"lon":-3.64252,"lat":41.222672}},{"displayName":"Duruelo, ES","country":"ES","name":"Duruelo","_id":3123766,"coord":{"lon":-3.64914,"lat":41.236221}},{"displayName":"Durusu, TR","country":"TR","name":"Durusu","_id":747793,"coord":{"lon":28.67667,"lat":41.305279}},{"displayName":"Durutlar, TR","country":"TR","name":"Durutlar","_id":316085,"coord":{"lon":32.447269,"lat":39.538361}},{"displayName":"Duryea, US","country":"US","name":"Duryea","_id":5187611,"coord":{"lon":-75.738533,"lat":41.343971}},{"displayName":"Durón, ES","country":"ES","name":"Durón","_id":6357891,"coord":{"lon":-2.70553,"lat":40.634529}},{"displayName":"Dusa Marreb, SO","country":"SO","name":"Dusa Marreb","_id":60928,"coord":{"lon":46.386108,"lat":5.535}},{"displayName":"Duschlberg, DE","country":"DE","name":"Duschlberg","_id":2934263,"coord":{"lon":13.63333,"lat":48.650002}},{"displayName":"Dusetos, LT","country":"LT","name":"Dusetos","_id":599686,"coord":{"lon":25.85,"lat":55.75}},{"displayName":"Dushan, CN","country":"CN","name":"Dushan","_id":1897924,"coord":{"lon":121.266113,"lat":29.045561}},{"displayName":"Dushanbe, TJ","country":"TJ","name":"Dushanbe","_id":7280679,"coord":{"lon":68.779739,"lat":38.557701}},{"displayName":"Dushanbe, TJ","country":"TJ","name":"Dushanbe","_id":1221874,"coord":{"lon":68.779053,"lat":38.535751}},{"displayName":"Dushang, CN","country":"CN","name":"Dushang","_id":1922458,"coord":{"lon":116.754593,"lat":26.689171}},{"displayName":"Dushanzi, CN","country":"CN","name":"Dushanzi","_id":1529528,"coord":{"lon":84.849998,"lat":44.333328}},{"displayName":"Dushenovo, RU","country":"RU","name":"Dushenovo","_id":564038,"coord":{"lon":38.299999,"lat":56.066666}},{"displayName":"Dushevo, BY","country":"BY","name":"Dushevo","_id":8047227,"coord":{"lon":26.9891,"lat":53.195801}},{"displayName":"Dushi, CN","country":"CN","name":"Dushi","_id":1811878,"coord":{"lon":115.980492,"lat":28.05216}},{"displayName":"Dushkovtsy, BY","country":"BY","name":"Dushkovtsy","_id":628706,"coord":{"lon":25.950001,"lat":53.366669}},{"displayName":"Dushu, CN","country":"CN","name":"Dushu","_id":1811783,"coord":{"lon":113.159691,"lat":33.325432}},{"displayName":"Dusi, IN","country":"IN","name":"Dusi","_id":1272156,"coord":{"lon":79.683327,"lat":12.76667}},{"displayName":"Dusit, TH","country":"TH","name":"Dusit","_id":1610858,"coord":{"lon":100.519768,"lat":13.7775}},{"displayName":"Duskotna, BG","country":"BG","name":"Duskotna","_id":6460096,"coord":{"lon":27.200001,"lat":42.883331}},{"displayName":"Dusnok, HU","country":"HU","name":"Dusnok","_id":3053423,"coord":{"lon":18.962959,"lat":46.39085}},{"displayName":"Duson, US","country":"US","name":"Duson","_id":4323190,"coord":{"lon":-92.185402,"lat":30.23576}},{"displayName":"Dussac, FR","country":"FR","name":"Dussac","_id":6429367,"coord":{"lon":1.08333,"lat":45.400002}},{"displayName":"Dussac, FR","country":"FR","name":"Dussac","_id":3020615,"coord":{"lon":1.08236,"lat":45.39497}},{"displayName":"Dusseldorf, DE","country":"DE","name":"Dusseldorf","_id":2934246,"coord":{"lon":6.77616,"lat":51.221722}},{"displayName":"Dusslingen, DE","country":"DE","name":"Dusslingen","_id":2934235,"coord":{"lon":9.05552,"lat":48.453571}},{"displayName":"Dussnang, CH","country":"CH","name":"Dussnang","_id":7669540,"coord":{"lon":8.96309,"lat":47.431412}},{"displayName":"Dusti, TJ","country":"TJ","name":"Dusti","_id":1221871,"coord":{"lon":68.663979,"lat":37.348122}},{"displayName":"Dustlik, UZ","country":"UZ","name":"Dustlik","_id":1514125,"coord":{"lon":68.035828,"lat":40.524719}},{"displayName":"Dusun Desa Bunter, ID","country":"ID","name":"Dusun Desa Bunter","_id":8053753,"coord":{"lon":108.4664,"lat":-7.2901}},{"displayName":"Dusun Desa Handapherang, ID","country":"ID","name":"Dusun Desa Handapherang","_id":8053694,"coord":{"lon":108.379601,"lat":-7.3429}},{"displayName":"Dusun Desa Sukadana, ID","country":"ID","name":"Dusun Desa Sukadana","_id":8053717,"coord":{"lon":108.432198,"lat":-7.2617}},{"displayName":"Dusun Tengah Cihaurbeuti, ID","country":"ID","name":"Dusun Tengah Cihaurbeuti","_id":8026013,"coord":{"lon":108.202698,"lat":-7.2248}},{"displayName":"Dusundesa, ID","country":"ID","name":"Dusundesa","_id":8045374,"coord":{"lon":108.284599,"lat":-7.4051}},{"displayName":"Duszniki, PL","country":"PL","name":"Duszniki","_id":3099993,"coord":{"lon":16.406019,"lat":52.446911}},{"displayName":"Duszniki-Zdroj, PL","country":"PL","name":"Duszniki-Zdroj","_id":3099992,"coord":{"lon":16.390909,"lat":50.403271}},{"displayName":"Duszniki-Zdrój, PL","country":"PL","name":"Duszniki-Zdrój","_id":7531678,"coord":{"lon":16.3818,"lat":50.3703}},{"displayName":"Dutch Harbor, US","country":"US","name":"Dutch Harbor","_id":5861117,"coord":{"lon":-166.542206,"lat":53.889801}},{"displayName":"Dutch Valley, US","country":"US","name":"Dutch Valley","_id":4619733,"coord":{"lon":-84.208527,"lat":36.114521}},{"displayName":"Dutchess County, US","country":"US","name":"Dutchess County","_id":5115580,"coord":{"lon":-73.73291,"lat":41.766762}},{"displayName":"Dutenhofen, DE","country":"DE","name":"Dutenhofen","_id":2934198,"coord":{"lon":8.6,"lat":50.566669}},{"displayName":"Dutlwe, BW","country":"BW","name":"Dutlwe","_id":933787,"coord":{"lon":23.9,"lat":-23.98333}},{"displayName":"Dutovlje, SI","country":"SI","name":"Dutovlje","_id":3200933,"coord":{"lon":13.83222,"lat":45.75806}},{"displayName":"Dutoye, RU","country":"RU","name":"Dutoye","_id":564025,"coord":{"lon":37.525829,"lat":52.550282}},{"displayName":"Dutse, NG","country":"NG","name":"Dutse","_id":2344245,"coord":{"lon":9.33921,"lat":11.7594}},{"displayName":"Dutsen Wai, NG","country":"NG","name":"Dutsen Wai","_id":2344229,"coord":{"lon":8.199,"lat":10.85009}},{"displayName":"Dutshevo, RU","country":"RU","name":"Dutshevo","_id":564024,"coord":{"lon":37.133331,"lat":56.599998}},{"displayName":"Dutsin Ma, NG","country":"NG","name":"Dutsin Ma","_id":2344217,"coord":{"lon":7.49805,"lat":12.45167}},{"displayName":"Duttenbrunn, DE","country":"DE","name":"Duttenbrunn","_id":2934190,"coord":{"lon":9.71667,"lat":49.900002}},{"displayName":"Duttlenheim, FR","country":"FR","name":"Duttlenheim","_id":3020614,"coord":{"lon":7.56572,"lat":48.525532}},{"displayName":"Dutton, AU","country":"AU","name":"Dutton","_id":2072402,"coord":{"lon":139.133331,"lat":-34.366669}},{"displayName":"Duttweiler, DE","country":"DE","name":"Duttweiler","_id":2934184,"coord":{"lon":8.21389,"lat":49.299171}},{"displayName":"Duut, MN","country":"MN","name":"Duut","_id":1516040,"coord":{"lon":91.633331,"lat":47.51667}},{"displayName":"Duval County, US","country":"US","name":"Duval County","_id":4153840,"coord":{"lon":-81.631477,"lat":30.356911}},{"displayName":"Duvall, US","country":"US","name":"Duvall","_id":5792990,"coord":{"lon":-121.98568,"lat":47.742321}},{"displayName":"Duvan, RU","country":"RU","name":"Duvan","_id":564022,"coord":{"lon":57.90237,"lat":55.694969}},{"displayName":"Duvbo, SE","country":"SE","name":"Duvbo","_id":2717126,"coord":{"lon":17.961531,"lat":59.368759}},{"displayName":"Duvedal, SE","country":"SE","name":"Duvedal","_id":6944523,"coord":{"lon":15.0505,"lat":58.547901}},{"displayName":"Duvendiek, DE","country":"DE","name":"Duvendiek","_id":2934170,"coord":{"lon":12.9279,"lat":54.336239}},{"displayName":"Duvensee, DE","country":"DE","name":"Duvensee","_id":6551426,"coord":{"lon":10.5667,"lat":53.700001}},{"displayName":"Duvensee, DE","country":"DE","name":"Duvensee","_id":2934167,"coord":{"lon":10.56667,"lat":53.700001}},{"displayName":"Duvenstedt, DE","country":"DE","name":"Duvenstedt","_id":2934163,"coord":{"lon":10.10444,"lat":53.708061}},{"displayName":"Duverge, DO","country":"DO","name":"Duverge","_id":3508694,"coord":{"lon":-71.524689,"lat":18.378389}},{"displayName":"Duvier, DE","country":"DE","name":"Duvier","_id":2934158,"coord":{"lon":13.06858,"lat":54.015491}},{"displayName":"Duwe, ID","country":"ID","name":"Duwe","_id":7581884,"coord":{"lon":114.001404,"lat":-7.8742}},{"displayName":"Duxbury, US","country":"US","name":"Duxbury","_id":4935211,"coord":{"lon":-70.672256,"lat":42.041771}},{"displayName":"Duxford, GB","country":"GB","name":"Duxford","_id":2650605,"coord":{"lon":0.15917,"lat":52.093929}},{"displayName":"Duyos, ES","country":"ES","name":"Duyos","_id":3123761,"coord":{"lon":-5.20477,"lat":43.45734}},{"displayName":"Duyun, CN","country":"CN","name":"Duyun","_id":1811764,"coord":{"lon":107.51667,"lat":26.26667}},{"displayName":"Duyure, HN","country":"HN","name":"Duyure","_id":3612801,"coord":{"lon":-86.816673,"lat":13.63333}},{"displayName":"Duzce, TR","country":"TR","name":"Duzce","_id":747764,"coord":{"lon":31.163891,"lat":40.83889}},{"displayName":"Duze, CN","country":"CN","name":"Duze","_id":1811762,"coord":{"lon":118.945587,"lat":29.12443}},{"displayName":"Duzhuang, CN","country":"CN","name":"Duzhuang","_id":1811754,"coord":{"lon":113.467216,"lat":39.935001}},{"displayName":"Duzkoy, TR","country":"TR","name":"Duzkoy","_id":747751,"coord":{"lon":39.427158,"lat":40.872841}},{"displayName":"Duzova, TR","country":"TR","name":"Duzova","_id":316028,"coord":{"lon":42.089169,"lat":37.35667}},{"displayName":"Dußlingen, DE","country":"DE","name":"Dußlingen","_id":6555938,"coord":{"lon":9.0532,"lat":48.449001}},{"displayName":"Duña, ES","country":"ES","name":"Duña","_id":3123776,"coord":{"lon":-4.21734,"lat":43.335739}},{"displayName":"Du’an, CN","country":"CN","name":"Du’an","_id":1811969,"coord":{"lon":106.483887,"lat":23.29389}},{"displayName":"Dvarets, BY","country":"BY","name":"Dvarets","_id":628692,"coord":{"lon":25.566668,"lat":53.400002}},{"displayName":"Dve Mogili, BG","country":"BG","name":"Dve Mogili","_id":731771,"coord":{"lon":25.866671,"lat":43.599998}},{"displayName":"Dvin, AM","country":"AM","name":"Dvin","_id":616741,"coord":{"lon":44.583759,"lat":40.01984}},{"displayName":"Dvinskoy, RU","country":"RU","name":"Dvinskoy","_id":563990,"coord":{"lon":45.117512,"lat":62.153511}},{"displayName":"Dvor Prebosek, SK","country":"SK","name":"Dvor Prebosek","_id":3060273,"coord":{"lon":17.244329,"lat":48.178879}},{"displayName":"Dvor, HR","country":"HR","name":"Dvor","_id":3200917,"coord":{"lon":16.370831,"lat":45.073059}},{"displayName":"Dvorce, CZ","country":"CZ","name":"Dvorce","_id":3076284,"coord":{"lon":17.547621,"lat":49.833321}},{"displayName":"Dvorichna, UA","country":"UA","name":"Dvorichna","_id":709399,"coord":{"lon":37.68568,"lat":49.849628}},{"displayName":"Dvoriki, RU","country":"RU","name":"Dvoriki","_id":563974,"coord":{"lon":40.916668,"lat":54.833332}},{"displayName":"Dvorishche, BY","country":"BY","name":"Dvorishche","_id":628684,"coord":{"lon":27.6,"lat":53.849998}},{"displayName":"Dvorishchi, RU","country":"RU","name":"Dvorishchi","_id":563963,"coord":{"lon":38.599998,"lat":56.083332}},{"displayName":"Dvorovi, BA","country":"BA","name":"Dvorovi","_id":3211537,"coord":{"lon":19.260559,"lat":44.806671}},{"displayName":"Dvorska, CZ","country":"CZ","name":"Dvorska","_id":3076258,"coord":{"lon":16.70059,"lat":49.140839}},{"displayName":"Dvoyni, RU","country":"RU","name":"Dvoyni","_id":563929,"coord":{"lon":39.216667,"lat":55.299999}},{"displayName":"Dvoynoy, RU","country":"RU","name":"Dvoynoy","_id":563922,"coord":{"lon":41.342361,"lat":46.326462}},{"displayName":"Dvubratskiy, RU","country":"RU","name":"Dvubratskiy","_id":840909,"coord":{"lon":39.804989,"lat":45.23888}},{"displayName":"Dvur Kralove nad Labem, CZ","country":"CZ","name":"Dvur Kralove nad Labem","_id":3061284,"coord":{"lon":15.81402,"lat":50.431721}},{"displayName":"Dvurechensk, RU","country":"RU","name":"Dvurechensk","_id":1507059,"coord":{"lon":61.095299,"lat":56.598202}},{"displayName":"Dwah Manday, AF","country":"AF","name":"Dwah Manday","_id":1143782,"coord":{"lon":69.584999,"lat":33.28167}},{"displayName":"Dwaleni, ZA","country":"ZA","name":"Dwaleni","_id":1007195,"coord":{"lon":31.100321,"lat":-25.359751}},{"displayName":"Dwarahat, IN","country":"IN","name":"Dwarahat","_id":1272145,"coord":{"lon":79.433327,"lat":29.783331}},{"displayName":"Dwarka, IN","country":"IN","name":"Dwarka","_id":1272140,"coord":{"lon":68.967781,"lat":22.239441}},{"displayName":"Dwellingup, AU","country":"AU","name":"Dwellingup","_id":2072393,"coord":{"lon":116.066673,"lat":-32.716671}},{"displayName":"Dwergte, DE","country":"DE","name":"Dwergte","_id":2934142,"coord":{"lon":7.9,"lat":52.883331}},{"displayName":"Dwight, US","country":"US","name":"Dwight","_id":4890359,"coord":{"lon":-88.425056,"lat":41.094479}},{"displayName":"Dwikozy, PL","country":"PL","name":"Dwikozy","_id":772822,"coord":{"lon":21.788639,"lat":50.73613}},{"displayName":"Dwingeloo, NL","country":"NL","name":"Dwingeloo","_id":2756451,"coord":{"lon":6.36944,"lat":52.834171}},{"displayName":"Dworzysko, PL","country":"PL","name":"Dworzysko","_id":3099974,"coord":{"lon":16.26667,"lat":50.816669}},{"displayName":"Dwyer Junction, US","country":"US","name":"Dwyer Junction","_id":5823980,"coord":{"lon":-104.994972,"lat":42.234692}},{"displayName":"Dyagilevo, RU","country":"RU","name":"Dyagilevo","_id":6423270,"coord":{"lon":41.821388,"lat":56.818611}},{"displayName":"Dyagilevo, RU","country":"RU","name":"Dyagilevo","_id":563880,"coord":{"lon":39.602779,"lat":54.654446}},{"displayName":"Dyankovo, BG","country":"BG","name":"Dyankovo","_id":731757,"coord":{"lon":26.6,"lat":43.616669}},{"displayName":"Dyatkovo, RU","country":"RU","name":"Dyatkovo","_id":563822,"coord":{"lon":34.338249,"lat":53.59782}},{"displayName":"Dyatlovka, RU","country":"RU","name":"Dyatlovka","_id":563815,"coord":{"lon":38.074165,"lat":55.732777}},{"displayName":"Dybbol, DK","country":"DK","name":"Dybbol","_id":2622854,"coord":{"lon":9.73601,"lat":54.910789}},{"displayName":"Dybków, PL","country":"PL","name":"Dybków","_id":772806,"coord":{"lon":22.628151,"lat":50.17223}},{"displayName":"Dyce, GB","country":"GB","name":"Dyce","_id":2650601,"coord":{"lon":-2.17676,"lat":57.205219}},{"displayName":"Dyck, DE","country":"DE","name":"Dyck","_id":2934136,"coord":{"lon":6.28333,"lat":51.283329}},{"displayName":"Dydnia, PL","country":"PL","name":"Dydnia","_id":772793,"coord":{"lon":22.171961,"lat":49.686401}},{"displayName":"Dyer County, US","country":"US","name":"Dyer County","_id":4619773,"coord":{"lon":-89.40007,"lat":36.050072}},{"displayName":"Dyer, US","country":"US","name":"Dyer","_id":4919820,"coord":{"lon":-87.521713,"lat":41.494202}},{"displayName":"Dyer, US","country":"US","name":"Dyer","_id":4619758,"coord":{"lon":-88.99395,"lat":36.06673}},{"displayName":"Dyers Crossing, AU","country":"AU","name":"Dyers Crossing","_id":2168000,"coord":{"lon":152.300003,"lat":-32.099998}},{"displayName":"Dyersburg, US","country":"US","name":"Dyersburg","_id":4619800,"coord":{"lon":-89.385628,"lat":36.034519}},{"displayName":"Dyersville, US","country":"US","name":"Dyersville","_id":4854711,"coord":{"lon":-91.12291,"lat":42.48444}},{"displayName":"Dygowo, PL","country":"PL","name":"Dygowo","_id":3099966,"coord":{"lon":15.71993,"lat":54.13031}},{"displayName":"Dykanka, UA","country":"UA","name":"Dykanka","_id":710041,"coord":{"lon":34.52787,"lat":49.825008}},{"displayName":"Dykes, US","country":"US","name":"Dykes","_id":4290651,"coord":{"lon":-84.435768,"lat":37.068138}},{"displayName":"Dylym, RU","country":"RU","name":"Dylym","_id":563792,"coord":{"lon":46.634541,"lat":43.070992}},{"displayName":"Dymchurch, GB","country":"GB","name":"Dymchurch","_id":2650589,"coord":{"lon":0.99392,"lat":51.02544}},{"displayName":"Dyment, CA","country":"CA","name":"Dyment","_id":5944610,"coord":{"lon":-92.314987,"lat":49.615639}},{"displayName":"Dymer, UA","country":"UA","name":"Dymer","_id":709373,"coord":{"lon":30.302601,"lat":50.786469}},{"displayName":"Dymitrów Duży, PL","country":"PL","name":"Dymitrów Duży","_id":772776,"coord":{"lon":21.520189,"lat":50.480179}},{"displayName":"Dymniki, BY","country":"BY","name":"Dymniki","_id":628654,"coord":{"lon":24.1,"lat":52.383331}},{"displayName":"Dymovka, UA","country":"UA","name":"Dymovka","_id":709367,"coord":{"lon":34.450001,"lat":45.700001}},{"displayName":"Dymytrove, UA","country":"UA","name":"Dymytrove","_id":710032,"coord":{"lon":32.983471,"lat":48.60767}},{"displayName":"Dynow, PL","country":"PL","name":"Dynow","_id":772772,"coord":{"lon":22.233879,"lat":49.81506}},{"displayName":"Dysart, IE","country":"IE","name":"Dysart","_id":2964457,"coord":{"lon":-7.45,"lat":53.466671}},{"displayName":"Dysart, US","country":"US","name":"Dysart","_id":4854718,"coord":{"lon":-92.306297,"lat":42.171661}},{"displayName":"Dyserth, GB","country":"GB","name":"Dyserth","_id":2650584,"coord":{"lon":-3.41262,"lat":53.30032}},{"displayName":"Dyshne-Vedeno, RU","country":"RU","name":"Dyshne-Vedeno","_id":563744,"coord":{"lon":46.11578,"lat":42.96434}},{"displayName":"Dysina, CZ","country":"CZ","name":"Dysina","_id":3076234,"coord":{"lon":13.4915,"lat":49.777351}},{"displayName":"Dyudevo, BY","country":"BY","name":"Dyudevo","_id":628652,"coord":{"lon":27.450001,"lat":53.133331}},{"displayName":"Dyuny, RU","country":"RU","name":"Dyuny","_id":563728,"coord":{"lon":30.007221,"lat":60.14389}},{"displayName":"Dyurtyuli, RU","country":"RU","name":"Dyurtyuli","_id":563719,"coord":{"lon":54.868832,"lat":55.491058}},{"displayName":"Dyut’kovo, RU","country":"RU","name":"Dyut’kovo","_id":563714,"coord":{"lon":36.806389,"lat":55.754166}},{"displayName":"Dywity, PL","country":"PL","name":"Dywity","_id":772768,"coord":{"lon":20.47817,"lat":53.837589}},{"displayName":"Dzaanhoshuu, MN","country":"MN","name":"Dzaanhoshuu","_id":2031704,"coord":{"lon":100.878014,"lat":47.493309}},{"displayName":"Dzadgay, MN","country":"MN","name":"Dzadgay","_id":1516037,"coord":{"lon":99.598618,"lat":46.210609}},{"displayName":"Dzag, MN","country":"MN","name":"Dzag","_id":1516036,"coord":{"lon":99.166893,"lat":46.942291}},{"displayName":"Dzagam, AZ","country":"AZ","name":"Dzagam","_id":586692,"coord":{"lon":45.885639,"lat":40.903301}},{"displayName":"Dzalaa, MN","country":"MN","name":"Dzalaa","_id":1516023,"coord":{"lon":99.26667,"lat":44.533329}},{"displayName":"Dzan, MX","country":"MX","name":"Dzan","_id":3529672,"coord":{"lon":-89.466667,"lat":20.383329}},{"displayName":"Dzaoudzi, YT","country":"YT","name":"Dzaoudzi","_id":921900,"coord":{"lon":45.269939,"lat":-12.7887}},{"displayName":"Dzegstey, MN","country":"MN","name":"Dzegstey","_id":2031615,"coord":{"lon":102.549988,"lat":47.668049}},{"displayName":"Dzel, MN","country":"MN","name":"Dzel","_id":1516004,"coord":{"lon":93.78582,"lat":49.907131}},{"displayName":"Dzelter, MN","country":"MN","name":"Dzelter","_id":2031613,"coord":{"lon":105.04583,"lat":50.315559}},{"displayName":"Dzemul, MX","country":"MX","name":"Dzemul","_id":3529669,"coord":{"lon":-89.300003,"lat":21.200001}},{"displayName":"Dzepciste, MK","country":"MK","name":"Dzepciste","_id":790857,"coord":{"lon":21.0,"lat":42.03278}},{"displayName":"Dzerzhinsk, RU","country":"RU","name":"Dzerzhinsk","_id":2056861,"coord":{"lon":104.38694,"lat":52.280281}},{"displayName":"Dzerzhinsk, RU","country":"RU","name":"Dzerzhinsk","_id":563708,"coord":{"lon":43.463058,"lat":56.238892}},{"displayName":"Dzerzhinskiy, RU","country":"RU","name":"Dzerzhinskiy","_id":563705,"coord":{"lon":37.846943,"lat":55.628613}},{"displayName":"Dzerzhinskoye, RU","country":"RU","name":"Dzerzhinskoye","_id":1507035,"coord":{"lon":95.228333,"lat":56.834438}},{"displayName":"Dzerzhynsk, UA","country":"UA","name":"Dzerzhynsk","_id":709354,"coord":{"lon":37.84787,"lat":48.398689}},{"displayName":"Dzhaga, RU","country":"RU","name":"Dzhaga","_id":563692,"coord":{"lon":42.650002,"lat":43.25}},{"displayName":"Dzhaga-Mamysh, UA","country":"UA","name":"Dzhaga-Mamysh","_id":709344,"coord":{"lon":34.083328,"lat":45.183331}},{"displayName":"Dzhaindy, KZ","country":"KZ","name":"Dzhaindy","_id":609991,"coord":{"lon":57.75,"lat":47.766666}},{"displayName":"Dzhalagash, KZ","country":"KZ","name":"Dzhalagash","_id":1524478,"coord":{"lon":64.666672,"lat":45.083328}},{"displayName":"Dzhalil, RU","country":"RU","name":"Dzhalil","_id":563681,"coord":{"lon":52.735802,"lat":55.023899}},{"displayName":"Dzhalilabad, AZ","country":"AZ","name":"Dzhalilabad","_id":148290,"coord":{"lon":48.491859,"lat":39.209629}},{"displayName":"Dzhalka, RU","country":"RU","name":"Dzhalka","_id":563678,"coord":{"lon":45.987869,"lat":43.3186}},{"displayName":"Dzhambeyty, KZ","country":"KZ","name":"Dzhambeyty","_id":609977,"coord":{"lon":52.595001,"lat":50.253609}},{"displayName":"Dzhandy-Say, KZ","country":"KZ","name":"Dzhandy-Say","_id":609968,"coord":{"lon":54.833332,"lat":49.299999}},{"displayName":"Dzhangala, KZ","country":"KZ","name":"Dzhangala","_id":609965,"coord":{"lon":50.333328,"lat":49.216671}},{"displayName":"Dzhankhot, RU","country":"RU","name":"Dzhankhot","_id":563661,"coord":{"lon":38.157501,"lat":44.463333}},{"displayName":"Dzhankoy, UA","country":"UA","name":"Dzhankoy","_id":709334,"coord":{"lon":34.400002,"lat":45.716667}},{"displayName":"Dzhardzhava, UA","country":"UA","name":"Dzhardzhava","_id":796931,"coord":{"lon":36.417778,"lat":45.340557}},{"displayName":"Dzhayrakh, RU","country":"RU","name":"Dzhayrakh","_id":563623,"coord":{"lon":44.681389,"lat":42.820831}},{"displayName":"Dzhebariki-Khaya, RU","country":"RU","name":"Dzhebariki-Khaya","_id":2024626,"coord":{"lon":135.800003,"lat":62.216671}},{"displayName":"Dzhebel, BG","country":"BG","name":"Dzhebel","_id":731741,"coord":{"lon":25.299999,"lat":41.5}},{"displayName":"Dzhefar-Berdy, UA","country":"UA","name":"Dzhefar-Berdy","_id":709325,"coord":{"lon":34.283329,"lat":44.900002}},{"displayName":"Dzheguta, RU","country":"RU","name":"Dzheguta","_id":563637,"coord":{"lon":42.042622,"lat":43.967098}},{"displayName":"Dzherovo, BG","country":"BG","name":"Dzherovo","_id":6460952,"coord":{"lon":25.308331,"lat":41.299999}},{"displayName":"Dzhida, RU","country":"RU","name":"Dzhida","_id":2024579,"coord":{"lon":106.180557,"lat":50.677219}},{"displayName":"Dzhiginka, RU","country":"RU","name":"Dzhiginka","_id":563618,"coord":{"lon":37.338261,"lat":45.132999}},{"displayName":"Dzhubga, RU","country":"RU","name":"Dzhubga","_id":563601,"coord":{"lon":38.703888,"lat":44.32111}},{"displayName":"Dzhubka, RU","country":"RU","name":"Dzhubka","_id":831396,"coord":{"lon":38.700001,"lat":44.316666}},{"displayName":"Dziadkowice, PL","country":"PL","name":"Dziadkowice","_id":772758,"coord":{"lon":22.916889,"lat":52.563801}},{"displayName":"Dziadowa Kloda, PL","country":"PL","name":"Dziadowa Kloda","_id":3099934,"coord":{"lon":17.70919,"lat":51.235432}},{"displayName":"Dzialdowo, PL","country":"PL","name":"Dzialdowo","_id":772748,"coord":{"lon":20.17004,"lat":53.239578}},{"displayName":"Dzialoszyce, PL","country":"PL","name":"Dzialoszyce","_id":772747,"coord":{"lon":20.352261,"lat":50.365341}},{"displayName":"Dzialoszyn, PL","country":"PL","name":"Dzialoszyn","_id":3099923,"coord":{"lon":18.86524,"lat":51.116989}},{"displayName":"Dziani, KM","country":"KM","name":"Dziani","_id":921897,"coord":{"lon":44.48333,"lat":-12.18333}},{"displayName":"Działdowo, PL","country":"PL","name":"Działdowo","_id":7532449,"coord":{"lon":20.151899,"lat":53.2883}},{"displayName":"Dzidzantun, MX","country":"MX","name":"Dzidzantun","_id":3529660,"coord":{"lon":-89.050003,"lat":21.25}},{"displayName":"Dziecmorowice, PL","country":"PL","name":"Dziecmorowice","_id":3099778,"coord":{"lon":16.352119,"lat":50.76947}},{"displayName":"Dziegielow, PL","country":"PL","name":"Dziegielow","_id":3099887,"coord":{"lon":18.70491,"lat":49.722591}},{"displayName":"Dziekanow Lesny, PL","country":"PL","name":"Dziekanow Lesny","_id":772722,"coord":{"lon":20.85124,"lat":52.352428}},{"displayName":"Dziemiany, PL","country":"PL","name":"Dziemiany","_id":3099878,"coord":{"lon":17.76755,"lat":54.006359}},{"displayName":"Dziergowice, PL","country":"PL","name":"Dziergowice","_id":3099873,"coord":{"lon":18.28606,"lat":50.242481}},{"displayName":"Dzierzaznia, PL","country":"PL","name":"Dzierzaznia","_id":772698,"coord":{"lon":20.233641,"lat":52.628109}},{"displayName":"Dzierzgon, PL","country":"PL","name":"Dzierzgon","_id":3099842,"coord":{"lon":19.34705,"lat":53.921959}},{"displayName":"Dzierzgowo, PL","country":"PL","name":"Dzierzgowo","_id":772687,"coord":{"lon":20.663219,"lat":53.15279}},{"displayName":"Dzierzkowice, PL","country":"PL","name":"Dzierzkowice","_id":772680,"coord":{"lon":22.066389,"lat":50.960201}},{"displayName":"Dzierzoniow, PL","country":"PL","name":"Dzierzoniow","_id":3099828,"coord":{"lon":16.651409,"lat":50.728199}},{"displayName":"Dzierżoniów, PL","country":"PL","name":"Dzierżoniów","_id":7531351,"coord":{"lon":16.64731,"lat":50.729179}},{"displayName":"Dziewin, PL","country":"PL","name":"Dziewin","_id":772667,"coord":{"lon":20.45491,"lat":50.075539}},{"displayName":"Dzikhch’a, GE","country":"GE","name":"Dzikhch’a","_id":823851,"coord":{"lon":40.360001,"lat":43.252777}},{"displayName":"Dzikow Stary, PL","country":"PL","name":"Dzikow Stary","_id":772658,"coord":{"lon":22.92984,"lat":50.24699}},{"displayName":"Dzikowiec, PL","country":"PL","name":"Dzikowiec","_id":772662,"coord":{"lon":21.843651,"lat":50.272881}},{"displayName":"Dzilam Gonzalez, MX","country":"MX","name":"Dzilam Gonzalez","_id":3529654,"coord":{"lon":-88.933327,"lat":21.283331}},{"displayName":"Dzisna, BY","country":"BY","name":"Dzisna","_id":629055,"coord":{"lon":28.19714,"lat":55.567989}},{"displayName":"Dzitas, MX","country":"MX","name":"Dzitas","_id":3529652,"coord":{"lon":-88.51667,"lat":20.85}},{"displayName":"Dzitbalche, MX","country":"MX","name":"Dzitbalche","_id":3529650,"coord":{"lon":-90.050003,"lat":20.316669}},{"displayName":"Dzithankov, AM","country":"AM","name":"Dzithankov","_id":616719,"coord":{"lon":43.821072,"lat":40.508911}},{"displayName":"Dziwnow, PL","country":"PL","name":"Dziwnow","_id":3099783,"coord":{"lon":14.76691,"lat":54.028191}},{"displayName":"Dzogsool, MN","country":"MN","name":"Dzogsool","_id":2031601,"coord":{"lon":107.150002,"lat":46.799999}},{"displayName":"Dzoolon, MN","country":"MN","name":"Dzoolon","_id":1515999,"coord":{"lon":99.672256,"lat":51.107189}},{"displayName":"Dzoraghbyur, AM","country":"AM","name":"Dzoraghbyur","_id":616712,"coord":{"lon":44.641499,"lat":40.204121}},{"displayName":"Dzoragyugh, AM","country":"AM","name":"Dzoragyugh","_id":616716,"coord":{"lon":45.183361,"lat":40.169571}},{"displayName":"Dzorastan, AM","country":"AM","name":"Dzorastan","_id":174918,"coord":{"lon":46.357201,"lat":39.270592}},{"displayName":"Dzuer, MN","country":"MN","name":"Dzuer","_id":1515996,"coord":{"lon":95.793228,"lat":49.657959}},{"displayName":"Dzuiché, MX","country":"MX","name":"Dzuiché","_id":3529630,"coord":{"lon":-88.800003,"lat":19.9}},{"displayName":"Dzuunbulag, MN","country":"MN","name":"Dzuunbulag","_id":2031552,"coord":{"lon":115.293961,"lat":46.95343}},{"displayName":"Dzuunbulag, MN","country":"MN","name":"Dzuunbulag","_id":2031553,"coord":{"lon":112.183327,"lat":46.383331}},{"displayName":"Dzuunharaa, MN","country":"MN","name":"Dzuunharaa","_id":2031533,"coord":{"lon":106.457863,"lat":48.852291}},{"displayName":"Dzuunhovoo, MN","country":"MN","name":"Dzuunhovoo","_id":1515989,"coord":{"lon":92.402397,"lat":50.609772}},{"displayName":"Dzuunkharaa, MN","country":"MN","name":"Dzuunkharaa","_id":2030066,"coord":{"lon":106.73333,"lat":48.633331}},{"displayName":"Dzuunmod, MN","country":"MN","name":"Dzuunmod","_id":1515986,"coord":{"lon":97.374397,"lat":48.219872}},{"displayName":"Dzuunmod, MN","country":"MN","name":"Dzuunmod","_id":2031517,"coord":{"lon":106.952782,"lat":47.70694}},{"displayName":"Dzuyl, MN","country":"MN","name":"Dzuyl","_id":1515979,"coord":{"lon":93.904091,"lat":46.306862}},{"displayName":"Dzvinogrud, UA","country":"UA","name":"Dzvinogrud","_id":709295,"coord":{"lon":24.25,"lat":49.73333}},{"displayName":"Dzwierzuty, PL","country":"PL","name":"Dzwierzuty","_id":772644,"coord":{"lon":20.960369,"lat":53.704941}},{"displayName":"Dzwola, PL","country":"PL","name":"Dzwola","_id":772641,"coord":{"lon":22.567289,"lat":50.696571}},{"displayName":"Dzyarzhynsk, BY","country":"BY","name":"Dzyarzhynsk","_id":628634,"coord":{"lon":27.138,"lat":53.683201}},{"displayName":"Dzyatlava, BY","country":"BY","name":"Dzyatlava","_id":628658,"coord":{"lon":25.406799,"lat":53.4631}},{"displayName":"Dzyerawnaya, BY","country":"BY","name":"Dzyerawnaya","_id":629092,"coord":{"lon":25.483334,"lat":53.200001}},{"displayName":"Dzērves, LV","country":"LV","name":"Dzērves","_id":460112,"coord":{"lon":21.66667,"lat":57.216671}},{"displayName":"Dz’vinogrud, UA","country":"UA","name":"Dz’vinogrud","_id":709296,"coord":{"lon":25.4,"lat":49.083328}},{"displayName":"Dálvares, PT","country":"PT","name":"Dálvares","_id":8013957,"coord":{"lon":-7.76089,"lat":41.034771}},{"displayName":"Dávila, CO","country":"CO","name":"Dávila","_id":3685271,"coord":{"lon":-75.949997,"lat":4.45}},{"displayName":"Dägeling, DE","country":"DE","name":"Dägeling","_id":6552179,"coord":{"lon":9.53333,"lat":53.883301}},{"displayName":"Dähre, DE","country":"DE","name":"Dähre","_id":6549650,"coord":{"lon":10.9,"lat":52.799999}},{"displayName":"Dällikon, CH","country":"CH","name":"Dällikon","_id":7285619,"coord":{"lon":8.43243,"lat":47.439381}},{"displayName":"Dändorf, DE","country":"DE","name":"Dändorf","_id":2939065,"coord":{"lon":12.37249,"lat":54.27319}},{"displayName":"Däniken, CH","country":"CH","name":"Däniken","_id":7285622,"coord":{"lon":7.97552,"lat":47.349201}},{"displayName":"Dänikon / Bifang, CH","country":"CH","name":"Dänikon / Bifang","_id":6291517,"coord":{"lon":8.40835,"lat":47.447281}},{"displayName":"Dänikon, CH","country":"CH","name":"Dänikon","_id":7285623,"coord":{"lon":8.40577,"lat":47.44463}},{"displayName":"Dänischburg, DE","country":"DE","name":"Dänischburg","_id":2939033,"coord":{"lon":10.74085,"lat":53.913712}},{"displayName":"Dänischenhagen, DE","country":"DE","name":"Dänischenhagen","_id":6551822,"coord":{"lon":10.1333,"lat":54.4333}},{"displayName":"Dänkritz, DE","country":"DE","name":"Dänkritz","_id":2939007,"coord":{"lon":12.43333,"lat":50.783329}},{"displayName":"Därligen, CH","country":"CH","name":"Därligen","_id":7285625,"coord":{"lon":7.81287,"lat":46.653351}},{"displayName":"Dätgen, DE","country":"DE","name":"Dätgen","_id":6551823,"coord":{"lon":9.93333,"lat":54.1833}},{"displayName":"Dättlikon, CH","country":"CH","name":"Dättlikon","_id":7285627,"coord":{"lon":8.62211,"lat":47.52737}},{"displayName":"Dättwil, CH","country":"CH","name":"Dättwil","_id":2661043,"coord":{"lon":8.28474,"lat":47.455059}},{"displayName":"Décines-Charpieu, FR","country":"FR","name":"Décines-Charpieu","_id":6441821,"coord":{"lon":4.9598,"lat":45.7686}},{"displayName":"Dégagnac, FR","country":"FR","name":"Dégagnac","_id":6449246,"coord":{"lon":1.31667,"lat":44.666672}},{"displayName":"Dégagnac, FR","country":"FR","name":"Dégagnac","_id":3021646,"coord":{"lon":1.31538,"lat":44.664902}},{"displayName":"Délica, ES","country":"ES","name":"Délica","_id":3123933,"coord":{"lon":-2.98794,"lat":42.969608}},{"displayName":"Démouville, FR","country":"FR","name":"Démouville","_id":6427187,"coord":{"lon":-0.26667,"lat":49.183331}},{"displayName":"Dénia, ES","country":"ES","name":"Dénia","_id":6355439,"coord":{"lon":0.06777,"lat":38.827709}},{"displayName":"Département d\u0027Eure-et-Loir, FR","country":"FR","name":"Département d\u0027Eure-et-Loir","_id":3019316,"coord":{"lon":1.5,"lat":48.5}},{"displayName":"Département d\u0027Ille-et-Vilaine, FR","country":"FR","name":"Département d\u0027Ille-et-Vilaine","_id":3012849,"coord":{"lon":-1.5,"lat":48.166672}},{"displayName":"Département d\u0027Indre-et-Loire, FR","country":"FR","name":"Département d\u0027Indre-et-Loire","_id":3012804,"coord":{"lon":0.75,"lat":47.25}},{"displayName":"Département de l\u0027Ain, FR","country":"FR","name":"Département de l\u0027Ain","_id":3038422,"coord":{"lon":5.33333,"lat":46.166672}},{"displayName":"Département de l\u0027Aisne, FR","country":"FR","name":"Département de l\u0027Aisne","_id":3038375,"coord":{"lon":3.5,"lat":49.5}},{"displayName":"Département de l\u0027Allier, FR","country":"FR","name":"Département de l\u0027Allier","_id":3038111,"coord":{"lon":3.0,"lat":46.5}},{"displayName":"Département de l\u0027Ardèche, FR","country":"FR","name":"Département de l\u0027Ardèche","_id":3037147,"coord":{"lon":4.33333,"lat":44.666672}},{"displayName":"Département de l\u0027Ariège, FR","country":"FR","name":"Département de l\u0027Ariège","_id":3036965,"coord":{"lon":1.5,"lat":43.0}},{"displayName":"Département de l\u0027Artibonite, HT","country":"HT","name":"Département de l\u0027Artibonite","_id":3731053,"coord":{"lon":-72.5,"lat":19.33333}},{"displayName":"Département de l\u0027Aube, FR","country":"FR","name":"Département de l\u0027Aube","_id":3036420,"coord":{"lon":4.08333,"lat":48.25}},{"displayName":"Département de l\u0027Aude, FR","country":"FR","name":"Département de l\u0027Aude","_id":3036264,"coord":{"lon":2.5,"lat":43.083328}},{"displayName":"Département de l\u0027Aveyron, FR","country":"FR","name":"Département de l\u0027Aveyron","_id":3035691,"coord":{"lon":2.5,"lat":44.25}},{"displayName":"Département de l\u0027Essonne, FR","country":"FR","name":"Département de l\u0027Essonne","_id":3019599,"coord":{"lon":2.25,"lat":48.5}},{"displayName":"Département de l\u0027Eure, FR","country":"FR","name":"Département de l\u0027Eure","_id":3019317,"coord":{"lon":1.0,"lat":49.166672}},{"displayName":"Département de l\u0027Hérault, FR","country":"FR","name":"Département de l\u0027Hérault","_id":3013500,"coord":{"lon":3.5,"lat":43.666672}},{"displayName":"Département de l\u0027Indre, FR","country":"FR","name":"Département de l\u0027Indre","_id":3012805,"coord":{"lon":1.66667,"lat":46.833328}},{"displayName":"Département de l\u0027Isère, FR","country":"FR","name":"Département de l\u0027Isère","_id":3012715,"coord":{"lon":5.83333,"lat":45.166672}},{"displayName":"Département de l\u0027Oise, FR","country":"FR","name":"Département de l\u0027Oise","_id":2989663,"coord":{"lon":2.5,"lat":49.5}},{"displayName":"Département de l\u0027Orne, FR","country":"FR","name":"Département de l\u0027Orne","_id":2989247,"coord":{"lon":0.08333,"lat":48.666672}},{"displayName":"Département de l\u0027Ouest, HT","country":"HT","name":"Département de l\u0027Ouest","_id":3719432,"coord":{"lon":-72.291412,"lat":18.663811}},{"displayName":"Département de l\u0027Yonne, FR","country":"FR","name":"Département de l\u0027Yonne","_id":2967222,"coord":{"lon":3.75,"lat":47.916672}},{"displayName":"Département de la Charente, FR","country":"FR","name":"Département de la Charente","_id":3026646,"coord":{"lon":0.08333,"lat":45.666672}},{"displayName":"Département de la Charente-Maritime, FR","country":"FR","name":"Département de la Charente-Maritime","_id":3026644,"coord":{"lon":-0.75,"lat":45.5}},{"displayName":"Département de la Corrèze, FR","country":"FR","name":"Département de la Corrèze","_id":3023532,"coord":{"lon":1.83333,"lat":45.25}},{"displayName":"Département de la Corse-du-Sud, FR","country":"FR","name":"Département de la Corse-du-Sud","_id":3023514,"coord":{"lon":9.16667,"lat":41.916672}},{"displayName":"Département de la Creuse, FR","country":"FR","name":"Département de la Creuse","_id":3022516,"coord":{"lon":2.0,"lat":46.083328}},{"displayName":"Département de la Côte-d\u0027Or, FR","country":"FR","name":"Département de la Côte-d\u0027Or","_id":3023423,"coord":{"lon":4.83333,"lat":47.5}},{"displayName":"Département de la Donga, BJ","country":"BJ","name":"Département de la Donga","_id":2597274,"coord":{"lon":1.83333,"lat":9.16667}},{"displayName":"Département de la Dordogne, FR","country":"FR","name":"Département de la Dordogne","_id":3021042,"coord":{"lon":0.83333,"lat":45.166672}},{"displayName":"Département de la Drôme, FR","country":"FR","name":"Département de la Drôme","_id":3020781,"coord":{"lon":5.16667,"lat":44.583328}},{"displayName":"Département de la Gironde, FR","country":"FR","name":"Département de la Gironde","_id":3015948,"coord":{"lon":-0.5,"lat":44.916672}},{"displayName":"Département de la Grand\u0027Anse, HT","country":"HT","name":"Département de la Grand\u0027Anse","_id":3724613,"coord":{"lon":-73.666672,"lat":18.5}},{"displayName":"Département de la Haute-Corse, FR","country":"FR","name":"Département de la Haute-Corse","_id":3013793,"coord":{"lon":9.16667,"lat":42.416672}},{"displayName":"Département de la Haute-Garonne, FR","country":"FR","name":"Département de la Haute-Garonne","_id":3013767,"coord":{"lon":1.5,"lat":43.416672}},{"displayName":"Département de la Haute-Loire, FR","country":"FR","name":"Département de la Haute-Loire","_id":3013760,"coord":{"lon":4.0,"lat":45.083328}},{"displayName":"Département de la Haute-Marne, FR","country":"FR","name":"Département de la Haute-Marne","_id":3013757,"coord":{"lon":5.16667,"lat":48.083328}},{"displayName":"Département de la Haute-Savoie, FR","country":"FR","name":"Département de la Haute-Savoie","_id":3013736,"coord":{"lon":6.33333,"lat":46.0}},{"displayName":"Département de la Haute-Saône, FR","country":"FR","name":"Département de la Haute-Saône","_id":3013737,"coord":{"lon":6.16667,"lat":47.666672}},{"displayName":"Département de la Haute-Vienne, FR","country":"FR","name":"Département de la Haute-Vienne","_id":3013719,"coord":{"lon":1.16667,"lat":45.833328}},{"displayName":"Département de la Loire, FR","country":"FR","name":"Département de la Loire","_id":2997870,"coord":{"lon":4.43298,"lat":45.471691}},{"displayName":"Département de la Loire-Atlantique, FR","country":"FR","name":"Département de la Loire-Atlantique","_id":2997861,"coord":{"lon":-1.83333,"lat":47.25}},{"displayName":"Département de la Lozère, FR","country":"FR","name":"Département de la Lozère","_id":2997288,"coord":{"lon":3.5,"lat":44.5}},{"displayName":"Département de la Manche, FR","country":"FR","name":"Département de la Manche","_id":2996268,"coord":{"lon":-1.16667,"lat":49.0}},{"displayName":"Département de la Marne, FR","country":"FR","name":"Département de la Marne","_id":2995603,"coord":{"lon":4.16667,"lat":48.916672}},{"displayName":"Département de la Mayenne, FR","country":"FR","name":"Département de la Mayenne","_id":2994932,"coord":{"lon":-0.66667,"lat":48.083328}},{"displayName":"Département de la Meuse, FR","country":"FR","name":"Département de la Meuse","_id":2994106,"coord":{"lon":5.5,"lat":49.0}},{"displayName":"Département de la Moselle, FR","country":"FR","name":"Département de la Moselle","_id":2991627,"coord":{"lon":6.5,"lat":49.0}},{"displayName":"Département de la Nièvre, FR","country":"FR","name":"Département de la Nièvre","_id":2990371,"coord":{"lon":3.5,"lat":47.083328}},{"displayName":"Département de la Sarthe, FR","country":"FR","name":"Département de la Sarthe","_id":2975926,"coord":{"lon":0.08333,"lat":48.0}},{"displayName":"Département de la Savoie, FR","country":"FR","name":"Département de la Savoie","_id":2975517,"coord":{"lon":6.41667,"lat":45.5}},{"displayName":"Département de la Seine-Maritime, FR","country":"FR","name":"Département de la Seine-Maritime","_id":2975248,"coord":{"lon":1.0,"lat":49.75}},{"displayName":"Département de la Somme, FR","country":"FR","name":"Département de la Somme","_id":2974304,"coord":{"lon":2.5,"lat":49.916672}},{"displayName":"Département de la Vendée, FR","country":"FR","name":"Département de la Vendée","_id":2970140,"coord":{"lon":-1.33333,"lat":46.666672}},{"displayName":"Département de la Vienne, FR","country":"FR","name":"Département de la Vienne","_id":2969280,"coord":{"lon":0.5,"lat":46.5}},{"displayName":"Département de l’ Alibori, BJ","country":"BJ","name":"Département de l’ Alibori","_id":2597271,"coord":{"lon":2.91667,"lat":11.33333}},{"displayName":"Département de l’ Atakora, BJ","country":"BJ","name":"Département de l’ Atakora","_id":2395524,"coord":{"lon":1.66667,"lat":10.75}},{"displayName":"Département de l’ Atlantique, BJ","country":"BJ","name":"Département de l’ Atlantique","_id":2395504,"coord":{"lon":2.25,"lat":6.66667}},{"displayName":"Département de l’ Ouémé, BJ","country":"BJ","name":"Département de l’ Ouémé","_id":2392325,"coord":{"lon":2.5,"lat":6.66667}},{"displayName":"Département de Maine-et-Loire, FR","country":"FR","name":"Département de Maine-et-Loire","_id":2996663,"coord":{"lon":-0.33333,"lat":47.5}},{"displayName":"Département de Meurthe-et-Moselle, FR","country":"FR","name":"Département de Meurthe-et-Moselle","_id":2994111,"coord":{"lon":6.16667,"lat":48.583328}},{"displayName":"Département de Nippes, HT","country":"HT","name":"Département de Nippes","_id":7115999,"coord":{"lon":-73.428497,"lat":18.448351}},{"displayName":"Département de Saône-et-Loire, FR","country":"FR","name":"Département de Saône-et-Loire","_id":2976082,"coord":{"lon":4.5,"lat":46.666672}},{"displayName":"Département de Seine-et-Marne, FR","country":"FR","name":"Département de Seine-et-Marne","_id":2975249,"coord":{"lon":3.0,"lat":48.5}},{"displayName":"Département de Seine-Saint-Denis, FR","country":"FR","name":"Département de Seine-Saint-Denis","_id":2975246,"coord":{"lon":2.5,"lat":48.916672}},{"displayName":"Département des Alpes-de-Haute-Provence, FR","country":"FR","name":"Département des Alpes-de-Haute-Provence","_id":3038050,"coord":{"lon":6.0,"lat":44.166672}},{"displayName":"Département des Alpes-Maritimes, FR","country":"FR","name":"Département des Alpes-Maritimes","_id":3038049,"coord":{"lon":7.16667,"lat":44.0}},{"displayName":"Département des Ardennes, FR","country":"FR","name":"Département des Ardennes","_id":3037136,"coord":{"lon":4.66667,"lat":49.666672}},{"displayName":"Département des Bouches-du-Rhône, FR","country":"FR","name":"Département des Bouches-du-Rhône","_id":3031359,"coord":{"lon":5.0,"lat":43.5}},{"displayName":"Département des Côtes-d\u0027Armor, FR","country":"FR","name":"Département des Côtes-d\u0027Armor","_id":3023414,"coord":{"lon":-2.66667,"lat":48.416672}},{"displayName":"Département des Deux-Sèvres, FR","country":"FR","name":"Département des Deux-Sèvres","_id":3021501,"coord":{"lon":-0.25,"lat":46.5}},{"displayName":"Département des Hautes-Alpes, FR","country":"FR","name":"Département des Hautes-Alpes","_id":3013738,"coord":{"lon":6.5,"lat":44.666672}},{"displayName":"Département des Hautes-Pyrénées, FR","country":"FR","name":"Département des Hautes-Pyrénées","_id":3013726,"coord":{"lon":0.16667,"lat":43.0}},{"displayName":"Département des Hauts-de-Seine, FR","country":"FR","name":"Département des Hauts-de-Seine","_id":3013657,"coord":{"lon":2.2,"lat":48.849998}},{"displayName":"Département des Landes, FR","country":"FR","name":"Département des Landes","_id":3007866,"coord":{"lon":-0.83333,"lat":44.0}},{"displayName":"Département des Pyrénées-Atlantiques, FR","country":"FR","name":"Département des Pyrénées-Atlantiques","_id":2984887,"coord":{"lon":-0.83333,"lat":43.25}},{"displayName":"Département des Pyrénées-Orientales, FR","country":"FR","name":"Département des Pyrénées-Orientales","_id":2984885,"coord":{"lon":2.33333,"lat":42.5}},{"displayName":"Département des Vosges, FR","country":"FR","name":"Département des Vosges","_id":2967681,"coord":{"lon":6.33333,"lat":48.166672}},{"displayName":"Département des Yvelines, FR","country":"FR","name":"Département des Yvelines","_id":2967196,"coord":{"lon":1.86667,"lat":48.783329}},{"displayName":"Département du Bas-Rhin, FR","country":"FR","name":"Département du Bas-Rhin","_id":3034720,"coord":{"lon":7.66667,"lat":48.583328}},{"displayName":"Département du Borgou, BJ","country":"BJ","name":"Département du Borgou","_id":2394992,"coord":{"lon":2.75,"lat":9.75}},{"displayName":"Département du Calvados, FR","country":"FR","name":"Département du Calvados","_id":3029094,"coord":{"lon":-0.5,"lat":49.166672}},{"displayName":"Département du Cantal, FR","country":"FR","name":"Département du Cantal","_id":3028791,"coord":{"lon":2.66667,"lat":45.083328}},{"displayName":"Département du Centre, HT","country":"HT","name":"Département du Centre","_id":3728069,"coord":{"lon":-72.0,"lat":19.0}},{"displayName":"Département du Cher, FR","country":"FR","name":"Département du Cher","_id":3025480,"coord":{"lon":2.5,"lat":47.0}},{"displayName":"Département du Collines, BJ","country":"BJ","name":"Département du Collines","_id":2597272,"coord":{"lon":2.16667,"lat":8.0}},{"displayName":"Département du Doubs, FR","country":"FR","name":"Département du Doubs","_id":3020989,"coord":{"lon":6.41667,"lat":47.166672}},{"displayName":"Département du Finistère, FR","country":"FR","name":"Département du Finistère","_id":3018471,"coord":{"lon":-4.0,"lat":48.333328}},{"displayName":"Département du Gard, FR","country":"FR","name":"Département du Gard","_id":3016670,"coord":{"lon":4.0,"lat":44.0}},{"displayName":"Département du Gers, FR","country":"FR","name":"Département du Gers","_id":3016194,"coord":{"lon":0.5,"lat":43.666672}},{"displayName":"Département du Haut-Rhin, FR","country":"FR","name":"Département du Haut-Rhin","_id":3013663,"coord":{"lon":7.33333,"lat":48.0}},{"displayName":"Département du Jura, FR","country":"FR","name":"Département du Jura","_id":3012051,"coord":{"lon":5.83333,"lat":46.833328}},{"displayName":"Département du Kouffo, BJ","country":"BJ","name":"Département du Kouffo","_id":2597273,"coord":{"lon":1.83333,"lat":7.08333}},{"displayName":"Département du Littoral, BJ","country":"BJ","name":"Département du Littoral","_id":2597275,"coord":{"lon":2.41667,"lat":6.36667}},{"displayName":"Département du Loir-et-Cher, FR","country":"FR","name":"Département du Loir-et-Cher","_id":2997856,"coord":{"lon":1.5,"lat":47.5}},{"displayName":"Département du Loiret, FR","country":"FR","name":"Département du Loiret","_id":2997857,"coord":{"lon":2.33333,"lat":47.916672}},{"displayName":"Département du Lot, FR","country":"FR","name":"Département du Lot","_id":2997524,"coord":{"lon":1.5,"lat":44.5}},{"displayName":"Département du Lot-et-Garonne, FR","country":"FR","name":"Département du Lot-et-Garonne","_id":2997523,"coord":{"lon":0.5,"lat":44.333328}},{"displayName":"Département du Morbihan, FR","country":"FR","name":"Département du Morbihan","_id":2991879,"coord":{"lon":-2.83333,"lat":47.916672}},{"displayName":"Département du Nord, FR","country":"FR","name":"Département du Nord","_id":2990129,"coord":{"lon":3.66667,"lat":50.333328}},{"displayName":"Département du Nord, HT","country":"HT","name":"Département du Nord","_id":3719543,"coord":{"lon":-72.300003,"lat":19.6}},{"displayName":"Département du Nord-Ouest, HT","country":"HT","name":"Département du Nord-Ouest","_id":3719536,"coord":{"lon":-73.083328,"lat":19.75}},{"displayName":"Département du Pas-de-Calais, FR","country":"FR","name":"Département du Pas-de-Calais","_id":2988430,"coord":{"lon":2.33333,"lat":50.5}},{"displayName":"Département du Plateau, BJ","country":"BJ","name":"Département du Plateau","_id":2597277,"coord":{"lon":2.58333,"lat":7.16667}},{"displayName":"Département du Puy-de-Dôme, FR","country":"FR","name":"Département du Puy-de-Dôme","_id":2984986,"coord":{"lon":3.0,"lat":45.666672}},{"displayName":"Département du Rhône, FR","country":"FR","name":"Département du Rhône","_id":2987410,"coord":{"lon":4.5,"lat":46.0}},{"displayName":"Département du Sud, HT","country":"HT","name":"Département du Sud","_id":3716952,"coord":{"lon":-73.666672,"lat":18.25}},{"displayName":"Département du Sud-Est, HT","country":"HT","name":"Département du Sud-Est","_id":3716950,"coord":{"lon":-72.400002,"lat":18.299999}},{"displayName":"Département du Tarn, FR","country":"FR","name":"Département du Tarn","_id":2973362,"coord":{"lon":2.0,"lat":43.833328}},{"displayName":"Département du Tarn-et-Garonne, FR","country":"FR","name":"Département du Tarn-et-Garonne","_id":2973357,"coord":{"lon":1.16667,"lat":44.0}},{"displayName":"Département du Val-d\u0027Oise, FR","country":"FR","name":"Département du Val-d\u0027Oise","_id":2971071,"coord":{"lon":2.06667,"lat":49.066669}},{"displayName":"Département du Val-de-Marne, FR","country":"FR","name":"Département du Val-de-Marne","_id":2971090,"coord":{"lon":2.45,"lat":48.783329}},{"displayName":"Département du Var, FR","country":"FR","name":"Département du Var","_id":2970749,"coord":{"lon":6.33333,"lat":43.5}},{"displayName":"Département du Vaucluse, FR","country":"FR","name":"Département du Vaucluse","_id":2970554,"coord":{"lon":5.16667,"lat":44.0}},{"displayName":"Département du Zou, BJ","country":"BJ","name":"Département du Zou","_id":2390719,"coord":{"lon":2.16667,"lat":7.25}},{"displayName":"Désertines, FR","country":"FR","name":"Désertines","_id":6446574,"coord":{"lon":2.61667,"lat":46.349998}},{"displayName":"Dévillac, FR","country":"FR","name":"Dévillac","_id":6449316,"coord":{"lon":0.8,"lat":44.599998}},{"displayName":"Dévillac, FR","country":"FR","name":"Dévillac","_id":3021487,"coord":{"lon":0.79847,"lat":44.605808}},{"displayName":"Dê Kanāt-e Laţīf, AF","country":"AF","name":"Dê Kanāt-e Laţīf","_id":1474856,"coord":{"lon":65.039543,"lat":32.107262}},{"displayName":"Dílar, ES","country":"ES","name":"Dílar","_id":6357695,"coord":{"lon":-3.49621,"lat":37.06105}},{"displayName":"Döberein, DE","country":"DE","name":"Döberein","_id":2936642,"coord":{"lon":11.88333,"lat":49.916672}},{"displayName":"Döblitz, DE","country":"DE","name":"Döblitz","_id":6549154,"coord":{"lon":11.8333,"lat":51.549999}},{"displayName":"Döbra, NA","country":"NA","name":"Döbra","_id":3357953,"coord":{"lon":17.1,"lat":-22.33333}},{"displayName":"Döbrichau, DE","country":"DE","name":"Döbrichau","_id":2936555,"coord":{"lon":13.12935,"lat":51.595409}},{"displayName":"Döbritschen, DE","country":"DE","name":"Döbritschen","_id":6550232,"coord":{"lon":11.4833,"lat":50.916698}},{"displayName":"Döbritz, DE","country":"DE","name":"Döbritz","_id":6550434,"coord":{"lon":11.65,"lat":50.700001}},{"displayName":"Döhlau, DE","country":"DE","name":"Döhlau","_id":2936496,"coord":{"lon":11.05,"lat":50.366669}},{"displayName":"Döhlau, DE","country":"DE","name":"Döhlau","_id":6556798,"coord":{"lon":11.95,"lat":50.283298}},{"displayName":"Döhle, DE","country":"DE","name":"Döhle","_id":2936494,"coord":{"lon":10.03903,"lat":53.16301}},{"displayName":"Döhlen, DE","country":"DE","name":"Döhlen","_id":2936490,"coord":{"lon":13.66667,"lat":51.01667}},{"displayName":"Döhlen, DE","country":"DE","name":"Döhlen","_id":2936483,"coord":{"lon":8.25,"lat":52.966671}},{"displayName":"Dölau, DE","country":"DE","name":"Dölau","_id":2936433,"coord":{"lon":11.88333,"lat":51.51667}},{"displayName":"Dölitzsch, DE","country":"DE","name":"Dölitzsch","_id":2936396,"coord":{"lon":12.7,"lat":51.0}},{"displayName":"Döllstädt, DE","country":"DE","name":"Döllstädt","_id":6550068,"coord":{"lon":10.8167,"lat":51.083302}},{"displayName":"Dölsach, AT","country":"AT","name":"Dölsach","_id":7872591,"coord":{"lon":12.83808,"lat":46.848888}},{"displayName":"Dölzig, DE","country":"DE","name":"Dölzig","_id":2936318,"coord":{"lon":12.21667,"lat":51.349998}},{"displayName":"Dömitzow, DE","country":"DE","name":"Dömitzow","_id":2936291,"coord":{"lon":13.25423,"lat":54.192982}},{"displayName":"Döpshofen, DE","country":"DE","name":"Döpshofen","_id":2936177,"coord":{"lon":10.70339,"lat":48.277199}},{"displayName":"Dörenhagen, DE","country":"DE","name":"Dörenhagen","_id":2936159,"coord":{"lon":8.83333,"lat":51.683331}},{"displayName":"Dörentrup, DE","country":"DE","name":"Dörentrup","_id":6553125,"coord":{"lon":9.0,"lat":52.033298}},{"displayName":"Dörfel, DE","country":"DE","name":"Dörfel","_id":2936115,"coord":{"lon":12.95,"lat":50.583328}},{"displayName":"Dörfl, DE","country":"DE","name":"Dörfl","_id":3205588,"coord":{"lon":12.98333,"lat":47.566669}},{"displayName":"Dörfl, DE","country":"DE","name":"Dörfl","_id":2936076,"coord":{"lon":12.5,"lat":48.366669}},{"displayName":"Dörflas, DE","country":"DE","name":"Dörflas","_id":2936072,"coord":{"lon":10.81887,"lat":49.582111}},{"displayName":"Dörfles, DE","country":"DE","name":"Dörfles","_id":2936055,"coord":{"lon":11.3,"lat":49.700001}},{"displayName":"Dörnbach, DE","country":"DE","name":"Dörnbach","_id":2935779,"coord":{"lon":7.8,"lat":49.616669}},{"displayName":"Dörnberg, DE","country":"DE","name":"Dörnberg","_id":2935748,"coord":{"lon":8.42252,"lat":51.315411}},{"displayName":"Dörnberg, DE","country":"DE","name":"Dörnberg","_id":6554014,"coord":{"lon":7.88333,"lat":50.333302}},{"displayName":"Dörndich, DE","country":"DE","name":"Dörndich","_id":3207516,"coord":{"lon":7.63333,"lat":49.799999}},{"displayName":"Dörnerholz, DE","country":"DE","name":"Dörnerholz","_id":2935713,"coord":{"lon":8.8,"lat":51.75}},{"displayName":"Dörnfeld an der Heide, DE","country":"DE","name":"Dörnfeld an der Heide","_id":2935707,"coord":{"lon":11.06667,"lat":50.666672}},{"displayName":"Dörnhagen, DE","country":"DE","name":"Dörnhagen","_id":2935704,"coord":{"lon":9.48333,"lat":51.216671}},{"displayName":"Dörnick, DE","country":"DE","name":"Dörnick","_id":6551724,"coord":{"lon":10.3667,"lat":54.166698}},{"displayName":"Dörnten, DE","country":"DE","name":"Dörnten","_id":2935637,"coord":{"lon":10.4001,"lat":51.975052}},{"displayName":"Dörpe, DE","country":"DE","name":"Dörpe","_id":2935602,"coord":{"lon":7.3,"lat":51.049999}},{"displayName":"Dörpen, DE","country":"DE","name":"Dörpen","_id":6552885,"coord":{"lon":7.3438,"lat":52.961399}},{"displayName":"Dörphof, DE","country":"DE","name":"Dörphof","_id":6551825,"coord":{"lon":9.96667,"lat":54.616699}},{"displayName":"Dörpling, DE","country":"DE","name":"Dörpling","_id":6551315,"coord":{"lon":9.3,"lat":54.266701}},{"displayName":"Dörpstedt, DE","country":"DE","name":"Dörpstedt","_id":2935587,"coord":{"lon":9.61667,"lat":54.133331}},{"displayName":"Dörpstedt, DE","country":"DE","name":"Dörpstedt","_id":6551954,"coord":{"lon":9.36667,"lat":54.4333}},{"displayName":"Dörrebach, DE","country":"DE","name":"Dörrebach","_id":6553482,"coord":{"lon":7.71667,"lat":49.950001}},{"displayName":"Dörrenbach, DE","country":"DE","name":"Dörrenbach","_id":6555176,"coord":{"lon":7.96667,"lat":49.083302}},{"displayName":"Dörriesloh, DE","country":"DE","name":"Dörriesloh","_id":2935558,"coord":{"lon":8.88333,"lat":52.783329}},{"displayName":"Dörrmoschel, DE","country":"DE","name":"Dörrmoschel","_id":6554940,"coord":{"lon":7.75,"lat":49.616699}},{"displayName":"Dörscheid, DE","country":"DE","name":"Dörscheid","_id":6554015,"coord":{"lon":7.75,"lat":50.099998}},