[{"displayName":"Froidchapelle, BE","country":"BE","name":"Froidchapelle","_id":2797937,"coord":{"lon":4.32742,"lat":50.151058}},{"displayName":"Froideconche, FR","country":"FR","name":"Froideconche","_id":3017012,"coord":{"lon":6.41522,"lat":47.821209}},{"displayName":"Froideville, CH","country":"CH","name":"Froideville","_id":7285872,"coord":{"lon":6.69177,"lat":46.598171}},{"displayName":"Froideville, CH","country":"CH","name":"Froideville","_id":2660710,"coord":{"lon":6.68457,"lat":46.600151}},{"displayName":"Froidfond, FR","country":"FR","name":"Froidfond","_id":3017003,"coord":{"lon":-1.7574,"lat":46.86898}},{"displayName":"Froidmanteau, BE","country":"BE","name":"Froidmanteau","_id":2797926,"coord":{"lon":3.53861,"lat":50.610371}},{"displayName":"Froitzheim, DE","country":"DE","name":"Froitzheim","_id":2924234,"coord":{"lon":6.58333,"lat":50.716671}},{"displayName":"Frolishchi, RU","country":"RU","name":"Frolishchi","_id":562413,"coord":{"lon":42.653332,"lat":56.421112}},{"displayName":"Frolkovichi, BY","country":"BY","name":"Frolkovichi","_id":628579,"coord":{"lon":29.232719,"lat":55.200821}},{"displayName":"Frolovo, RU","country":"RU","name":"Frolovo","_id":562389,"coord":{"lon":43.66222,"lat":49.771332}},{"displayName":"Frolovskiy, RU","country":"RU","name":"Frolovskiy","_id":562362,"coord":{"lon":42.401001,"lat":50.020699}},{"displayName":"Frombork, PL","country":"PL","name":"Frombork","_id":7533069,"coord":{"lon":19.685801,"lat":54.358101}},{"displayName":"Frombork, PL","country":"PL","name":"Frombork","_id":3099634,"coord":{"lon":19.68029,"lat":54.357658}},{"displayName":"Frome, GB","country":"GB","name":"Frome","_id":2649024,"coord":{"lon":-2.32211,"lat":51.22834}},{"displayName":"Fromelennes, FR","country":"FR","name":"Fromelennes","_id":3016992,"coord":{"lon":4.85952,"lat":50.123329}},{"displayName":"Fromista, ES","country":"ES","name":"Fromista","_id":3121995,"coord":{"lon":-4.40546,"lat":42.26667}},{"displayName":"Frommstedt, DE","country":"DE","name":"Frommstedt","_id":2924214,"coord":{"lon":11.03333,"lat":51.25}},{"displayName":"Froncles, FR","country":"FR","name":"Froncles","_id":3016973,"coord":{"lon":5.14586,"lat":48.297562}},{"displayName":"Frondenberg, DE","country":"DE","name":"Frondenberg","_id":2924206,"coord":{"lon":7.76667,"lat":51.466671}},{"displayName":"Fronhausen, DE","country":"DE","name":"Fronhausen","_id":6553233,"coord":{"lon":8.70952,"lat":50.7071}},{"displayName":"Fronhausen, DE","country":"DE","name":"Fronhausen","_id":2924201,"coord":{"lon":8.7,"lat":50.700001}},{"displayName":"Fronhof, DE","country":"DE","name":"Fronhof","_id":2924200,"coord":{"lon":9.51667,"lat":47.783329}},{"displayName":"Fronhofen, DE","country":"DE","name":"Fronhofen","_id":6553893,"coord":{"lon":7.46667,"lat":49.983299}},{"displayName":"Fronhofen, DE","country":"DE","name":"Fronhofen","_id":2924195,"coord":{"lon":7.46667,"lat":49.98333}},{"displayName":"Fronsac, FR","country":"FR","name":"Fronsac","_id":6454001,"coord":{"lon":-0.26667,"lat":44.916672}},{"displayName":"Fronsac, FR","country":"FR","name":"Fronsac","_id":3016969,"coord":{"lon":-0.26667,"lat":44.916672}},{"displayName":"Front Royal, US","country":"US","name":"Front Royal","_id":4760232,"coord":{"lon":-78.194443,"lat":38.918171}},{"displayName":"Front, IT","country":"IT","name":"Front","_id":3176521,"coord":{"lon":7.66362,"lat":45.280849}},{"displayName":"Fronte Aguglieri, IT","country":"IT","name":"Fronte Aguglieri","_id":2524696,"coord":{"lon":16.15,"lat":39.033329}},{"displayName":"Fronteira, PT","country":"PT","name":"Fronteira","_id":8010575,"coord":{"lon":-7.61052,"lat":39.071789}},{"displayName":"Fronteiras, BR","country":"BR","name":"Fronteiras","_id":3399295,"coord":{"lon":-40.61639,"lat":-7.08806}},{"displayName":"Frontenac, US","country":"US","name":"Frontenac","_id":4271918,"coord":{"lon":-94.689133,"lat":37.455601}},{"displayName":"Frontenac, US","country":"US","name":"Frontenac","_id":4387435,"coord":{"lon":-90.415123,"lat":38.635609}},{"displayName":"Frontenat, FR","country":"FR","name":"Frontenat","_id":3016963,"coord":{"lon":2.69938,"lat":46.220459}},{"displayName":"Frontenaud, FR","country":"FR","name":"Frontenaud","_id":6442263,"coord":{"lon":5.3,"lat":46.549999}},{"displayName":"Frontenaud, FR","country":"FR","name":"Frontenaud","_id":3016961,"coord":{"lon":5.2923,"lat":46.552479}},{"displayName":"Frontenay-Rohan-Rohan, FR","country":"FR","name":"Frontenay-Rohan-Rohan","_id":3016959,"coord":{"lon":-0.53833,"lat":46.252762}},{"displayName":"Frontenex, FR","country":"FR","name":"Frontenex","_id":3016957,"coord":{"lon":6.31667,"lat":45.633331}},{"displayName":"Frontenhausen, DE","country":"DE","name":"Frontenhausen","_id":2924186,"coord":{"lon":12.53333,"lat":48.549999}},{"displayName":"Frontera Comalapa, MX","country":"MX","name":"Frontera Comalapa","_id":3527543,"coord":{"lon":-92.133331,"lat":15.65}},{"displayName":"Frontera Hidalgo, MX","country":"MX","name":"Frontera Hidalgo","_id":3527541,"coord":{"lon":-92.166672,"lat":14.78333}},{"displayName":"Frontera, ES","country":"ES","name":"Frontera","_id":6534185,"coord":{"lon":-18.0532,"lat":27.72975}},{"displayName":"Frontera, ES","country":"ES","name":"Frontera","_id":2517611,"coord":{"lon":-18.00367,"lat":27.75404}},{"displayName":"Frontera, MX","country":"MX","name":"Frontera","_id":3802132,"coord":{"lon":-92.833328,"lat":18.424999}},{"displayName":"Frontera, MX","country":"MX","name":"Frontera","_id":3527545,"coord":{"lon":-92.650002,"lat":18.58333}},{"displayName":"Frontier, CA","country":"CA","name":"Frontier","_id":5958512,"coord":{"lon":-108.5681,"lat":49.200031}},{"displayName":"Frontignan, FR","country":"FR","name":"Frontignan","_id":6432511,"coord":{"lon":3.75,"lat":43.450001}},{"displayName":"Frontignan, FR","country":"FR","name":"Frontignan","_id":3016956,"coord":{"lon":3.754,"lat":43.448479}},{"displayName":"Frontino, CO","country":"CO","name":"Frontino","_id":3682313,"coord":{"lon":-76.128799,"lat":6.78005}},{"displayName":"Frontino, IT","country":"IT","name":"Frontino","_id":3176517,"coord":{"lon":12.37675,"lat":43.764561}},{"displayName":"Fronton, FR","country":"FR","name":"Fronton","_id":3016953,"coord":{"lon":1.38931,"lat":43.83931}},{"displayName":"Frontonas, FR","country":"FR","name":"Frontonas","_id":3016951,"coord":{"lon":5.18341,"lat":45.64782}},{"displayName":"Frontone, IT","country":"IT","name":"Frontone","_id":3176516,"coord":{"lon":12.74126,"lat":43.51606}},{"displayName":"Frosakull, SE","country":"SE","name":"Frosakull","_id":2713596,"coord":{"lon":12.73333,"lat":56.683331}},{"displayName":"Froschberg, AT","country":"AT","name":"Froschberg","_id":3321859,"coord":{"lon":14.27917,"lat":48.285278}},{"displayName":"Frose, DE","country":"DE","name":"Frose","_id":2924138,"coord":{"lon":11.38333,"lat":51.799999}},{"displayName":"Frosinone, IT","country":"IT","name":"Frosinone","_id":6541853,"coord":{"lon":13.3401,"lat":41.640018}},{"displayName":"Frosinone, IT","country":"IT","name":"Frosinone","_id":3176515,"coord":{"lon":13.3401,"lat":41.640018}},{"displayName":"Frosolone, IT","country":"IT","name":"Frosolone","_id":3176512,"coord":{"lon":14.44652,"lat":41.600632}},{"displayName":"Frossasco, IT","country":"IT","name":"Frossasco","_id":6535393,"coord":{"lon":7.35002,"lat":44.933041}},{"displayName":"Frossay, FR","country":"FR","name":"Frossay","_id":3016947,"coord":{"lon":-1.93557,"lat":47.244511}},{"displayName":"Frossos, PT","country":"PT","name":"Frossos","_id":8010719,"coord":{"lon":-8.53684,"lat":40.659481}},{"displayName":"Frosta, NO","country":"NO","name":"Frosta","_id":7280466,"coord":{"lon":10.7423,"lat":63.5891}},{"displayName":"Frostburg, US","country":"US","name":"Frostburg","_id":4355756,"coord":{"lon":-78.92836,"lat":39.658138}},{"displayName":"Frostproof, US","country":"US","name":"Frostproof","_id":4156326,"coord":{"lon":-81.530632,"lat":27.745859}},{"displayName":"Frotey-les-Vesoul, FR","country":"FR","name":"Frotey-les-Vesoul","_id":3016945,"coord":{"lon":6.18831,"lat":47.620781}},{"displayName":"Frottstadt, DE","country":"DE","name":"Frottstadt","_id":2924128,"coord":{"lon":10.58333,"lat":50.933331}},{"displayName":"Frotzhofen, DE","country":"DE","name":"Frotzhofen","_id":2924126,"coord":{"lon":11.84652,"lat":48.138142}},{"displayName":"Frouard, FR","country":"FR","name":"Frouard","_id":3016944,"coord":{"lon":6.13163,"lat":48.759979}},{"displayName":"Frouzins, FR","country":"FR","name":"Frouzins","_id":3016940,"coord":{"lon":1.32523,"lat":43.51482}},{"displayName":"Frovi, SE","country":"SE","name":"Frovi","_id":2713516,"coord":{"lon":15.36667,"lat":59.466671}},{"displayName":"Froxfield, GB","country":"GB","name":"Froxfield","_id":7296274,"coord":{"lon":-1.58836,"lat":51.410172}},{"displayName":"Froxfield, GB","country":"GB","name":"Froxfield","_id":2649013,"coord":{"lon":-1.57203,"lat":51.41082}},{"displayName":"Frucht, DE","country":"DE","name":"Frucht","_id":2924125,"coord":{"lon":7.68333,"lat":50.316669}},{"displayName":"Fruence, CH","country":"CH","name":"Fruence","_id":2660709,"coord":{"lon":6.90915,"lat":46.521561}},{"displayName":"Frufällan, SE","country":"SE","name":"Frufällan","_id":2713509,"coord":{"lon":12.96667,"lat":57.783329}},{"displayName":"Frugarolo, IT","country":"IT","name":"Frugarolo","_id":3176510,"coord":{"lon":8.68155,"lat":44.837151}},{"displayName":"Frugerès-les-Mines, FR","country":"FR","name":"Frugerès-les-Mines","_id":6614170,"coord":{"lon":3.31667,"lat":45.383331}},{"displayName":"Frugerès-les-Mines, FR","country":"FR","name":"Frugerès-les-Mines","_id":3016934,"coord":{"lon":3.31667,"lat":45.383331}},{"displayName":"Fruges, FR","country":"FR","name":"Fruges","_id":3016931,"coord":{"lon":2.13292,"lat":50.515011}},{"displayName":"Frugières-le-Pin, FR","country":"FR","name":"Frugières-le-Pin","_id":6434352,"coord":{"lon":3.5,"lat":45.26667}},{"displayName":"Frugières-le-Pin, FR","country":"FR","name":"Frugières-le-Pin","_id":3016930,"coord":{"lon":3.48706,"lat":45.267609}},{"displayName":"Fruit Cove, US","country":"US","name":"Fruit Cove","_id":4156331,"coord":{"lon":-81.641762,"lat":30.111071}},{"displayName":"Fruit Heights, US","country":"US","name":"Fruit Heights","_id":5775035,"coord":{"lon":-111.902161,"lat":41.032169}},{"displayName":"Fruit Hill, US","country":"US","name":"Fruit Hill","_id":4512378,"coord":{"lon":-84.36438,"lat":39.075619}},{"displayName":"Fruita, US","country":"US","name":"Fruita","_id":5422534,"coord":{"lon":-108.728989,"lat":39.158871}},{"displayName":"Fruitdale, US","country":"US","name":"Fruitdale","_id":5843993,"coord":{"lon":-123.308113,"lat":42.422058}},{"displayName":"Fruitland Park, US","country":"US","name":"Fruitland Park","_id":4156337,"coord":{"lon":-81.906471,"lat":28.86138}},{"displayName":"Fruitland, US","country":"US","name":"Fruitland","_id":4893267,"coord":{"lon":-90.5168,"lat":41.47142}},{"displayName":"Fruitland, US","country":"US","name":"Fruitland","_id":4857911,"coord":{"lon":-91.129318,"lat":41.35614}},{"displayName":"Fruitland, US","country":"US","name":"Fruitland","_id":4355780,"coord":{"lon":-75.620201,"lat":38.32206}},{"displayName":"Fruitland, US","country":"US","name":"Fruitland","_id":4467399,"coord":{"lon":-82.393173,"lat":35.396511}},{"displayName":"Fruitland, US","country":"US","name":"Fruitland","_id":5593708,"coord":{"lon":-116.91655,"lat":44.00766}},{"displayName":"Fruitport, US","country":"US","name":"Fruitport","_id":4993519,"coord":{"lon":-86.154778,"lat":43.131962}},{"displayName":"Fruitvale, CA","country":"CA","name":"Fruitvale","_id":5958590,"coord":{"lon":-117.552223,"lat":49.116539}},{"displayName":"Fruitvale, US","country":"US","name":"Fruitvale","_id":5422557,"coord":{"lon":-108.496758,"lat":39.08165}},{"displayName":"Fruitville, US","country":"US","name":"Fruitville","_id":4156340,"coord":{"lon":-82.457603,"lat":27.329769}},{"displayName":"Fruktovaya, RU","country":"RU","name":"Fruktovaya","_id":819838,"coord":{"lon":39.26231,"lat":54.911781}},{"displayName":"Fruktove, UA","country":"UA","name":"Fruktove","_id":709083,"coord":{"lon":33.599689,"lat":44.68045}},{"displayName":"Frumales, ES","country":"ES","name":"Frumales","_id":6360818,"coord":{"lon":-4.18781,"lat":41.374722}},{"displayName":"Frumales, ES","country":"ES","name":"Frumales","_id":3121981,"coord":{"lon":-4.18631,"lat":41.383331}},{"displayName":"Frumoasa, MD","country":"MD","name":"Frumoasa","_id":618324,"coord":{"lon":28.402781,"lat":47.328892}},{"displayName":"Frumoasa, RO","country":"RO","name":"Frumoasa","_id":677890,"coord":{"lon":25.85,"lat":46.450001}},{"displayName":"Frumoasa, RO","country":"RO","name":"Frumoasa","_id":677891,"coord":{"lon":25.466669,"lat":43.799999}},{"displayName":"Frumosu, RO","country":"RO","name":"Frumosu","_id":677882,"coord":{"lon":25.65,"lat":47.616669}},{"displayName":"Frumusani, RO","country":"RO","name":"Frumusani","_id":677880,"coord":{"lon":26.32556,"lat":44.296108}},{"displayName":"Frumusica, RO","country":"RO","name":"Frumusica","_id":677872,"coord":{"lon":26.9,"lat":47.533329}},{"displayName":"Frumusita, RO","country":"RO","name":"Frumusita","_id":677870,"coord":{"lon":28.066669,"lat":45.666672}},{"displayName":"Frumuşica, MD","country":"MD","name":"Frumuşica","_id":618323,"coord":{"lon":28.42861,"lat":46.556938}},{"displayName":"Frunze, UA","country":"UA","name":"Frunze","_id":709078,"coord":{"lon":38.75444,"lat":48.668629}},{"displayName":"Frunze, UA","country":"UA","name":"Frunze","_id":709082,"coord":{"lon":33.629559,"lat":45.026878}},{"displayName":"Frunzenskiy, UA","country":"UA","name":"Frunzenskiy","_id":709077,"coord":{"lon":34.916668,"lat":48.566666}},{"displayName":"Frunzevka, UA","country":"UA","name":"Frunzevka","_id":709074,"coord":{"lon":33.083328,"lat":45.26667}},{"displayName":"Frunzi, RO","country":"RO","name":"Frunzi","_id":677852,"coord":{"lon":24.33333,"lat":46.900002}},{"displayName":"Frunzivka, UA","country":"UA","name":"Frunzivka","_id":709071,"coord":{"lon":29.75,"lat":47.333328}},{"displayName":"Frusci, IT","country":"IT","name":"Frusci","_id":3176508,"coord":{"lon":15.73333,"lat":40.783329}},{"displayName":"Frutal, BR","country":"BR","name":"Frutal","_id":3462916,"coord":{"lon":-48.940559,"lat":-20.024719}},{"displayName":"Frutigen, CH","country":"CH","name":"Frutigen","_id":7285873,"coord":{"lon":7.61682,"lat":46.558449}},{"displayName":"Frutigen, CH","country":"CH","name":"Frutigen","_id":2660707,"coord":{"lon":7.64751,"lat":46.587818}},{"displayName":"Frutillar Alto, CL","country":"CL","name":"Frutillar Alto","_id":3889262,"coord":{"lon":-73.058609,"lat":-41.120468}},{"displayName":"Frutillar, CL","country":"CL","name":"Frutillar","_id":3889263,"coord":{"lon":-73.043716,"lat":-41.126759}},{"displayName":"Frutzweiler, DE","country":"DE","name":"Frutzweiler","_id":2924108,"coord":{"lon":7.38333,"lat":49.450001}},{"displayName":"Fry, GR","country":"GR","name":"Fry","_id":262217,"coord":{"lon":26.933331,"lat":35.416672}},{"displayName":"Fryanovo, RU","country":"RU","name":"Fryanovo","_id":562322,"coord":{"lon":38.450001,"lat":56.133331}},{"displayName":"Fryazevo, RU","country":"RU","name":"Fryazevo","_id":562321,"coord":{"lon":38.462776,"lat":55.731945}},{"displayName":"Fryazino, RU","country":"RU","name":"Fryazino","_id":562319,"coord":{"lon":38.045555,"lat":55.960556}},{"displayName":"Frycovice, CZ","country":"CZ","name":"Frycovice","_id":3076129,"coord":{"lon":18.223209,"lat":49.666771}},{"displayName":"Frydek, PL","country":"PL","name":"Frydek","_id":3099630,"coord":{"lon":19.072781,"lat":49.996262}},{"displayName":"Frydek-Mistek, CZ","country":"CZ","name":"Frydek-Mistek","_id":3076127,"coord":{"lon":18.35,"lat":49.683331}},{"displayName":"Frydlant nad Ostravici, CZ","country":"CZ","name":"Frydlant nad Ostravici","_id":3076123,"coord":{"lon":18.359671,"lat":49.5928}},{"displayName":"Frydlant, CZ","country":"CZ","name":"Frydlant","_id":3076124,"coord":{"lon":15.07974,"lat":50.921391}},{"displayName":"Frydman, PL","country":"PL","name":"Frydman","_id":772467,"coord":{"lon":20.22961,"lat":49.449268}},{"displayName":"Frydrychowice, PL","country":"PL","name":"Frydrychowice","_id":3099629,"coord":{"lon":19.419359,"lat":49.904812}},{"displayName":"Fryeburg, US","country":"US","name":"Fryeburg","_id":4964996,"coord":{"lon":-70.980621,"lat":44.01646}},{"displayName":"Fryerstown, AU","country":"AU","name":"Fryerstown","_id":2166040,"coord":{"lon":144.25,"lat":-37.133331}},{"displayName":"Frymburk, CZ","country":"CZ","name":"Frymburk","_id":3076120,"coord":{"lon":14.16564,"lat":48.660938}},{"displayName":"Frystak, CZ","country":"CZ","name":"Frystak","_id":3076118,"coord":{"lon":17.68346,"lat":49.285198}},{"displayName":"Frysztak, PL","country":"PL","name":"Frysztak","_id":7532395,"coord":{"lon":21.568899,"lat":49.8409}},{"displayName":"Frysztak, PL","country":"PL","name":"Frysztak","_id":772465,"coord":{"lon":21.609421,"lat":49.84164}},{"displayName":"Fráguas, PT","country":"PT","name":"Fráguas","_id":8013027,"coord":{"lon":-8.86112,"lat":39.370838}},{"displayName":"Fráguas, PT","country":"PT","name":"Fráguas","_id":2267913,"coord":{"lon":-8.85513,"lat":39.377331}},{"displayName":"Fränkisch-Crumbach, DE","country":"DE","name":"Fränkisch-Crumbach","_id":6553196,"coord":{"lon":8.85861,"lat":49.746101}},{"displayName":"Fréchou, FR","country":"FR","name":"Fréchou","_id":6434952,"coord":{"lon":0.31667,"lat":44.083328}},{"displayName":"Fréchou, FR","country":"FR","name":"Fréchou","_id":3017274,"coord":{"lon":0.32251,"lat":44.084881}},{"displayName":"Fréjus, FR","country":"FR","name":"Fréjus","_id":6614830,"coord":{"lon":6.73333,"lat":43.433331}},{"displayName":"Frémigoux, FR","country":"FR","name":"Frémigoux","_id":3017234,"coord":{"lon":2.25,"lat":45.25}},{"displayName":"Fréscano, ES","country":"ES","name":"Fréscano","_id":6362802,"coord":{"lon":-1.45614,"lat":41.87907}},{"displayName":"Frênes, BE","country":"BE","name":"Frênes","_id":2797964,"coord":{"lon":4.86667,"lat":50.383331}},{"displayName":"Frênes, FR","country":"FR","name":"Frênes","_id":6439098,"coord":{"lon":-0.68333,"lat":48.783329}},{"displayName":"Frênes, FR","country":"FR","name":"Frênes","_id":3017220,"coord":{"lon":-0.6819,"lat":48.784641}},{"displayName":"Frías de Albarracín, ES","country":"ES","name":"Frías de Albarracín","_id":6361520,"coord":{"lon":-1.61455,"lat":40.33532}},{"displayName":"Frías, AR","country":"AR","name":"Frías","_id":3855353,"coord":{"lon":-65.13102,"lat":-28.635929}},{"displayName":"Frías, ES","country":"ES","name":"Frías","_id":6356435,"coord":{"lon":-3.28164,"lat":42.751438}},{"displayName":"Frómista, ES","country":"ES","name":"Frómista","_id":6360038,"coord":{"lon":-4.41104,"lat":42.269798}},{"displayName":"Fröhnerhof, DE","country":"DE","name":"Fröhnerhof","_id":2924283,"coord":{"lon":7.85,"lat":49.48333}},{"displayName":"Fröhstockheim, DE","country":"DE","name":"Fröhstockheim","_id":2924235,"coord":{"lon":10.23333,"lat":49.73333}},{"displayName":"Frömern, DE","country":"DE","name":"Frömern","_id":2924227,"coord":{"lon":7.73333,"lat":51.5}},{"displayName":"Frömmstedt, DE","country":"DE","name":"Frömmstedt","_id":6550124,"coord":{"lon":11.0333,"lat":51.25}},{"displayName":"Frörup, DE","country":"DE","name":"Frörup","_id":2924182,"coord":{"lon":9.43333,"lat":54.700001}},{"displayName":"Fröschau, DE","country":"DE","name":"Fröschau","_id":2924173,"coord":{"lon":11.26667,"lat":49.366669}},{"displayName":"Fröschen, DE","country":"DE","name":"Fröschen","_id":2924160,"coord":{"lon":7.56667,"lat":49.25}},{"displayName":"Fröttstädt, DE","country":"DE","name":"Fröttstädt","_id":6550076,"coord":{"lon":10.5833,"lat":50.9333}},{"displayName":"Frücht, DE","country":"DE","name":"Frücht","_id":6554028,"coord":{"lon":7.68333,"lat":50.3167}},{"displayName":"Frühling, DE","country":"DE","name":"Frühling","_id":2924119,"coord":{"lon":12.62535,"lat":47.951881}},{"displayName":"Ftan, CH","country":"CH","name":"Ftan","_id":7285874,"coord":{"lon":10.22797,"lat":46.825859}},{"displayName":"Fuan, CN","country":"CN","name":"Fuan","_id":2034479,"coord":{"lon":122.830559,"lat":41.075001}},{"displayName":"Fubao, CN","country":"CN","name":"Fubao","_id":1811082,"coord":{"lon":106.076668,"lat":28.769051}},{"displayName":"Fubei, CN","country":"CN","name":"Fubei","_id":1924803,"coord":{"lon":116.292801,"lat":28.006531}},{"displayName":"Fubin, CN","country":"CN","name":"Fubin","_id":1919547,"coord":{"lon":116.862732,"lat":23.84697}},{"displayName":"Fubine, IT","country":"IT","name":"Fubine","_id":3176505,"coord":{"lon":8.42994,"lat":44.962749}},{"displayName":"Fublaines, FR","country":"FR","name":"Fublaines","_id":3016918,"coord":{"lon":2.93655,"lat":48.93816}},{"displayName":"Fucecchio, IT","country":"IT","name":"Fucecchio","_id":6541089,"coord":{"lon":10.81011,"lat":43.72784}},{"displayName":"Fucecchio, IT","country":"IT","name":"Fucecchio","_id":3176504,"coord":{"lon":10.81011,"lat":43.72784}},{"displayName":"Fucha, CN","country":"CN","name":"Fucha","_id":7650850,"coord":{"lon":115.432129,"lat":25.541121}},{"displayName":"Fucheng, CN","country":"CN","name":"Fucheng","_id":1893334,"coord":{"lon":109.330276,"lat":21.569719}},{"displayName":"Fucheng, CN","country":"CN","name":"Fucheng","_id":1811076,"coord":{"lon":115.887131,"lat":25.53631}},{"displayName":"Fucheng, CN","country":"CN","name":"Fucheng","_id":1817928,"coord":{"lon":112.233513,"lat":36.146839}},{"displayName":"Fucheng, CN","country":"CN","name":"Fucheng","_id":1919460,"coord":{"lon":115.237556,"lat":24.1068}},{"displayName":"Fucheng, CN","country":"CN","name":"Fucheng","_id":7512458,"coord":{"lon":115.166168,"lat":23.639339}},{"displayName":"Fuchi, CN","country":"CN","name":"Fuchi","_id":7745075,"coord":{"lon":115.43795,"lat":29.855049}},{"displayName":"Fuchsberg, AT","country":"AT","name":"Fuchsberg","_id":2779171,"coord":{"lon":14.1,"lat":47.450001}},{"displayName":"Fuchsendorf, DE","country":"DE","name":"Fuchsendorf","_id":2923956,"coord":{"lon":12.28333,"lat":49.51667}},{"displayName":"Fuchshain, DE","country":"DE","name":"Fuchshain","_id":2923946,"coord":{"lon":12.53333,"lat":51.283329}},{"displayName":"Fuchshof, CH","country":"CH","name":"Fuchshof","_id":6291234,"coord":{"lon":8.49131,"lat":47.600231}},{"displayName":"Fuchshofen, DE","country":"DE","name":"Fuchshofen","_id":6553304,"coord":{"lon":6.85,"lat":50.4333}},{"displayName":"Fuchshofen, DE","country":"DE","name":"Fuchshofen","_id":2923936,"coord":{"lon":6.85101,"lat":50.428322}},{"displayName":"Fuchsmuhl, DE","country":"DE","name":"Fuchsmuhl","_id":2923907,"coord":{"lon":12.15,"lat":49.916672}},{"displayName":"Fuchsstadt, DE","country":"DE","name":"Fuchsstadt","_id":2923901,"coord":{"lon":9.97,"lat":49.698891}},{"displayName":"Fuchsstadt, DE","country":"DE","name":"Fuchsstadt","_id":6556962,"coord":{"lon":9.9262,"lat":50.107601}},{"displayName":"Fuchsstadt, DE","country":"DE","name":"Fuchsstadt","_id":2923900,"coord":{"lon":9.9337,"lat":50.10825}},{"displayName":"Fuchu, JP","country":"JP","name":"Fuchu","_id":1864155,"coord":{"lon":133.233337,"lat":34.566669}},{"displayName":"Fuchu, JP","country":"JP","name":"Fuchu","_id":1864154,"coord":{"lon":139.483337,"lat":35.666672}},{"displayName":"Fuchuan, CN","country":"CN","name":"Fuchuan","_id":1811066,"coord":{"lon":106.689743,"lat":33.00238}},{"displayName":"Fuchun, CN","country":"CN","name":"Fuchun","_id":1811063,"coord":{"lon":117.543472,"lat":29.32412}},{"displayName":"Fudian, CN","country":"CN","name":"Fudian","_id":1811053,"coord":{"lon":112.356422,"lat":33.93187}},{"displayName":"Fuding, CN","country":"CN","name":"Fuding","_id":1792585,"coord":{"lon":120.213997,"lat":27.327339}},{"displayName":"Fudong, CN","country":"CN","name":"Fudong","_id":1548558,"coord":{"lon":120.558327,"lat":32.71944}},{"displayName":"Fudong, CN","country":"CN","name":"Fudong","_id":2037383,"coord":{"lon":129.147812,"lat":42.574162}},{"displayName":"Fue, CN","country":"CN","name":"Fue","_id":1811046,"coord":{"lon":118.373894,"lat":29.908609}},{"displayName":"Fueloepjakab, HU","country":"HU","name":"Fueloepjakab","_id":3050997,"coord":{"lon":19.721319,"lat":46.74221}},{"displayName":"Fuembellida, ES","country":"ES","name":"Fuembellida","_id":6357901,"coord":{"lon":-2.03862,"lat":40.74194}},{"displayName":"Fuembellida, ES","country":"ES","name":"Fuembellida","_id":3121975,"coord":{"lon":-1.99861,"lat":40.75589}},{"displayName":"Fuencaliente De La Palma, ES","country":"ES","name":"Fuencaliente De La Palma","_id":6534186,"coord":{"lon":-17.85013,"lat":28.49329}},{"displayName":"Fuencaliente de la Palma, ES","country":"ES","name":"Fuencaliente de la Palma","_id":2517598,"coord":{"lon":-17.845289,"lat":28.492359}},{"displayName":"Fuencaliente de Medina, ES","country":"ES","name":"Fuencaliente de Medina","_id":3121971,"coord":{"lon":-2.45846,"lat":41.135899}},{"displayName":"Fuencaliente, ES","country":"ES","name":"Fuencaliente","_id":2517603,"coord":{"lon":-4.02576,"lat":39.186241}},{"displayName":"Fuencaliente, ES","country":"ES","name":"Fuencaliente","_id":6357136,"coord":{"lon":-4.28512,"lat":38.425968}},{"displayName":"Fuencaliente, ES","country":"ES","name":"Fuencaliente","_id":2517604,"coord":{"lon":-4.30492,"lat":38.406021}},{"displayName":"Fuencemillan, ES","country":"ES","name":"Fuencemillan","_id":3121968,"coord":{"lon":-3.09818,"lat":40.920631}},{"displayName":"Fuencemillán, ES","country":"ES","name":"Fuencemillán","_id":6357902,"coord":{"lon":-3.09255,"lat":40.920139}},{"displayName":"Fuendejalon, ES","country":"ES","name":"Fuendejalon","_id":3121965,"coord":{"lon":-1.47213,"lat":41.760502}},{"displayName":"Fuendejalón, ES","country":"ES","name":"Fuendejalón","_id":6362803,"coord":{"lon":-1.45526,"lat":41.732929}},{"displayName":"Fuendetodos, ES","country":"ES","name":"Fuendetodos","_id":6362804,"coord":{"lon":-0.91885,"lat":41.360149}},{"displayName":"Fuendetodos, ES","country":"ES","name":"Fuendetodos","_id":3121964,"coord":{"lon":-0.95988,"lat":41.342449}},{"displayName":"Fuenferrada, ES","country":"ES","name":"Fuenferrada","_id":6361521,"coord":{"lon":-1.01271,"lat":40.866119}},{"displayName":"Fuenferrada, ES","country":"ES","name":"Fuenferrada","_id":3121963,"coord":{"lon":-1.0118,"lat":40.869228}},{"displayName":"Fuengirola, ES","country":"ES","name":"Fuengirola","_id":6359459,"coord":{"lon":-4.61206,"lat":36.551491}},{"displayName":"Fuengirola, ES","country":"ES","name":"Fuengirola","_id":2517595,"coord":{"lon":-4.62473,"lat":36.539982}},{"displayName":"Fuenlabrada de los Montes, ES","country":"ES","name":"Fuenlabrada de los Montes","_id":6355916,"coord":{"lon":-4.89463,"lat":39.122108}},{"displayName":"Fuenlabrada de los Montes, ES","country":"ES","name":"Fuenlabrada de los Montes","_id":2517591,"coord":{"lon":-4.93513,"lat":39.132881}},{"displayName":"Fuenlabrada, ES","country":"ES","name":"Fuenlabrada","_id":6359284,"coord":{"lon":-3.7973,"lat":40.28854}},{"displayName":"Fuenlabrada, ES","country":"ES","name":"Fuenlabrada","_id":3121960,"coord":{"lon":-3.79415,"lat":40.284191}},{"displayName":"Fuenllana, ES","country":"ES","name":"Fuenllana","_id":6357137,"coord":{"lon":-2.97073,"lat":38.760159}},{"displayName":"Fuenllana, ES","country":"ES","name":"Fuenllana","_id":2517589,"coord":{"lon":-2.95814,"lat":38.755901}},{"displayName":"Fuenmayor, ES","country":"ES","name":"Fuenmayor","_id":6359054,"coord":{"lon":-2.5842,"lat":42.474831}},{"displayName":"Fuenmayor, ES","country":"ES","name":"Fuenmayor","_id":3121959,"coord":{"lon":-2.56153,"lat":42.467289}},{"displayName":"Fuensaldana, ES","country":"ES","name":"Fuensaldana","_id":3121957,"coord":{"lon":-4.76547,"lat":41.706169}},{"displayName":"Fuensaldaña, ES","country":"ES","name":"Fuensaldaña","_id":6362194,"coord":{"lon":-4.74584,"lat":41.713089}},{"displayName":"Fuensalida, ES","country":"ES","name":"Fuensalida","_id":6361726,"coord":{"lon":-4.18003,"lat":40.063961}},{"displayName":"Fuensalida, ES","country":"ES","name":"Fuensalida","_id":3121956,"coord":{"lon":-4.20718,"lat":40.052879}},{"displayName":"Fuensanta de Martos, ES","country":"ES","name":"Fuensanta de Martos","_id":6358485,"coord":{"lon":-3.91541,"lat":37.618752}},{"displayName":"Fuensanta de Martos, ES","country":"ES","name":"Fuensanta de Martos","_id":2517581,"coord":{"lon":-3.90846,"lat":37.64756}},{"displayName":"Fuensanta, ES","country":"ES","name":"Fuensanta","_id":2517586,"coord":{"lon":-1.11544,"lat":37.940632}},{"displayName":"Fuensanta, ES","country":"ES","name":"Fuensanta","_id":6355324,"coord":{"lon":-2.06734,"lat":39.241402}},{"displayName":"Fuensanta, ES","country":"ES","name":"Fuensanta","_id":2517585,"coord":{"lon":-2.06667,"lat":39.23333}},{"displayName":"Fuente Carreteros, ES","country":"ES","name":"Fuente Carreteros","_id":2517563,"coord":{"lon":-5.15595,"lat":37.669682}},{"displayName":"Fuente de Cantos, ES","country":"ES","name":"Fuente de Cantos","_id":6355917,"coord":{"lon":-6.26554,"lat":38.22747}},{"displayName":"Fuente de Cantos, ES","country":"ES","name":"Fuente de Cantos","_id":2517560,"coord":{"lon":-6.3,"lat":38.25}},{"displayName":"Fuente de Oro, CO","country":"CO","name":"Fuente de Oro","_id":3682299,"coord":{"lon":-73.612778,"lat":3.45944}},{"displayName":"Fuente de Pedro Naharro, ES","country":"ES","name":"Fuente de Pedro Naharro","_id":6357436,"coord":{"lon":-3.04708,"lat":39.931709}},{"displayName":"Fuente de Pedro Naharro, ES","country":"ES","name":"Fuente de Pedro Naharro","_id":2517535,"coord":{"lon":-3.00916,"lat":39.924381}},{"displayName":"Fuente de Piedra, ES","country":"ES","name":"Fuente de Piedra","_id":6359460,"coord":{"lon":-4.75107,"lat":37.1259}},{"displayName":"Fuente de Piedra, ES","country":"ES","name":"Fuente de Piedra","_id":2517534,"coord":{"lon":-4.73,"lat":37.135262}},{"displayName":"Fuente de San Esteban (La), ES","country":"ES","name":"Fuente de San Esteban (La)","_id":6360378,"coord":{"lon":-6.18058,"lat":40.80722}},{"displayName":"Fuente de Santa Cruz, ES","country":"ES","name":"Fuente de Santa Cruz","_id":6360819,"coord":{"lon":-4.62357,"lat":41.212978}},{"displayName":"Fuente de Santa Cruz, ES","country":"ES","name":"Fuente de Santa Cruz","_id":3121932,"coord":{"lon":-4.6353,"lat":41.209721}},{"displayName":"Fuente del Maestre, ES","country":"ES","name":"Fuente del Maestre","_id":6355919,"coord":{"lon":-6.4539,"lat":38.554329}},{"displayName":"Fuente del Maestre, ES","country":"ES","name":"Fuente del Maestre","_id":2517547,"coord":{"lon":-6.44782,"lat":38.526562}},{"displayName":"Fuente el Fresno, ES","country":"ES","name":"Fuente el Fresno","_id":2517530,"coord":{"lon":-3.77487,"lat":39.228401}},{"displayName":"Fuente el Olmo de Fuentiduena, ES","country":"ES","name":"Fuente el Olmo de Fuentiduena","_id":3121929,"coord":{"lon":-4.00086,"lat":41.379292}},{"displayName":"Fuente el Olmo de Fuentidueña, ES","country":"ES","name":"Fuente el Olmo de Fuentidueña","_id":6360820,"coord":{"lon":-3.98607,"lat":41.401981}},{"displayName":"Fuente el Saz, ES","country":"ES","name":"Fuente el Saz","_id":3121926,"coord":{"lon":-3.51146,"lat":40.63216}},{"displayName":"Fuente el Sol, ES","country":"ES","name":"Fuente el Sol","_id":6362195,"coord":{"lon":-4.93273,"lat":41.17215}},{"displayName":"Fuente el Sol, ES","country":"ES","name":"Fuente el Sol","_id":3121925,"coord":{"lon":-4.9343,"lat":41.176029}},{"displayName":"Fuente Encalada, ES","country":"ES","name":"Fuente Encalada","_id":6362518,"coord":{"lon":-6.00032,"lat":42.12318}},{"displayName":"Fuente Encalada, ES","country":"ES","name":"Fuente Encalada","_id":3121924,"coord":{"lon":-5.99622,"lat":42.110111}},{"displayName":"Fuente la Lancha, ES","country":"ES","name":"Fuente la Lancha","_id":6357223,"coord":{"lon":-5.04403,"lat":38.420971}},{"displayName":"Fuente la Lancha, ES","country":"ES","name":"Fuente la Lancha","_id":2517522,"coord":{"lon":-5.03333,"lat":38.416672}},{"displayName":"Fuente la Reina, ES","country":"ES","name":"Fuente la Reina","_id":6357015,"coord":{"lon":-0.60842,"lat":40.061008}},{"displayName":"Fuente la Reina, ES","country":"ES","name":"Fuente la Reina","_id":3121913,"coord":{"lon":-0.6,"lat":40.066669}},{"displayName":"Fuente Librilla, ES","country":"ES","name":"Fuente Librilla","_id":2517518,"coord":{"lon":-1.41538,"lat":37.918301}},{"displayName":"Fuente Obejuna, ES","country":"ES","name":"Fuente Obejuna","_id":6357224,"coord":{"lon":-5.45186,"lat":38.262321}},{"displayName":"Fuente Obejuna, ES","country":"ES","name":"Fuente Obejuna","_id":2517515,"coord":{"lon":-5.41667,"lat":38.26667}},{"displayName":"Fuente Palmera, ES","country":"ES","name":"Fuente Palmera","_id":6357225,"coord":{"lon":-5.08316,"lat":37.703331}},{"displayName":"Fuente Palmera, ES","country":"ES","name":"Fuente Palmera","_id":2517512,"coord":{"lon":-5.09965,"lat":37.704941}},{"displayName":"Fuente Vaqueros, ES","country":"ES","name":"Fuente Vaqueros","_id":6357703,"coord":{"lon":-3.78108,"lat":37.21978}},{"displayName":"Fuente Vaqueros, ES","country":"ES","name":"Fuente Vaqueros","_id":2517493,"coord":{"lon":-3.78294,"lat":37.220188}},{"displayName":"Fuente Vera, ES","country":"ES","name":"Fuente Vera","_id":2517492,"coord":{"lon":-2.78829,"lat":37.733131}},{"displayName":"Fuente Álamo de Murcia, ES","country":"ES","name":"Fuente Álamo de Murcia","_id":6359526,"coord":{"lon":-1.17411,"lat":37.749039}},{"displayName":"Fuente-Alamo de Murcia, ES","country":"ES","name":"Fuente-Alamo de Murcia","_id":2517574,"coord":{"lon":-1.1,"lat":37.700001}},{"displayName":"Fuente-Alamo, ES","country":"ES","name":"Fuente-Alamo","_id":2517576,"coord":{"lon":-1.43158,"lat":38.692879}},{"displayName":"Fuente-Andrino, ES","country":"ES","name":"Fuente-Andrino","_id":3121952,"coord":{"lon":-4.45393,"lat":42.412239}},{"displayName":"Fuente-Tojar, ES","country":"ES","name":"Fuente-Tojar","_id":2517494,"coord":{"lon":-4.14631,"lat":37.510948}},{"displayName":"Fuente-Tójar, ES","country":"ES","name":"Fuente-Tójar","_id":6357226,"coord":{"lon":-4.12203,"lat":37.52272}},{"displayName":"Fuente-Álamo, ES","country":"ES","name":"Fuente-Álamo","_id":6355325,"coord":{"lon":-1.433,"lat":38.696918}},{"displayName":"Fuentealbilla, ES","country":"ES","name":"Fuentealbilla","_id":6355326,"coord":{"lon":-1.58619,"lat":39.232899}},{"displayName":"Fuentealbilla, ES","country":"ES","name":"Fuentealbilla","_id":2517573,"coord":{"lon":-1.55,"lat":39.26667}},{"displayName":"Fuentearmegil, ES","country":"ES","name":"Fuentearmegil","_id":6361136,"coord":{"lon":-3.18863,"lat":41.715462}},{"displayName":"Fuentearmegil, ES","country":"ES","name":"Fuentearmegil","_id":3121950,"coord":{"lon":-3.18362,"lat":41.714958}},{"displayName":"Fuentebureba, ES","country":"ES","name":"Fuentebureba","_id":6356436,"coord":{"lon":-3.23383,"lat":42.633091}},{"displayName":"Fuentebureba, ES","country":"ES","name":"Fuentebureba","_id":3121947,"coord":{"lon":-3.2351,"lat":42.633999}},{"displayName":"Fuentecambron, ES","country":"ES","name":"Fuentecambron","_id":3121945,"coord":{"lon":-3.32872,"lat":41.505791}},{"displayName":"Fuentecambrón, ES","country":"ES","name":"Fuentecambrón","_id":6361137,"coord":{"lon":-3.33711,"lat":41.490311}},{"displayName":"Fuentecantos, ES","country":"ES","name":"Fuentecantos","_id":6361138,"coord":{"lon":-2.4323,"lat":41.84425}},{"displayName":"Fuentecantos, ES","country":"ES","name":"Fuentecantos","_id":3121943,"coord":{"lon":-2.42846,"lat":41.849289}},{"displayName":"Fuentecen, ES","country":"ES","name":"Fuentecen","_id":3121941,"coord":{"lon":-3.86867,"lat":41.628521}},{"displayName":"Fuentecén, ES","country":"ES","name":"Fuentecén","_id":6356437,"coord":{"lon":-3.86689,"lat":41.633228}},{"displayName":"Fuenteguinaldo, ES","country":"ES","name":"Fuenteguinaldo","_id":6360379,"coord":{"lon":-6.67417,"lat":40.42017}},{"displayName":"Fuenteguinaldo, ES","country":"ES","name":"Fuenteguinaldo","_id":3121921,"coord":{"lon":-6.67528,"lat":40.428761}},{"displayName":"Fuenteheridos, ES","country":"ES","name":"Fuenteheridos","_id":6358209,"coord":{"lon":-6.66335,"lat":37.910381}},{"displayName":"Fuenteheridos, ES","country":"ES","name":"Fuenteheridos","_id":2517527,"coord":{"lon":-6.66108,"lat":37.905449}},{"displayName":"Fuentelahiguera de Albatages, ES","country":"ES","name":"Fuentelahiguera de Albatages","_id":6357903,"coord":{"lon":-3.30851,"lat":40.773338}},{"displayName":"Fuentelahiguera de Albatages, ES","country":"ES","name":"Fuentelahiguera de Albatages","_id":3121917,"coord":{"lon":-3.30492,"lat":40.783119}},{"displayName":"Fuentelapena, ES","country":"ES","name":"Fuentelapena","_id":3121916,"coord":{"lon":-5.38325,"lat":41.251438}},{"displayName":"Fuentelapeña, ES","country":"ES","name":"Fuentelapeña","_id":6362519,"coord":{"lon":-5.38855,"lat":41.24791}},{"displayName":"Fuentelcesped, ES","country":"ES","name":"Fuentelcesped","_id":3121910,"coord":{"lon":-3.64064,"lat":41.591621}},{"displayName":"Fuentelcésped, ES","country":"ES","name":"Fuentelcésped","_id":6356438,"coord":{"lon":-3.63772,"lat":41.603191}},{"displayName":"Fuentelencina, ES","country":"ES","name":"Fuentelencina","_id":6357904,"coord":{"lon":-2.8735,"lat":40.508221}},{"displayName":"Fuentelencina, ES","country":"ES","name":"Fuentelencina","_id":3121909,"coord":{"lon":-2.88226,"lat":40.517811}},{"displayName":"Fuentelespino de Haro, ES","country":"ES","name":"Fuentelespino de Haro","_id":6357437,"coord":{"lon":-2.63532,"lat":39.688431}},{"displayName":"Fuentelespino de Haro, ES","country":"ES","name":"Fuentelespino de Haro","_id":2517520,"coord":{"lon":-2.66869,"lat":39.689339}},{"displayName":"Fuentelespino de Moya, ES","country":"ES","name":"Fuentelespino de Moya","_id":6357438,"coord":{"lon":-1.46692,"lat":39.935188}},{"displayName":"Fuentelespino de Moya, ES","country":"ES","name":"Fuentelespino de Moya","_id":2517519,"coord":{"lon":-1.46667,"lat":39.916672}},{"displayName":"Fuentelisendo, ES","country":"ES","name":"Fuentelisendo","_id":6356439,"coord":{"lon":-3.90361,"lat":41.62146}},{"displayName":"Fuentelisendo, ES","country":"ES","name":"Fuentelisendo","_id":3121904,"coord":{"lon":-3.90129,"lat":41.622742}},{"displayName":"Fuentelsaz de Soria, ES","country":"ES","name":"Fuentelsaz de Soria","_id":6361140,"coord":{"lon":-2.42579,"lat":41.868961}},{"displayName":"Fuentelsaz de Soria, ES","country":"ES","name":"Fuentelsaz de Soria","_id":3121900,"coord":{"lon":-2.41525,"lat":41.86586}},{"displayName":"Fuentelsaz, ES","country":"ES","name":"Fuentelsaz","_id":6357905,"coord":{"lon":-1.81754,"lat":41.056221}},{"displayName":"Fuentelsaz, ES","country":"ES","name":"Fuentelsaz","_id":3121901,"coord":{"lon":-1.83108,"lat":41.073589}},{"displayName":"Fuentelviejo, ES","country":"ES","name":"Fuentelviejo","_id":6357906,"coord":{"lon":-2.98829,"lat":40.520191}},{"displayName":"Fuentelviejo, ES","country":"ES","name":"Fuentelviejo","_id":3121899,"coord":{"lon":-2.9843,"lat":40.526371}},{"displayName":"Fuentemolinos, ES","country":"ES","name":"Fuentemolinos","_id":6356440,"coord":{"lon":-3.85286,"lat":41.608429}},{"displayName":"Fuentemolinos, ES","country":"ES","name":"Fuentemolinos","_id":3121895,"coord":{"lon":-3.85005,"lat":41.604771}},{"displayName":"Fuentenebro, ES","country":"ES","name":"Fuentenebro","_id":6356441,"coord":{"lon":-3.75003,"lat":41.514198}},{"displayName":"Fuentenebro, ES","country":"ES","name":"Fuentenebro","_id":3121893,"coord":{"lon":-3.75449,"lat":41.528728}},{"displayName":"Fuentenovilla, ES","country":"ES","name":"Fuentenovilla","_id":6357907,"coord":{"lon":-3.10175,"lat":40.37632}},{"displayName":"Fuentenovilla, ES","country":"ES","name":"Fuentenovilla","_id":3121892,"coord":{"lon":-3.09102,"lat":40.36248}},{"displayName":"Fuentepelayo, ES","country":"ES","name":"Fuentepelayo","_id":6360822,"coord":{"lon":-4.17095,"lat":41.228409}},{"displayName":"Fuentepelayo, ES","country":"ES","name":"Fuentepelayo","_id":3121887,"coord":{"lon":-4.1757,"lat":41.222488}},{"displayName":"Fuentepinel, ES","country":"ES","name":"Fuentepinel","_id":3121886,"coord":{"lon":-4.04295,"lat":41.398918}},{"displayName":"Fuentepinilla, ES","country":"ES","name":"Fuentepinilla","_id":6361141,"coord":{"lon":-2.74577,"lat":41.553452}},{"displayName":"Fuentepinilla, ES","country":"ES","name":"Fuentepinilla","_id":3121885,"coord":{"lon":-2.76288,"lat":41.56683}},{"displayName":"Fuentepiñel, ES","country":"ES","name":"Fuentepiñel","_id":6360823,"coord":{"lon":-4.03662,"lat":41.407871}},{"displayName":"Fuenterrabia, ES","country":"ES","name":"Fuenterrabia","_id":3121881,"coord":{"lon":-1.79448,"lat":43.372021}},{"displayName":"Fuenterroble de Salvatierra, ES","country":"ES","name":"Fuenterroble de Salvatierra","_id":6360381,"coord":{"lon":-5.73817,"lat":40.551701}},{"displayName":"Fuenterroble de Salvatierra, ES","country":"ES","name":"Fuenterroble de Salvatierra","_id":3121877,"coord":{"lon":-5.73379,"lat":40.564659}},{"displayName":"Fuenterrobles, ES","country":"ES","name":"Fuenterrobles","_id":6361994,"coord":{"lon":-1.36613,"lat":39.586071}},{"displayName":"Fuenterrobles, ES","country":"ES","name":"Fuenterrobles","_id":2517509,"coord":{"lon":-1.35,"lat":39.583328}},{"displayName":"Fuentes Calientes, ES","country":"ES","name":"Fuentes Calientes","_id":6361522,"coord":{"lon":-0.97546,"lat":40.690128}},{"displayName":"Fuentes Calientes, ES","country":"ES","name":"Fuentes Calientes","_id":3121862,"coord":{"lon":-0.96667,"lat":40.700001}},{"displayName":"Fuentes Claras, ES","country":"ES","name":"Fuentes Claras","_id":6361523,"coord":{"lon":-1.32551,"lat":40.864262}},{"displayName":"Fuentes Claras, ES","country":"ES","name":"Fuentes Claras","_id":3121860,"coord":{"lon":-1.32266,"lat":40.86375}},{"displayName":"Fuentes de Andalucia, ES","country":"ES","name":"Fuentes de Andalucia","_id":2517500,"coord":{"lon":-5.34615,"lat":37.464088}},{"displayName":"Fuentes de Andalucía, ES","country":"ES","name":"Fuentes de Andalucía","_id":6360997,"coord":{"lon":-5.33272,"lat":37.52684}},{"displayName":"Fuentes de Ano, ES","country":"ES","name":"Fuentes de Ano","_id":3121856,"coord":{"lon":-4.89908,"lat":41.017689}},{"displayName":"Fuentes de Ayodar, ES","country":"ES","name":"Fuentes de Ayodar","_id":3121855,"coord":{"lon":-0.41667,"lat":40.033329}},{"displayName":"Fuentes de Ayódar, ES","country":"ES","name":"Fuentes de Ayódar","_id":6357016,"coord":{"lon":-0.42518,"lat":40.019348}},{"displayName":"Fuentes de Año, ES","country":"ES","name":"Fuentes de Año","_id":6355684,"coord":{"lon":-4.91127,"lat":41.02512}},{"displayName":"Fuentes de Bejar, ES","country":"ES","name":"Fuentes de Bejar","_id":3121854,"coord":{"lon":-5.6927,"lat":40.508148}},{"displayName":"Fuentes de Béjar, ES","country":"ES","name":"Fuentes de Béjar","_id":6360382,"coord":{"lon":-5.69521,"lat":40.511051}},{"displayName":"Fuentes de Carbajal, ES","country":"ES","name":"Fuentes de Carbajal","_id":6358619,"coord":{"lon":-5.4545,"lat":42.181808}},{"displayName":"Fuentes de Carbajal, ES","country":"ES","name":"Fuentes de Carbajal","_id":3121853,"coord":{"lon":-5.44606,"lat":42.177761}},{"displayName":"Fuentes de Cesna, ES","country":"ES","name":"Fuentes de Cesna","_id":2517499,"coord":{"lon":-4.22922,"lat":37.271461}},{"displayName":"Fuentes de Cuéllar, ES","country":"ES","name":"Fuentes de Cuéllar","_id":3121851,"coord":{"lon":-4.21508,"lat":41.414879}},{"displayName":"Fuentes de Ebro, ES","country":"ES","name":"Fuentes de Ebro","_id":6362805,"coord":{"lon":-0.62886,"lat":41.492512}},{"displayName":"Fuentes de Ebro, ES","country":"ES","name":"Fuentes de Ebro","_id":3121849,"coord":{"lon":-0.63159,"lat":41.512501}},{"displayName":"Fuentes de Jiloca, ES","country":"ES","name":"Fuentes de Jiloca","_id":6362806,"coord":{"lon":-1.54825,"lat":41.22324}},{"displayName":"Fuentes de Jiloca, ES","country":"ES","name":"Fuentes de Jiloca","_id":3121847,"coord":{"lon":-1.53616,"lat":41.228588}},{"displayName":"Fuentes de Leon, ES","country":"ES","name":"Fuentes de Leon","_id":2517498,"coord":{"lon":-6.53884,"lat":38.068661}},{"displayName":"Fuentes de León, ES","country":"ES","name":"Fuentes de León","_id":6355920,"coord":{"lon":-6.52004,"lat":38.06459}},{"displayName":"Fuentes de Magana, ES","country":"ES","name":"Fuentes de Magana","_id":3121843,"coord":{"lon":-2.1795,"lat":41.935211}},{"displayName":"Fuentes de Magaña, ES","country":"ES","name":"Fuentes de Magaña","_id":6361142,"coord":{"lon":-2.20067,"lat":41.929501}},{"displayName":"Fuentes de Nava, ES","country":"ES","name":"Fuentes de Nava","_id":6360039,"coord":{"lon":-4.76499,"lat":42.092159}},{"displayName":"Fuentes de Nava, ES","country":"ES","name":"Fuentes de Nava","_id":3121841,"coord":{"lon":-4.78333,"lat":42.083328}},{"displayName":"Fuentes de Onoro, ES","country":"ES","name":"Fuentes de Onoro","_id":3121840,"coord":{"lon":-6.81144,"lat":40.591019}},{"displayName":"Fuentes de Oñoro, ES","country":"ES","name":"Fuentes de Oñoro","_id":6360383,"coord":{"lon":-6.78247,"lat":40.574879}},{"displayName":"Fuentes de Ropel, ES","country":"ES","name":"Fuentes de Ropel","_id":6362521,"coord":{"lon":-5.56885,"lat":42.0233}},{"displayName":"Fuentes de Ropel, ES","country":"ES","name":"Fuentes de Ropel","_id":3121838,"coord":{"lon":-5.54532,"lat":42.003769}},{"displayName":"Fuentes de Rubielos, ES","country":"ES","name":"Fuentes de Rubielos","_id":6361524,"coord":{"lon":-0.59947,"lat":40.165958}},{"displayName":"Fuentes de Rubielos, ES","country":"ES","name":"Fuentes de Rubielos","_id":3121837,"coord":{"lon":-0.61667,"lat":40.166672}},{"displayName":"Fuentes de Valdepero, ES","country":"ES","name":"Fuentes de Valdepero","_id":6360040,"coord":{"lon":-4.48822,"lat":42.061539}},{"displayName":"Fuentes de Valdepero, ES","country":"ES","name":"Fuentes de Valdepero","_id":3121835,"coord":{"lon":-4.5005,"lat":42.075321}},{"displayName":"Fuentes, AR","country":"AR","name":"Fuentes","_id":3855322,"coord":{"lon":-61.074329,"lat":-33.17252}},{"displayName":"Fuentes, ES","country":"ES","name":"Fuentes","_id":6357439,"coord":{"lon":-2.0134,"lat":39.940338}},{"displayName":"Fuentes, ES","country":"ES","name":"Fuentes","_id":2517505,"coord":{"lon":-2.01667,"lat":39.966671}},{"displayName":"Fuentesauco de Fuentiduena, ES","country":"ES","name":"Fuentesauco de Fuentiduena","_id":3121865,"coord":{"lon":-4.06215,"lat":41.42445}},{"displayName":"Fuentesauco, ES","country":"ES","name":"Fuentesauco","_id":3121867,"coord":{"lon":-5.49722,"lat":41.230431}},{"displayName":"Fuentesaúco de Fuentidueña, ES","country":"ES","name":"Fuentesaúco de Fuentidueña","_id":6360825,"coord":{"lon":-4.06135,"lat":41.429649}},{"displayName":"Fuentesaúco, ES","country":"ES","name":"Fuentesaúco","_id":6362520,"coord":{"lon":-5.50375,"lat":41.242001}},{"displayName":"Fuentesecas, ES","country":"ES","name":"Fuentesecas","_id":6362522,"coord":{"lon":-5.47931,"lat":41.628731}},{"displayName":"Fuentesecas, ES","country":"ES","name":"Fuentesecas","_id":3121834,"coord":{"lon":-5.47252,"lat":41.630772}},{"displayName":"Fuentesnuevas, ES","country":"ES","name":"Fuentesnuevas","_id":3121832,"coord":{"lon":-6.64039,"lat":42.574459}},{"displayName":"Fuentesoto, ES","country":"ES","name":"Fuentesoto","_id":6360826,"coord":{"lon":-3.90666,"lat":41.451191}},{"displayName":"Fuentesoto, ES","country":"ES","name":"Fuentesoto","_id":3121831,"coord":{"lon":-3.91835,"lat":41.456638}},{"displayName":"Fuentespalda, ES","country":"ES","name":"Fuentespalda","_id":6361525,"coord":{"lon":0.06766,"lat":40.820549}},{"displayName":"Fuentespalda, ES","country":"ES","name":"Fuentespalda","_id":3121830,"coord":{"lon":0.06517,"lat":40.80666}},{"displayName":"Fuentespina, ES","country":"ES","name":"Fuentespina","_id":6356442,"coord":{"lon":-3.68126,"lat":41.629681}},{"displayName":"Fuentespina, ES","country":"ES","name":"Fuentespina","_id":3121829,"coord":{"lon":-3.68475,"lat":41.630798}},{"displayName":"Fuentespreadas, ES","country":"ES","name":"Fuentespreadas","_id":6362523,"coord":{"lon":-5.62888,"lat":41.331108}},{"displayName":"Fuentespreadas, ES","country":"ES","name":"Fuentespreadas","_id":3121828,"coord":{"lon":-5.62798,"lat":41.326271}},{"displayName":"Fuentestrun, ES","country":"ES","name":"Fuentestrun","_id":3121826,"coord":{"lon":-2.08283,"lat":41.87466}},{"displayName":"Fuentestrún, ES","country":"ES","name":"Fuentestrún","_id":6361143,"coord":{"lon":-2.09369,"lat":41.862999}},{"displayName":"Fuentetoba, ES","country":"ES","name":"Fuentetoba","_id":3121824,"coord":{"lon":-2.56094,"lat":41.77636}},{"displayName":"Fuentiduena de Tajo, ES","country":"ES","name":"Fuentiduena de Tajo","_id":3121819,"coord":{"lon":-3.15718,"lat":40.115742}},{"displayName":"Fuentiduena, ES","country":"ES","name":"Fuentiduena","_id":3121820,"coord":{"lon":-3.97899,"lat":41.442261}},{"displayName":"Fuentidueña de Tajo, ES","country":"ES","name":"Fuentidueña de Tajo","_id":6359286,"coord":{"lon":-3.16454,"lat":40.11364}},{"displayName":"Fuentidueña, ES","country":"ES","name":"Fuentidueña","_id":6360827,"coord":{"lon":-3.98115,"lat":41.40287}},{"displayName":"Fuerstenfeldbruck, DE","country":"DE","name":"Fuerstenfeldbruck","_id":2923625,"coord":{"lon":11.25961,"lat":48.17524}},{"displayName":"Fuerte del Rey, ES","country":"ES","name":"Fuerte del Rey","_id":6358486,"coord":{"lon":-3.90649,"lat":37.909962}},{"displayName":"Fuerte del Rey, ES","country":"ES","name":"Fuerte del Rey","_id":2517482,"coord":{"lon":-3.88389,"lat":37.87492}},{"displayName":"Fuerte Kobbe, PA","country":"PA","name":"Fuerte Kobbe","_id":3709444,"coord":{"lon":-79.589172,"lat":8.91229}},{"displayName":"Fuerte Olimpo, PY","country":"PY","name":"Fuerte Olimpo","_id":3438102,"coord":{"lon":-57.873772,"lat":-21.041531}},{"displayName":"Fuerte, PH","country":"PH","name":"Fuerte","_id":1713558,"coord":{"lon":120.364441,"lat":17.538059}},{"displayName":"Fuertescusa, ES","country":"ES","name":"Fuertescusa","_id":3121818,"coord":{"lon":-2.1762,"lat":40.475521}},{"displayName":"Fuertescusa, ES","country":"ES","name":"Fuertescusa","_id":6357440,"coord":{"lon":-2.14394,"lat":40.457432}},{"displayName":"Fuerty, IE","country":"IE","name":"Fuerty","_id":2964204,"coord":{"lon":-8.26667,"lat":53.616669}},{"displayName":"Fuessen, DE","country":"DE","name":"Fuessen","_id":2923507,"coord":{"lon":10.70171,"lat":47.57143}},{"displayName":"Fueva (La), ES","country":"ES","name":"Fueva (La)","_id":6358345,"coord":{"lon":0.26747,"lat":42.37389}},{"displayName":"Fufeng, CN","country":"CN","name":"Fufeng","_id":1811044,"coord":{"lon":107.873482,"lat":34.3605}},{"displayName":"Fufín, ES","country":"ES","name":"Fufín","_id":3121816,"coord":{"lon":-7.83038,"lat":42.833981}},{"displayName":"Fugen, AT","country":"AT","name":"Fugen","_id":2779154,"coord":{"lon":11.85,"lat":47.349998}},{"displayName":"Fugenberg, AT","country":"AT","name":"Fugenberg","_id":2779153,"coord":{"lon":11.83333,"lat":47.349998}},{"displayName":"Fuglafjordur, FO","country":"FO","name":"Fuglafjordur","_id":2621808,"coord":{"lon":-6.81395,"lat":62.24398}},{"displayName":"Fuglebjerg, DK","country":"DK","name":"Fuglebjerg","_id":2621805,"coord":{"lon":11.54766,"lat":55.306042}},{"displayName":"Fugères, FR","country":"FR","name":"Fugères","_id":3016916,"coord":{"lon":3.94326,"lat":44.894741}},{"displayName":"Fugèreville, CA","country":"CA","name":"Fugèreville","_id":5958663,"coord":{"lon":-79.199654,"lat":47.40015}},{"displayName":"Fuhe, CN","country":"CN","name":"Fuhe","_id":7653980,"coord":{"lon":113.566452,"lat":31.509581}},{"displayName":"Fuhlendorf, DE","country":"DE","name":"Fuhlendorf","_id":6548114,"coord":{"lon":12.6,"lat":54.366699}},{"displayName":"Fuhlendorf, DE","country":"DE","name":"Fuhlendorf","_id":2923861,"coord":{"lon":12.60188,"lat":54.360481}},{"displayName":"Fuhlendorf, DE","country":"DE","name":"Fuhlendorf","_id":6552087,"coord":{"lon":9.88685,"lat":53.943661}},{"displayName":"Fuhlendorf, DE","country":"DE","name":"Fuhlendorf","_id":2923862,"coord":{"lon":9.88684,"lat":53.943661}},{"displayName":"Fuhlenhagen, DE","country":"DE","name":"Fuhlenhagen","_id":6551432,"coord":{"lon":10.5167,"lat":53.5667}},{"displayName":"Fuhlenhagen, DE","country":"DE","name":"Fuhlenhagen","_id":2923860,"coord":{"lon":10.51667,"lat":53.566669}},{"displayName":"Fuhlenrüe, DE","country":"DE","name":"Fuhlenrüe","_id":2923858,"coord":{"lon":10.01667,"lat":53.916672}},{"displayName":"Fuhlsbuettel, DE","country":"DE","name":"Fuhlsbuettel","_id":2923850,"coord":{"lon":10.01608,"lat":53.63459}},{"displayName":"Fuhrberg, DE","country":"DE","name":"Fuhrberg","_id":2923837,"coord":{"lon":9.85,"lat":52.566669}},{"displayName":"Fuhre, CH","country":"CH","name":"Fuhre","_id":2660705,"coord":{"lon":7.56667,"lat":46.48333}},{"displayName":"Fuig, PR","country":"PR","name":"Fuig","_id":4565031,"coord":{"lon":-66.916008,"lat":17.98774}},{"displayName":"Fuipiano Valle Imagna, IT","country":"IT","name":"Fuipiano Valle Imagna","_id":6534967,"coord":{"lon":9.52845,"lat":45.854279}},{"displayName":"Fuji, CN","country":"CN","name":"Fuji","_id":1811028,"coord":{"lon":105.373909,"lat":29.14819}},{"displayName":"Fuji, JP","country":"JP","name":"Fuji","_id":1864134,"coord":{"lon":138.683334,"lat":35.166672}},{"displayName":"Fujia, CN","country":"CN","name":"Fujia","_id":1810822,"coord":{"lon":105.953613,"lat":33.81889}},{"displayName":"Fujia, CN","country":"CN","name":"Fujia","_id":1908115,"coord":{"lon":106.689972,"lat":32.11718}},{"displayName":"Fujia, CN","country":"CN","name":"Fujia","_id":2037377,"coord":{"lon":123.811256,"lat":43.283741}},{"displayName":"Fujian Sheng, CN","country":"CN","name":"Fujian Sheng","_id":1811017,"coord":{"lon":117.842781,"lat":26.545}},{"displayName":"Fujiang, CN","country":"CN","name":"Fujiang","_id":7630157,"coord":{"lon":127.456383,"lat":46.032669}},{"displayName":"Fujieda, JP","country":"JP","name":"Fujieda","_id":1864132,"coord":{"lon":138.266663,"lat":34.866669}},{"displayName":"Fujikawaguchiko, JP","country":"JP","name":"Fujikawaguchiko","_id":7281819,"coord":{"lon":138.688324,"lat":35.48933}},{"displayName":"Fujin, CN","country":"CN","name":"Fujin","_id":2037375,"coord":{"lon":132.032227,"lat":47.259998}},{"displayName":"Fujino, JP","country":"JP","name":"Fujino","_id":1907157,"coord":{"lon":139.143066,"lat":35.606392}},{"displayName":"Fujinomiya, JP","country":"JP","name":"Fujinomiya","_id":1864105,"coord":{"lon":138.616669,"lat":35.216671}},{"displayName":"Fujioka, JP","country":"JP","name":"Fujioka","_id":1864098,"coord":{"lon":139.649994,"lat":36.25}},{"displayName":"Fujioka, JP","country":"JP","name":"Fujioka","_id":1864099,"coord":{"lon":139.083328,"lat":36.25}},{"displayName":"Fujisaki, JP","country":"JP","name":"Fujisaki","_id":2130337,"coord":{"lon":140.491394,"lat":40.650829}},{"displayName":"Fujisawa, JP","country":"JP","name":"Fujisawa","_id":1864092,"coord":{"lon":139.470001,"lat":35.341942}},{"displayName":"Fujishiro, JP","country":"JP","name":"Fujishiro","_id":2112940,"coord":{"lon":140.116669,"lat":35.916672}},{"displayName":"Fukagawa, JP","country":"JP","name":"Fukagawa","_id":2130332,"coord":{"lon":142.039169,"lat":43.708061}},{"displayName":"Fukaura, JP","country":"JP","name":"Fukaura","_id":2038800,"coord":{"lon":139.916672,"lat":40.633331}},{"displayName":"Fukaya, JP","country":"JP","name":"Fukaya","_id":1864031,"coord":{"lon":139.283325,"lat":36.200001}},{"displayName":"Fukiage, JP","country":"JP","name":"Fukiage","_id":1864025,"coord":{"lon":139.449997,"lat":36.099998}},{"displayName":"Fukien, TW","country":"TW","name":"Fukien","_id":7280288,"coord":{"lon":121.764221,"lat":24.68446}},{"displayName":"Fukou, CN","country":"CN","name":"Fukou","_id":1810997,"coord":{"lon":117.690269,"lat":26.449011}},{"displayName":"Fukuchiyama, JP","country":"JP","name":"Fukuchiyama","_id":1864009,"coord":{"lon":135.116669,"lat":35.299999}},{"displayName":"Fukue, JP","country":"JP","name":"Fukue","_id":1863997,"coord":{"lon":128.841934,"lat":32.688061}},{"displayName":"Fukui-ken, JP","country":"JP","name":"Fukui-ken","_id":1863983,"coord":{"lon":136.225174,"lat":35.850101}},{"displayName":"Fukui-shi, JP","country":"JP","name":"Fukui-shi","_id":1863985,"coord":{"lon":136.222565,"lat":36.06443}},{"displayName":"Fukuma, JP","country":"JP","name":"Fukuma","_id":1863978,"coord":{"lon":130.466675,"lat":33.76667}},{"displayName":"Fukumitsu, JP","country":"JP","name":"Fukumitsu","_id":1863973,"coord":{"lon":136.866669,"lat":36.549999}},{"displayName":"Fukuoka-ken, JP","country":"JP","name":"Fukuoka-ken","_id":1863958,"coord":{"lon":130.664719,"lat":33.52813}},{"displayName":"Fukuoka-shi, JP","country":"JP","name":"Fukuoka-shi","_id":1863967,"coord":{"lon":130.41806,"lat":33.606392}},{"displayName":"Fukura, JP","country":"JP","name":"Fukura","_id":1863953,"coord":{"lon":134.716675,"lat":34.25}},{"displayName":"Fukuroi, JP","country":"JP","name":"Fukuroi","_id":1863945,"coord":{"lon":137.916672,"lat":34.75}},{"displayName":"Fukushima-ken, JP","country":"JP","name":"Fukushima-ken","_id":2112922,"coord":{"lon":140.221985,"lat":37.38158}},{"displayName":"Fukushima-shi, JP","country":"JP","name":"Fukushima-shi","_id":2112923,"coord":{"lon":140.467773,"lat":37.75}},{"displayName":"Fukuyama, JP","country":"JP","name":"Fukuyama","_id":1863917,"coord":{"lon":133.366669,"lat":34.48333}},{"displayName":"Fulbourn, GB","country":"GB","name":"Fulbourn","_id":2649000,"coord":{"lon":0.22213,"lat":52.18325}},{"displayName":"Fulda, DE","country":"DE","name":"Fulda","_id":2923822,"coord":{"lon":9.67518,"lat":50.55162}},{"displayName":"Fulda, US","country":"US","name":"Fulda","_id":5027555,"coord":{"lon":-95.600288,"lat":43.870522}},{"displayName":"Fuldabruck, DE","country":"DE","name":"Fuldabruck","_id":2923820,"coord":{"lon":9.48333,"lat":51.26667}},{"displayName":"Fuldabrück, DE","country":"DE","name":"Fuldabrück","_id":6553265,"coord":{"lon":9.48333,"lat":51.266701}},{"displayName":"Fuldatal, DE","country":"DE","name":"Fuldatal","_id":6553266,"coord":{"lon":9.52557,"lat":51.348431}},{"displayName":"Fuldatal, DE","country":"DE","name":"Fuldatal","_id":2923815,"coord":{"lon":9.56667,"lat":51.383331}},{"displayName":"Fulenbach, CH","country":"CH","name":"Fulenbach","_id":2660703,"coord":{"lon":7.83344,"lat":47.27496}},{"displayName":"Fulford, GB","country":"GB","name":"Fulford","_id":2648998,"coord":{"lon":-1.06667,"lat":53.933331}},{"displayName":"Fulga de Sus, RO","country":"RO","name":"Fulga de Sus","_id":677845,"coord":{"lon":26.450001,"lat":44.900002}},{"displayName":"Fulham, AU","country":"AU","name":"Fulham","_id":2166034,"coord":{"lon":146.983337,"lat":-38.099998}},{"displayName":"Fuli, CN","country":"CN","name":"Fuli","_id":2037370,"coord":{"lon":131.139435,"lat":46.721668}},{"displayName":"Fuliang, CN","country":"CN","name":"Fuliang","_id":1810988,"coord":{"lon":117.246674,"lat":29.37639}},{"displayName":"Fuliangpengjie, CN","country":"CN","name":"Fuliangpengjie","_id":1810986,"coord":{"lon":102.08889,"lat":24.314951}},{"displayName":"Fuling, CN","country":"CN","name":"Fuling","_id":1810979,"coord":{"lon":107.391937,"lat":29.702221}},{"displayName":"Fuling, CN","country":"CN","name":"Fuling","_id":1810976,"coord":{"lon":118.727783,"lat":30.138611}},{"displayName":"Fuling, CN","country":"CN","name":"Fuling","_id":1810980,"coord":{"lon":118.641388,"lat":27.89472}},{"displayName":"Full, CH","country":"CH","name":"Full","_id":2660702,"coord":{"lon":8.2,"lat":47.583328}},{"displayName":"Fullarton, AU","country":"AU","name":"Fullarton","_id":7289886,"coord":{"lon":138.628998,"lat":-34.951}},{"displayName":"Fulleda, ES","country":"ES","name":"Fulleda","_id":6358845,"coord":{"lon":1.03804,"lat":41.457748}},{"displayName":"Fulleda, ES","country":"ES","name":"Fulleda","_id":3121813,"coord":{"lon":1.02395,"lat":41.463341}},{"displayName":"Fuller Heights, US","country":"US","name":"Fuller Heights","_id":4156367,"coord":{"lon":-81.998138,"lat":27.909189}},{"displayName":"Fullerton, AU","country":"AU","name":"Fullerton","_id":2166025,"coord":{"lon":149.550003,"lat":-34.23333}},{"displayName":"Fullerton, GB","country":"GB","name":"Fullerton","_id":2648995,"coord":{"lon":-1.4617,"lat":51.152431}},{"displayName":"Fullerton, US","country":"US","name":"Fullerton","_id":5351247,"coord":{"lon":-117.925339,"lat":33.870289}},{"displayName":"Fullerton, US","country":"US","name":"Fullerton","_id":5068818,"coord":{"lon":-97.969231,"lat":41.36335}},{"displayName":"Fullerton, US","country":"US","name":"Fullerton","_id":5190679,"coord":{"lon":-75.473244,"lat":40.63176}},{"displayName":"Fullinsdorf, CH","country":"CH","name":"Fullinsdorf","_id":2660701,"coord":{"lon":7.73129,"lat":47.506882}},{"displayName":"Fully, CH","country":"CH","name":"Fully","_id":7285878,"coord":{"lon":7.11185,"lat":46.157532}},{"displayName":"Fully, CH","country":"CH","name":"Fully","_id":2660700,"coord":{"lon":7.11468,"lat":46.138512}},{"displayName":"Fulnek, CZ","country":"CZ","name":"Fulnek","_id":3076116,"coord":{"lon":17.903191,"lat":49.712379}},{"displayName":"Fulong, CN","country":"CN","name":"Fulong","_id":1915735,"coord":{"lon":109.455338,"lat":19.32386}},{"displayName":"Fulong, CN","country":"CN","name":"Fulong","_id":7636862,"coord":{"lon":116.337517,"lat":29.66007}},{"displayName":"Fulopszallas, HU","country":"HU","name":"Fulopszallas","_id":3052500,"coord":{"lon":19.23748,"lat":46.820751}},{"displayName":"Fulpmes, AT","country":"AT","name":"Fulpmes","_id":7873605,"coord":{"lon":11.34691,"lat":47.138988}},{"displayName":"Fulpmes, AT","country":"AT","name":"Fulpmes","_id":2779143,"coord":{"lon":11.35,"lat":47.166672}},{"displayName":"Fulshear, US","country":"US","name":"Fulshear","_id":4692658,"coord":{"lon":-95.899681,"lat":29.68996}},{"displayName":"Fultenbach, DE","country":"DE","name":"Fultenbach","_id":2923790,"coord":{"lon":10.57554,"lat":48.49033}},{"displayName":"Fulton County, US","country":"US","name":"Fulton County","_id":4196508,"coord":{"lon":-84.449928,"lat":33.766769}},{"displayName":"Fulton County, US","country":"US","name":"Fulton County","_id":5118116,"coord":{"lon":-74.449577,"lat":43.116741}},{"displayName":"Fulton County, US","country":"US","name":"Fulton County","_id":4111857,"coord":{"lon":-91.833481,"lat":36.36673}},{"displayName":"Fulton County, US","country":"US","name":"Fulton County","_id":4920550,"coord":{"lon":-86.215828,"lat":41.064758}},{"displayName":"Fulton, CA","country":"CA","name":"Fulton","_id":5958726,"coord":{"lon":-98.376534,"lat":50.114719}},{"displayName":"Fulton, US","country":"US","name":"Fulton","_id":4156363,"coord":{"lon":-81.492867,"lat":30.38413}},{"displayName":"Fulton, US","country":"US","name":"Fulton","_id":5727859,"coord":{"lon":-118.749153,"lat":45.730412}},{"displayName":"Fulton, US","country":"US","name":"Fulton","_id":4292424,"coord":{"lon":-88.874229,"lat":36.50423}},{"displayName":"Fulton, US","country":"US","name":"Fulton","_id":4355809,"coord":{"lon":-76.923027,"lat":39.15094}},{"displayName":"Fulton, US","country":"US","name":"Fulton","_id":4387496,"coord":{"lon":-91.94796,"lat":38.84671}},{"displayName":"Fulton, US","country":"US","name":"Fulton","_id":4427345,"coord":{"lon":-88.40921,"lat":34.273991}},{"displayName":"Fulton, US","country":"US","name":"Fulton","_id":4692661,"coord":{"lon":-97.0411,"lat":28.061399}},{"displayName":"Fulton, US","country":"US","name":"Fulton","_id":4893309,"coord":{"lon":-90.159569,"lat":41.867249}},{"displayName":"Fulton, US","country":"US","name":"Fulton","_id":5118136,"coord":{"lon":-76.41716,"lat":43.322849}},{"displayName":"Fultondale, US","country":"US","name":"Fultondale","_id":4063570,"coord":{"lon":-86.793877,"lat":33.604832}},{"displayName":"Fumane, IT","country":"IT","name":"Fumane","_id":3176489,"coord":{"lon":10.88338,"lat":45.538288}},{"displayName":"Fumay, FR","country":"FR","name":"Fumay","_id":3016907,"coord":{"lon":4.70771,"lat":49.991322}},{"displayName":"Fumel, FR","country":"FR","name":"Fumel","_id":6434955,"coord":{"lon":0.96667,"lat":44.5}},{"displayName":"Fumel, FR","country":"FR","name":"Fumel","_id":3016903,"coord":{"lon":0.96506,"lat":44.498619}},{"displayName":"Fumichon, FR","country":"FR","name":"Fumichon","_id":6427236,"coord":{"lon":0.36667,"lat":49.166672}},{"displayName":"Fumichon, FR","country":"FR","name":"Fumichon","_id":3016902,"coord":{"lon":0.37133,"lat":49.173241}},{"displayName":"Fumin, CN","country":"CN","name":"Fumin","_id":7685373,"coord":{"lon":115.211227,"lat":27.572969}},{"displayName":"Fumina South, AU","country":"AU","name":"Fumina South","_id":2166016,"coord":{"lon":146.116669,"lat":-37.950001}},{"displayName":"Fumina, AU","country":"AU","name":"Fumina","_id":2166017,"coord":{"lon":146.100006,"lat":-37.883331}},{"displayName":"Fuming, CN","country":"CN","name":"Fuming","_id":1887068,"coord":{"lon":121.60186,"lat":29.873159}},{"displayName":"Fumone, IT","country":"IT","name":"Fumone","_id":3176486,"coord":{"lon":13.2725,"lat":41.72752}},{"displayName":"Funabashi, JP","country":"JP","name":"Funabashi","_id":1863905,"coord":{"lon":139.983337,"lat":35.693062}},{"displayName":"Funadhoo, MV","country":"MV","name":"Funadhoo","_id":1337620,"coord":{"lon":73.26667,"lat":6.15}},{"displayName":"Funadomari, JP","country":"JP","name":"Funadomari","_id":2130316,"coord":{"lon":141.039719,"lat":45.436939}},{"displayName":"Funafuti, TV","country":"TV","name":"Funafuti","_id":2110384,"coord":{"lon":179.130539,"lat":-8.51719}},{"displayName":"Funafuti, TV","country":"TV","name":"Funafuti","_id":2110394,"coord":{"lon":179.194168,"lat":-8.52425}},{"displayName":"Funagata, JP","country":"JP","name":"Funagata","_id":2112917,"coord":{"lon":140.319443,"lat":38.688889}},{"displayName":"Funaishikawa, JP","country":"JP","name":"Funaishikawa","_id":2112913,"coord":{"lon":140.566666,"lat":36.466671}},{"displayName":"Funan Chengguanzhen, CN","country":"CN","name":"Funan Chengguanzhen","_id":1788005,"coord":{"lon":115.614937,"lat":32.63678}},{"displayName":"Funan, CN","country":"CN","name":"Funan","_id":2037364,"coord":{"lon":123.883331,"lat":41.700001}},{"displayName":"Funato, JP","country":"JP","name":"Funato","_id":1863866,"coord":{"lon":135.316666,"lat":34.25}},{"displayName":"Funchal, PT","country":"PT","name":"Funchal","_id":2267827,"coord":{"lon":-16.9,"lat":32.633331}},{"displayName":"Fundacion, CO","country":"CO","name":"Fundacion","_id":3682292,"coord":{"lon":-74.185043,"lat":10.52066}},{"displayName":"Fundacion, DO","country":"DO","name":"Fundacion","_id":3505612,"coord":{"lon":-71.181473,"lat":18.28668}},{"displayName":"Fundada, PT","country":"PT","name":"Fundada","_id":8011753,"coord":{"lon":-8.15745,"lat":39.72781}},{"displayName":"Fundada, PT","country":"PT","name":"Fundada","_id":2267813,"coord":{"lon":-8.14477,"lat":39.720779}},{"displayName":"Fundao, BR","country":"BR","name":"Fundao","_id":3462882,"coord":{"lon":-40.404732,"lat":-19.93408}},{"displayName":"Fundao, PT","country":"PT","name":"Fundao","_id":2739187,"coord":{"lon":-7.50135,"lat":40.140251}},{"displayName":"Fundeni, RO","country":"RO","name":"Fundeni","_id":677808,"coord":{"lon":27.533331,"lat":45.533329}},{"displayName":"Fundeni, RO","country":"RO","name":"Fundeni","_id":677812,"coord":{"lon":26.35,"lat":44.383331}},{"displayName":"Fundo de Vila, PT","country":"PT","name":"Fundo de Vila","_id":2739176,"coord":{"lon":-7.76549,"lat":41.131802}},{"displayName":"Fundoais, PT","country":"PT","name":"Fundoais","_id":2739183,"coord":{"lon":-8.05961,"lat":41.070679}},{"displayName":"Fundong, CM","country":"CM","name":"Fundong","_id":2231482,"coord":{"lon":10.26667,"lat":6.25}},{"displayName":"Fundu Moldovei, RO","country":"RO","name":"Fundu Moldovei","_id":677788,"coord":{"lon":25.4,"lat":47.533329}},{"displayName":"Fundulea, RO","country":"RO","name":"Fundulea","_id":677790,"coord":{"lon":26.51667,"lat":44.466671}},{"displayName":"Fundão, PT","country":"PT","name":"Fundão","_id":2739186,"coord":{"lon":-7.49542,"lat":40.124119}},{"displayName":"Fundão, PT","country":"PT","name":"Fundão","_id":8011694,"coord":{"lon":-7.49594,"lat":40.155182}},{"displayName":"Funehiki, JP","country":"JP","name":"Funehiki","_id":2112903,"coord":{"lon":140.583328,"lat":37.433331}},{"displayName":"Funes - Villnoess, IT","country":"IT","name":"Funes - Villnoess","_id":6534780,"coord":{"lon":11.67828,"lat":46.642818}},{"displayName":"Funes, AR","country":"AR","name":"Funes","_id":3855302,"coord":{"lon":-60.809952,"lat":-32.91568}},{"displayName":"Funes, CO","country":"CO","name":"Funes","_id":3682283,"coord":{"lon":-77.450668,"lat":1.00266}},{"displayName":"Funes, ES","country":"ES","name":"Funes","_id":6359655,"coord":{"lon":-1.7912,"lat":42.29147}},{"displayName":"Funes, ES","country":"ES","name":"Funes","_id":3121806,"coord":{"lon":-1.80017,"lat":42.31562}},{"displayName":"Funfstetten, DE","country":"DE","name":"Funfstetten","_id":2923753,"coord":{"lon":10.76667,"lat":48.816669}},{"displayName":"Funga, ID","country":"ID","name":"Funga","_id":7426525,"coord":{"lon":121.987801,"lat":-8.6687}},{"displayName":"Funtiki, RU","country":"RU","name":"Funtiki","_id":1506757,"coord":{"lon":83.026108,"lat":52.78389}},{"displayName":"Funtua, NG","country":"NG","name":"Funtua","_id":2342490,"coord":{"lon":7.30813,"lat":11.52325}},{"displayName":"Funtão de Cima, PT","country":"PT","name":"Funtão de Cima","_id":2739169,"coord":{"lon":-8.26902,"lat":41.131771}},{"displayName":"Funza, CO","country":"CO","name":"Funza","_id":3682281,"coord":{"lon":-74.211952,"lat":4.71638}},{"displayName":"Fuqiao, CN","country":"CN","name":"Fuqiao","_id":1810943,"coord":{"lon":121.201668,"lat":31.605}},{"displayName":"Fuqing, CN","country":"CN","name":"Fuqing","_id":1797120,"coord":{"lon":119.37944,"lat":25.725}},{"displayName":"Fuquay-Varina, US","country":"US","name":"Fuquay-Varina","_id":4467485,"coord":{"lon":-78.800011,"lat":35.58432}},{"displayName":"Furadouro, PT","country":"PT","name":"Furadouro","_id":8011816,"coord":{"lon":-8.5058,"lat":40.066029}},{"displayName":"Furadouro, PT","country":"PT","name":"Furadouro","_id":2739167,"coord":{"lon":-8.49587,"lat":40.06876}},{"displayName":"Furaj, RO","country":"RO","name":"Furaj","_id":677776,"coord":{"lon":26.1,"lat":44.433331}},{"displayName":"Furao, PH","country":"PH","name":"Furao","_id":1713523,"coord":{"lon":121.798141,"lat":17.032949}},{"displayName":"Furbogh, IE","country":"IE","name":"Furbogh","_id":3312222,"coord":{"lon":-9.21495,"lat":53.249401}},{"displayName":"Furci Siculo, IT","country":"IT","name":"Furci Siculo","_id":2524694,"coord":{"lon":15.37939,"lat":37.960361}},{"displayName":"Furci, IT","country":"IT","name":"Furci","_id":3176474,"coord":{"lon":14.58762,"lat":42.009441}},{"displayName":"Furdenheim, FR","country":"FR","name":"Furdenheim","_id":3016894,"coord":{"lon":7.561,"lat":48.61129}},{"displayName":"Furen, CH","country":"CH","name":"Furen","_id":6294429,"coord":{"lon":8.67264,"lat":47.368019}},{"displayName":"Furesø Kommune, DK","country":"DK","name":"Furesø Kommune","_id":6543927,"coord":{"lon":12.34167,"lat":55.783329}},{"displayName":"Furfeld, DE","country":"DE","name":"Furfeld","_id":2923706,"coord":{"lon":7.9,"lat":49.783329}},{"displayName":"Furiani, FR","country":"FR","name":"Furiani","_id":3016890,"coord":{"lon":9.41469,"lat":42.658138}},{"displayName":"Furmanov, RU","country":"RU","name":"Furmanov","_id":562309,"coord":{"lon":41.105831,"lat":57.250832}},{"displayName":"Furnace Green, GB","country":"GB","name":"Furnace Green","_id":6621542,"coord":{"lon":-0.16889,"lat":51.107422}},{"displayName":"Furnari, IT","country":"IT","name":"Furnari","_id":6535321,"coord":{"lon":15.12358,"lat":38.104359}},{"displayName":"Furnas, BR","country":"BR","name":"Furnas","_id":3399245,"coord":{"lon":-35.783329,"lat":-5.76667}},{"displayName":"Furnas, PT","country":"PT","name":"Furnas","_id":3373025,"coord":{"lon":-25.31035,"lat":37.775669}},{"displayName":"Furner, AU","country":"AU","name":"Furner","_id":2166008,"coord":{"lon":140.333328,"lat":-37.416672}},{"displayName":"Furongdun, CN","country":"CN","name":"Furongdun","_id":7636882,"coord":{"lon":116.493217,"lat":29.85943}},{"displayName":"Furongqiao, CN","country":"CN","name":"Furongqiao","_id":1941119,"coord":{"lon":110.300011,"lat":29.514351}},{"displayName":"Furore, IT","country":"IT","name":"Furore","_id":3176472,"coord":{"lon":14.54904,"lat":40.620609}},{"displayName":"Furqlus, SY","country":"SY","name":"Furqlus","_id":170340,"coord":{"lon":37.087448,"lat":34.60638}},{"displayName":"Furracabad, AU","country":"AU","name":"Furracabad","_id":2166006,"coord":{"lon":151.666672,"lat":-29.783331}},{"displayName":"Furstenau, DE","country":"DE","name":"Furstenau","_id":2923658,"coord":{"lon":7.71667,"lat":52.51667}},{"displayName":"Furstenberg, DE","country":"DE","name":"Furstenberg","_id":2923637,"coord":{"lon":13.15,"lat":53.183331}},{"displayName":"Furstenberg, DE","country":"DE","name":"Furstenberg","_id":2923638,"coord":{"lon":9.4,"lat":51.73333}},{"displayName":"Fursteneck, DE","country":"DE","name":"Fursteneck","_id":2923626,"coord":{"lon":13.46667,"lat":48.716671}},{"displayName":"Furstenfeld, AT","country":"AT","name":"Furstenfeld","_id":2779115,"coord":{"lon":16.08333,"lat":47.049999}},{"displayName":"Furstenstein, DE","country":"DE","name":"Furstenstein","_id":2923595,"coord":{"lon":13.33333,"lat":48.716671}},{"displayName":"Furstenwalde, DE","country":"DE","name":"Furstenwalde","_id":2923588,"coord":{"lon":14.06667,"lat":52.366669}},{"displayName":"Furstenzell, DE","country":"DE","name":"Furstenzell","_id":2923584,"coord":{"lon":13.31667,"lat":48.533329}},{"displayName":"Furtei, IT","country":"IT","name":"Furtei","_id":2524692,"coord":{"lon":8.94861,"lat":39.563061}},{"displayName":"Furth an der Triesting, AT","country":"AT","name":"Furth an der Triesting","_id":7872836,"coord":{"lon":15.95128,"lat":47.971008}},{"displayName":"Furth an der Triesting, AT","country":"AT","name":"Furth an der Triesting","_id":2779094,"coord":{"lon":15.97326,"lat":47.973259}},{"displayName":"Furth im Wald, DE","country":"DE","name":"Furth im Wald","_id":2923529,"coord":{"lon":12.84,"lat":49.309719}},{"displayName":"Furth, DE","country":"DE","name":"Furth","_id":2923540,"coord":{"lon":6.85,"lat":51.200001}},{"displayName":"Furth, DE","country":"DE","name":"Furth","_id":2923544,"coord":{"lon":10.98856,"lat":49.475929}},{"displayName":"Furth, DE","country":"DE","name":"Furth","_id":2923543,"coord":{"lon":8.78472,"lat":49.650829}},{"displayName":"Furth, DE","country":"DE","name":"Furth","_id":6556505,"coord":{"lon":12.0333,"lat":48.599998}},{"displayName":"Furth, DE","country":"DE","name":"Furth","_id":2923549,"coord":{"lon":12.03333,"lat":48.599998}},{"displayName":"Furth, DE","country":"DE","name":"Furth","_id":2923553,"coord":{"lon":12.38333,"lat":48.400002}},{"displayName":"Furthen, DE","country":"DE","name":"Furthen","_id":2923534,"coord":{"lon":7.66667,"lat":50.783329}},{"displayName":"Furtwangen im Schwarzwald, DE","country":"DE","name":"Furtwangen im Schwarzwald","_id":2923521,"coord":{"lon":8.2,"lat":48.049999}},{"displayName":"Furugen, JP","country":"JP","name":"Furugen","_id":1863837,"coord":{"lon":127.751106,"lat":26.368589}},{"displayName":"Furuichi, JP","country":"JP","name":"Furuichi","_id":1863834,"coord":{"lon":132.466675,"lat":34.450001}},{"displayName":"Furuichi, JP","country":"JP","name":"Furuichi","_id":1863836,"coord":{"lon":131.716675,"lat":33.48333}},{"displayName":"Furukawa, JP","country":"JP","name":"Furukawa","_id":2112899,"coord":{"lon":140.955566,"lat":38.571671}},{"displayName":"Furukawabashi, JP","country":"JP","name":"Furukawabashi","_id":1863822,"coord":{"lon":135.600006,"lat":34.73333}},{"displayName":"Furulund, SE","country":"SE","name":"Furulund","_id":2713385,"coord":{"lon":12.13333,"lat":57.716671}},{"displayName":"Fusa, JP","country":"JP","name":"Fusa","_id":2112892,"coord":{"lon":140.133331,"lat":35.849998}},{"displayName":"Fusagasuga, CO","country":"CO","name":"Fusagasuga","_id":3682274,"coord":{"lon":-74.363777,"lat":4.33646}},{"displayName":"Fuscaldo, IT","country":"IT","name":"Fuscaldo","_id":2524691,"coord":{"lon":16.029791,"lat":39.414291}},{"displayName":"Fuschl am See, AT","country":"AT","name":"Fuschl am See","_id":7872206,"coord":{"lon":13.30735,"lat":47.7948}},{"displayName":"Fuschl am See, AT","country":"AT","name":"Fuschl am See","_id":2779084,"coord":{"lon":13.3,"lat":47.799999}},{"displayName":"Fuseta, PT","country":"PT","name":"Fuseta","_id":8012016,"coord":{"lon":-7.74599,"lat":37.04892}},{"displayName":"Fushan, CN","country":"CN","name":"Fushan","_id":1810920,"coord":{"lon":121.258057,"lat":37.495831}},{"displayName":"Fushan, CN","country":"CN","name":"Fushan","_id":1810926,"coord":{"lon":115.853142,"lat":28.515471}},{"displayName":"Fushan, CN","country":"CN","name":"Fushan","_id":1810927,"coord":{"lon":116.888283,"lat":23.85762}},{"displayName":"Fushan, CN","country":"CN","name":"Fushan","_id":1810928,"coord":{"lon":109.926247,"lat":19.836109}},{"displayName":"Fushan, CN","country":"CN","name":"Fushan","_id":7071797,"coord":{"lon":120.55912,"lat":29.998199}},{"displayName":"Fushan, CN","country":"CN","name":"Fushan","_id":7741547,"coord":{"lon":114.31131,"lat":29.866301}},{"displayName":"Fushanzhuang, CN","country":"CN","name":"Fushanzhuang","_id":1810915,"coord":{"lon":112.625557,"lat":39.246941}},{"displayName":"Fushe-Arrez, AL","country":"AL","name":"Fushe-Arrez","_id":783214,"coord":{"lon":20.01667,"lat":42.062222}},{"displayName":"Fushe-Kruje, AL","country":"AL","name":"Fushe-Kruje","_id":3185638,"coord":{"lon":19.717779,"lat":41.478329}},{"displayName":"Fusheng, CN","country":"CN","name":"Fusheng","_id":1919007,"coord":{"lon":120.720093,"lat":29.963249}},{"displayName":"Fushi, CN","country":"CN","name":"Fushi","_id":1811022,"coord":{"lon":105.001137,"lat":29.183821}},{"displayName":"Fushimi, JP","country":"JP","name":"Fushimi","_id":1863788,"coord":{"lon":135.761322,"lat":34.935551}},{"displayName":"Fushui, CN","country":"CN","name":"Fushui","_id":1810906,"coord":{"lon":113.692009,"lat":31.33604}},{"displayName":"Fushui, CN","country":"CN","name":"Fushui","_id":1810909,"coord":{"lon":109.953819,"lat":34.546829}},{"displayName":"Fushun, CN","country":"CN","name":"Fushun","_id":2037355,"coord":{"lon":123.923332,"lat":41.855831}},{"displayName":"Fusignano, IT","country":"IT","name":"Fusignano","_id":6536752,"coord":{"lon":11.95713,"lat":44.465069}},{"displayName":"Fusignano, IT","country":"IT","name":"Fusignano","_id":3176467,"coord":{"lon":11.95713,"lat":44.465069}},{"displayName":"Fusilier Mobile Home Estates, US","country":"US","name":"Fusilier Mobile Home Estates","_id":7707955,"coord":{"lon":-92.120811,"lat":30.079281}},{"displayName":"Fusine, IT","country":"IT","name":"Fusine","_id":3176464,"coord":{"lon":9.74975,"lat":46.14949}},{"displayName":"Fusong, CN","country":"CN","name":"Fusong","_id":2037351,"coord":{"lon":127.272652,"lat":42.32505}},{"displayName":"Fussa, JP","country":"JP","name":"Fussa","_id":1907148,"coord":{"lon":139.323608,"lat":35.736671}},{"displayName":"Fussach, AT","country":"AT","name":"Fussach","_id":2779082,"coord":{"lon":9.66278,"lat":47.479328}},{"displayName":"Fussels Corner, US","country":"US","name":"Fussels Corner","_id":4156370,"coord":{"lon":-81.860641,"lat":28.05419}},{"displayName":"Fussgonheim, DE","country":"DE","name":"Fussgonheim","_id":2923503,"coord":{"lon":8.29222,"lat":49.461109}},{"displayName":"Fussingen, DE","country":"DE","name":"Fussingen","_id":2923499,"coord":{"lon":8.11667,"lat":50.51667}},{"displayName":"Fussy, FR","country":"FR","name":"Fussy","_id":3016882,"coord":{"lon":2.42953,"lat":47.143719}},{"displayName":"Fustinana, ES","country":"ES","name":"Fustinana","_id":3121796,"coord":{"lon":-1.48526,"lat":42.02087}},{"displayName":"Fustiñana, ES","country":"ES","name":"Fustiñana","_id":6359656,"coord":{"lon":-1.45476,"lat":42.021729}},{"displayName":"Futaleufu, CL","country":"CL","name":"Futaleufu","_id":3889223,"coord":{"lon":-71.848328,"lat":-43.1675}},{"displayName":"Futan, CN","country":"CN","name":"Futan","_id":1912837,"coord":{"lon":115.150337,"lat":26.991249}},{"displayName":"Futang, CN","country":"CN","name":"Futang","_id":1810899,"coord":{"lon":112.092041,"lat":24.417061}},{"displayName":"Futang, CN","country":"CN","name":"Futang","_id":6422854,"coord":{"lon":111.599442,"lat":25.558889}},{"displayName":"Futani, IT","country":"IT","name":"Futani","_id":3176456,"coord":{"lon":15.32316,"lat":40.1507}},{"displayName":"Futian, CN","country":"CN","name":"Futian","_id":1798446,"coord":{"lon":114.958923,"lat":29.268299}},{"displayName":"Futian, CN","country":"CN","name":"Futian","_id":1810894,"coord":{"lon":114.927101,"lat":27.42897}},{"displayName":"Futian, CN","country":"CN","name":"Futian","_id":1810895,"coord":{"lon":115.249458,"lat":26.82247}},{"displayName":"Futian, CN","country":"CN","name":"Futian","_id":1810897,"coord":{"lon":113.964249,"lat":23.21608}},{"displayName":"Futrono, CL","country":"CL","name":"Futrono","_id":3889221,"coord":{"lon":-72.400002,"lat":-40.133331}},{"displayName":"Futterkamp, DE","country":"DE","name":"Futterkamp","_id":2923491,"coord":{"lon":10.65,"lat":54.283329}},{"displayName":"Futto, JP","country":"JP","name":"Futto","_id":2112874,"coord":{"lon":140.366669,"lat":35.966671}},{"displayName":"Futtsu, JP","country":"JP","name":"Futtsu","_id":1863713,"coord":{"lon":139.818604,"lat":35.305279}},{"displayName":"Futu, CN","country":"CN","name":"Futu","_id":7745071,"coord":{"lon":115.082199,"lat":29.904779}},{"displayName":"Futun, CN","country":"CN","name":"Futun","_id":2053835,"coord":{"lon":121.782501,"lat":41.630001}},{"displayName":"Future City, US","country":"US","name":"Future City","_id":4292454,"coord":{"lon":-88.80172,"lat":37.06255}},{"displayName":"Fuveau, FR","country":"FR","name":"Fuveau","_id":3016878,"coord":{"lon":5.56149,"lat":43.45578}},{"displayName":"Fuwah, EG","country":"EG","name":"Fuwah","_id":356806,"coord":{"lon":30.55018,"lat":31.202909}},{"displayName":"Fuwayrit, QA","country":"QA","name":"Fuwayrit","_id":406787,"coord":{"lon":51.36694,"lat":26.021669}},{"displayName":"Fuwen, CN","country":"CN","name":"Fuwen","_id":7638765,"coord":{"lon":110.255402,"lat":19.551371}},{"displayName":"Fuxi, CN","country":"CN","name":"Fuxi","_id":1810879,"coord":{"lon":113.85463,"lat":25.22191}},{"displayName":"Fuxin, CN","country":"CN","name":"Fuxin","_id":2037346,"coord":{"lon":121.65889,"lat":42.01556}},{"displayName":"Fuxin, CN","country":"CN","name":"Fuxin","_id":2037345,"coord":{"lon":121.745003,"lat":42.058891}},{"displayName":"Fuxing, CN","country":"CN","name":"Fuxing","_id":1788957,"coord":{"lon":115.717308,"lat":24.14455}},{"displayName":"Fuxing, CN","country":"CN","name":"Fuxing","_id":1810869,"coord":{"lon":116.414223,"lat":29.9056}},{"displayName":"Fuxing, CN","country":"CN","name":"Fuxing","_id":6676601,"coord":{"lon":115.720207,"lat":24.12711}},{"displayName":"Fuxingchang, CN","country":"CN","name":"Fuxingchang","_id":1928081,"coord":{"lon":111.845596,"lat":29.834379}},{"displayName":"Fuxingcun, TW","country":"TW","name":"Fuxingcun","_id":1676453,"coord":{"lon":119.949997,"lat":26.16667}},{"displayName":"Fuya, CN","country":"CN","name":"Fuya","_id":7372888,"coord":{"lon":105.273331,"lat":33.437801}},{"displayName":"Fuyang Shi, CN","country":"CN","name":"Fuyang Shi","_id":1810843,"coord":{"lon":115.707779,"lat":32.93718}},{"displayName":"Fuyang, CN","country":"CN","name":"Fuyang","_id":1810845,"coord":{"lon":115.816673,"lat":32.900002}},{"displayName":"Fuyang, CN","country":"CN","name":"Fuyang","_id":1810846,"coord":{"lon":119.951942,"lat":30.053329}},{"displayName":"Fuyang, CN","country":"CN","name":"Fuyang","_id":1810848,"coord":{"lon":111.258018,"lat":24.83441}},{"displayName":"Fuyang, CN","country":"CN","name":"Fuyang","_id":1810849,"coord":{"lon":116.59507,"lat":23.57863}},{"displayName":"Fuyens, CH","country":"CH","name":"Fuyens","_id":7670176,"coord":{"lon":6.97283,"lat":46.71529}},{"displayName":"Fuyo, KR","country":"KR","name":"Fuyo","_id":1838508,"coord":{"lon":126.912498,"lat":36.28194}},{"displayName":"Fuyu, CN","country":"CN","name":"Fuyu","_id":2037334,"coord":{"lon":124.449997,"lat":47.783329}},{"displayName":"Fuyu, CN","country":"CN","name":"Fuyu","_id":2037335,"coord":{"lon":124.816673,"lat":45.183331}},{"displayName":"Fuyu, CN","country":"CN","name":"Fuyu","_id":1793761,"coord":{"lon":116.116669,"lat":30.15}},{"displayName":"Fuyuan, CN","country":"CN","name":"Fuyuan","_id":2037330,"coord":{"lon":134.289169,"lat":48.36306}},{"displayName":"Fuyuan, CN","country":"CN","name":"Fuyuan","_id":2037331,"coord":{"lon":127.083328,"lat":46.433331}},{"displayName":"Fuyuan, CN","country":"CN","name":"Fuyuan","_id":7690156,"coord":{"lon":114.326187,"lat":28.73847}},{"displayName":"Fuzesabony, HU","country":"HU","name":"Fuzesabony","_id":720687,"coord":{"lon":20.41667,"lat":47.75}},{"displayName":"Fuzesgyarmat, HU","country":"HU","name":"Fuzesgyarmat","_id":720679,"coord":{"lon":21.216669,"lat":47.099998}},{"displayName":"Fuzeta, PT","country":"PT","name":"Fuzeta","_id":2267792,"coord":{"lon":-7.74699,"lat":37.054291}},{"displayName":"Fuzhai, CN","country":"CN","name":"Fuzhai","_id":1999301,"coord":{"lon":108.522217,"lat":34.253891}},{"displayName":"Fuzhiping, CN","country":"CN","name":"Fuzhiping","_id":1928212,"coord":{"lon":109.923332,"lat":28.895559}},{"displayName":"Fuzhou, CN","country":"CN","name":"Fuzhou","_id":1810821,"coord":{"lon":119.306107,"lat":26.06139}},{"displayName":"Fuzhuang, CN","country":"CN","name":"Fuzhuang","_id":1810808,"coord":{"lon":117.934441,"lat":39.266109}},{"displayName":"Fuzhuang, CN","country":"CN","name":"Fuzhuang","_id":1909488,"coord":{"lon":113.47892,"lat":32.958679}},{"displayName":"Fuzihe, CN","country":"CN","name":"Fuzihe","_id":7757659,"coord":{"lon":115.024551,"lat":30.958191}},{"displayName":"Fußach, AT","country":"AT","name":"Fußach","_id":7873732,"coord":{"lon":9.65103,"lat":47.488819}},{"displayName":"Fußgönheim, DE","country":"DE","name":"Fußgönheim","_id":6555239,"coord":{"lon":8.29222,"lat":49.461102}},{"displayName":"Fužine, HR","country":"HR","name":"Fužine","_id":3200799,"coord":{"lon":14.71556,"lat":45.305279}},{"displayName":"Fyansford, AU","country":"AU","name":"Fyansford","_id":2165997,"coord":{"lon":144.316666,"lat":-38.133331}},{"displayName":"Fyffe, US","country":"US","name":"Fyffe","_id":4063613,"coord":{"lon":-85.904137,"lat":34.446758}},{"displayName":"Fyfield, GB","country":"GB","name":"Fyfield","_id":2648972,"coord":{"lon":-1.78333,"lat":51.416672}},{"displayName":"Fylde District, GB","country":"GB","name":"Fylde District","_id":7290578,"coord":{"lon":-2.92633,"lat":53.793079}},{"displayName":"Fylde, GB","country":"GB","name":"Fylde","_id":2648970,"coord":{"lon":-2.91667,"lat":53.833328}},{"displayName":"Fyli, GR","country":"GR","name":"Fyli","_id":262426,"coord":{"lon":23.66667,"lat":38.099998}},{"displayName":"Fyllinge, SE","country":"SE","name":"Fyllinge","_id":2713350,"coord":{"lon":12.91667,"lat":56.650002}},{"displayName":"Fyshwick, AU","country":"AU","name":"Fyshwick","_id":2165995,"coord":{"lon":149.166672,"lat":-35.333328}},{"displayName":"Fyzabad, TT","country":"TT","name":"Fyzabad","_id":3574536,"coord":{"lon":-61.549999,"lat":10.18333}},{"displayName":"Fátima, AR","country":"AR","name":"Fátima","_id":3433964,"coord":{"lon":-58.986549,"lat":-34.43903}},{"displayName":"Fátima, BR","country":"BR","name":"Fátima","_id":3463590,"coord":{"lon":-38.216671,"lat":-10.6}},{"displayName":"Fânzeres, PT","country":"PT","name":"Fânzeres","_id":8012710,"coord":{"lon":-8.53116,"lat":41.17128}},{"displayName":"Fährhof, DE","country":"DE","name":"Fährhof","_id":3208196,"coord":{"lon":9.23333,"lat":53.083328}},{"displayName":"Fällanden, CH","country":"CH","name":"Fällanden","_id":7285794,"coord":{"lon":8.63558,"lat":47.369518}},{"displayName":"Färjenäs, SE","country":"SE","name":"Färjenäs","_id":2715329,"coord":{"lon":11.90639,"lat":57.697498}},{"displayName":"Fère-Champenoise, FR","country":"FR","name":"Fère-Champenoise","_id":6435814,"coord":{"lon":3.98333,"lat":48.75}},{"displayName":"Fès al Bali, MA","country":"MA","name":"Fès al Bali","_id":2548881,"coord":{"lon":-5.12505,"lat":34.547749}},{"displayName":"Fès al Bali, MA","country":"MA","name":"Fès al Bali","_id":2548880,"coord":{"lon":-4.95473,"lat":34.070099}},{"displayName":"Féas, FR","country":"FR","name":"Féas","_id":6440382,"coord":{"lon":-0.6886,"lat":43.155899}},{"displayName":"Féas, FR","country":"FR","name":"Féas","_id":3018796,"coord":{"lon":-0.68333,"lat":43.166672}},{"displayName":"Fécamp, FR","country":"FR","name":"Fécamp","_id":6454689,"coord":{"lon":0.36667,"lat":49.75}},{"displayName":"Félix, ES","country":"ES","name":"Félix","_id":2517748,"coord":{"lon":-2.65845,"lat":36.86911}},{"displayName":"Férez, ES","country":"ES","name":"Férez","_id":6355323,"coord":{"lon":-1.94759,"lat":38.382702}},{"displayName":"Féroussac, FR","country":"FR","name":"Féroussac","_id":3018673,"coord":{"lon":3.67561,"lat":45.406181}},{"displayName":"Fênix, BR","country":"BR","name":"Fênix","_id":3463444,"coord":{"lon":-51.979172,"lat":-23.916109}},{"displayName":"Fëdorovka, RU","country":"RU","name":"Fëdorovka","_id":563150,"coord":{"lon":38.598331,"lat":54.678333}},{"displayName":"Fëdorovskaya, RU","country":"RU","name":"Fëdorovskaya","_id":563105,"coord":{"lon":43.533333,"lat":60.200001}},{"displayName":"Fëdorovskiy, RU","country":"RU","name":"Fëdorovskiy","_id":563095,"coord":{"lon":40.951668,"lat":45.097221}},{"displayName":"Fëdorovskoye, RU","country":"RU","name":"Fëdorovskoye","_id":563076,"coord":{"lon":38.866669,"lat":56.116669}},{"displayName":"Fëdorovskoye, RU","country":"RU","name":"Fëdorovskoye","_id":563074,"coord":{"lon":37.666668,"lat":56.316666}},{"displayName":"Fëdorovskoye, RU","country":"RU","name":"Fëdorovskoye","_id":563075,"coord":{"lon":38.066666,"lat":56.133331}},{"displayName":"Fëdorovskoye, RU","country":"RU","name":"Fëdorovskoye","_id":563060,"coord":{"lon":44.25,"lat":58.116669}},{"displayName":"Fëdorovskoye, RU","country":"RU","name":"Fëdorovskoye","_id":563058,"coord":{"lon":42.538891,"lat":58.822224}},{"displayName":"Fëdortsev, RU","country":"RU","name":"Fëdortsev","_id":563051,"coord":{"lon":40.2925,"lat":48.231388}},{"displayName":"Fîrlădeni, MD","country":"MD","name":"Fîrlădeni","_id":618312,"coord":{"lon":28.6875,"lat":46.787498}},{"displayName":"Fórnoles, ES","country":"ES","name":"Fórnoles","_id":6361516,"coord":{"lon":-0.00863,"lat":40.892139}},{"displayName":"Föckelberg, DE","country":"DE","name":"Föckelberg","_id":6555093,"coord":{"lon":7.48333,"lat":49.533298}},{"displayName":"Föglö, AX","country":"AX","name":"Föglö","_id":659951,"coord":{"lon":20.5,"lat":60.0}},{"displayName":"Föhrden, DE","country":"DE","name":"Föhrden","_id":2925981,"coord":{"lon":9.5,"lat":54.333328}},{"displayName":"Föhrden-Barl, DE","country":"DE","name":"Föhrden-Barl","_id":6552085,"coord":{"lon":9.78714,"lat":53.928059}},{"displayName":"Föhren, DE","country":"DE","name":"Föhren","_id":6554731,"coord":{"lon":6.76667,"lat":49.849998}},{"displayName":"Fördergersdorf, DE","country":"DE","name":"Fördergersdorf","_id":2925903,"coord":{"lon":13.55,"lat":51.0}},{"displayName":"Förstgen, DE","country":"DE","name":"Förstgen","_id":2925770,"coord":{"lon":12.78594,"lat":51.18951}},{"displayName":"Förtha, DE","country":"DE","name":"Förtha","_id":2925697,"coord":{"lon":10.23333,"lat":50.933331}},{"displayName":"Förtschendorf, DE","country":"DE","name":"Förtschendorf","_id":2925687,"coord":{"lon":11.35,"lat":50.383331}},{"displayName":"Fúquene, CO","country":"CO","name":"Fúquene","_id":3682279,"coord":{"lon":-73.796402,"lat":5.40425}},{"displayName":"Fügen, AT","country":"AT","name":"Fügen","_id":7872627,"coord":{"lon":11.85457,"lat":47.347111}},{"displayName":"Fügenberg, AT","country":"AT","name":"Fügenberg","_id":7873705,"coord":{"lon":11.79623,"lat":47.298458}},{"displayName":"Füllinsdorf, CH","country":"CH","name":"Füllinsdorf","_id":7285876,"coord":{"lon":7.73196,"lat":47.510948}},{"displayName":"Fünfstetten, DE","country":"DE","name":"Fünfstetten","_id":6557279,"coord":{"lon":10.7667,"lat":48.8167}},{"displayName":"Füramoos, DE","country":"DE","name":"Füramoos","_id":2923715,"coord":{"lon":9.9,"lat":48.0}},{"displayName":"Fürfeld, DE","country":"DE","name":"Fürfeld","_id":6553487,"coord":{"lon":7.9,"lat":49.783298}},{"displayName":"Fürhappen, AT","country":"AT","name":"Fürhappen","_id":2779128,"coord":{"lon":14.28609,"lat":48.203972}},{"displayName":"Fürnried, DE","country":"DE","name":"Fürnried","_id":2923685,"coord":{"lon":11.59633,"lat":49.455181}},{"displayName":"Fürstenau, CH","country":"CH","name":"Fürstenau","_id":7285880,"coord":{"lon":9.44841,"lat":46.721691}},{"displayName":"Fürstenaubruck, CH","country":"CH","name":"Fürstenaubruck","_id":2660693,"coord":{"lon":9.45326,"lat":46.711861}},{"displayName":"Fürstenberg, DE","country":"DE","name":"Fürstenberg","_id":2923640,"coord":{"lon":8.75,"lat":51.51667}},{"displayName":"Fürstenberg, DE","country":"DE","name":"Fürstenberg","_id":6552504,"coord":{"lon":9.4,"lat":51.733299}},{"displayName":"Fürsteneck, DE","country":"DE","name":"Fürsteneck","_id":6556470,"coord":{"lon":13.4667,"lat":48.716702}},{"displayName":"Fürstenfeld, AT","country":"AT","name":"Fürstenfeld","_id":7873390,"coord":{"lon":16.08783,"lat":47.047771}},{"displayName":"Fürstenforst, DE","country":"DE","name":"Fürstenforst","_id":2923622,"coord":{"lon":10.6,"lat":49.73333}},{"displayName":"Fürstengrund, DE","country":"DE","name":"Fürstengrund","_id":2923621,"coord":{"lon":8.9,"lat":49.683331}},{"displayName":"Fürstenstein, DE","country":"DE","name":"Fürstenstein","_id":6556526,"coord":{"lon":13.3333,"lat":48.716702}},{"displayName":"Fürstenwald, DE","country":"DE","name":"Fürstenwald","_id":2923590,"coord":{"lon":9.36667,"lat":51.383331}},{"displayName":"Fürstenwalde-West, DE","country":"DE","name":"Fürstenwalde-West","_id":2923586,"coord":{"lon":13.95,"lat":52.400002}},{"displayName":"Fürstenwerder, DE","country":"DE","name":"Fürstenwerder","_id":2923585,"coord":{"lon":13.6,"lat":53.400002}},{"displayName":"Fürth, DE","country":"DE","name":"Fürth","_id":6553157,"coord":{"lon":8.78472,"lat":49.650799}},{"displayName":"Fürthen, DE","country":"DE","name":"Fürthen","_id":6553392,"coord":{"lon":7.66667,"lat":50.783298}},{"displayName":"Füttersee, DE","country":"DE","name":"Füttersee","_id":2923489,"coord":{"lon":10.5,"lat":49.783329}},{"displayName":"Fīsherābād, IR","country":"IR","name":"Fīsherābād","_id":134460,"coord":{"lon":51.433331,"lat":35.666672}},{"displayName":"G\u0027ovren, BG","country":"BG","name":"G\u0027ovren","_id":6461270,"coord":{"lon":24.383329,"lat":41.666672}},{"displayName":"G. L. Garcia, PR","country":"PR","name":"G. L. Garcia","_id":4565032,"coord":{"lon":-66.10405,"lat":18.12746}},{"displayName":"Ga-Modjadji, ZA","country":"ZA","name":"Ga-Modjadji","_id":1003197,"coord":{"lon":30.439939,"lat":-23.51623}},{"displayName":"Ga-Rankuwa, ZA","country":"ZA","name":"Ga-Rankuwa","_id":1002851,"coord":{"lon":27.994711,"lat":-25.61692}},{"displayName":"Gaaden, AT","country":"AT","name":"Gaaden","_id":7872976,"coord":{"lon":16.218031,"lat":48.052608}},{"displayName":"Gaaden, AT","country":"AT","name":"Gaaden","_id":2779074,"coord":{"lon":16.200029,"lat":48.053638}},{"displayName":"Gaal, AT","country":"AT","name":"Gaal","_id":7873449,"coord":{"lon":14.65726,"lat":47.310219}},{"displayName":"Gaal, AT","country":"AT","name":"Gaal","_id":2779073,"coord":{"lon":14.66667,"lat":47.26667}},{"displayName":"Gaalkacyo, SO","country":"SO","name":"Gaalkacyo","_id":59611,"coord":{"lon":47.430828,"lat":6.76972}},{"displayName":"Gaarden, DE","country":"DE","name":"Gaarden","_id":2923484,"coord":{"lon":10.14467,"lat":54.311821}},{"displayName":"Gaas, FR","country":"FR","name":"Gaas","_id":6433817,"coord":{"lon":-1.03333,"lat":43.616669}},{"displayName":"Gaas, FR","country":"FR","name":"Gaas","_id":3016875,"coord":{"lon":-1.03576,"lat":43.613239}},{"displayName":"Gabahan, ID","country":"ID","name":"Gabahan","_id":8183630,"coord":{"lon":111.452499,"lat":-8.0186}},{"displayName":"Gabaldon, ES","country":"ES","name":"Gabaldon","_id":2517476,"coord":{"lon":-1.93333,"lat":39.616669}},{"displayName":"Gabaldon, PH","country":"PH","name":"Gabaldon","_id":1713498,"coord":{"lon":121.338699,"lat":15.4522}},{"displayName":"Gabaldón, ES","country":"ES","name":"Gabaldón","_id":6357441,"coord":{"lon":-1.96159,"lat":39.644619}},{"displayName":"Gabane, BW","country":"BW","name":"Gabane","_id":933777,"coord":{"lon":25.782221,"lat":-24.66667}},{"displayName":"Gabao, PH","country":"PH","name":"Gabao","_id":1713494,"coord":{"lon":124.01667,"lat":13.0}},{"displayName":"Gabao, PH","country":"PH","name":"Gabao","_id":1713495,"coord":{"lon":123.961388,"lat":12.73056}},{"displayName":"Gabarin, NG","country":"NG","name":"Gabarin","_id":2342439,"coord":{"lon":10.4441,"lat":11.1093}},{"displayName":"Gabarnac, FR","country":"FR","name":"Gabarnac","_id":6432231,"coord":{"lon":-0.28333,"lat":44.616669}},{"displayName":"Gabarnac, FR","country":"FR","name":"Gabarnac","_id":3016872,"coord":{"lon":-0.27974,"lat":44.614429}},{"displayName":"Gabarret, FR","country":"FR","name":"Gabarret","_id":6433818,"coord":{"lon":0.01667,"lat":43.98333}},{"displayName":"Gabarret, FR","country":"FR","name":"Gabarret","_id":3016871,"coord":{"lon":0.00978,"lat":43.987789}},{"displayName":"Gabas, FR","country":"FR","name":"Gabas","_id":3016870,"coord":{"lon":-0.42769,"lat":42.888451}},{"displayName":"Gabas, PH","country":"PH","name":"Gabas","_id":1713490,"coord":{"lon":124.796097,"lat":10.7297}},{"displayName":"Gabasumdo, CN","country":"CN","name":"Gabasumdo","_id":1810804,"coord":{"lon":100.549942,"lat":35.2589}},{"displayName":"Gabawan, PH","country":"PH","name":"Gabawan","_id":1713486,"coord":{"lon":122.013893,"lat":12.4175}},{"displayName":"Gabelbach, DE","country":"DE","name":"Gabelbach","_id":2923471,"coord":{"lon":10.56782,"lat":48.379971}},{"displayName":"Gabelbachergreut, DE","country":"DE","name":"Gabelbachergreut","_id":2923468,"coord":{"lon":10.53333,"lat":48.383331}},{"displayName":"Gaberndorf, DE","country":"DE","name":"Gaberndorf","_id":2923452,"coord":{"lon":11.28333,"lat":51.0}},{"displayName":"Gaberonne, US","country":"US","name":"Gaberonne","_id":4156383,"coord":{"lon":-87.160797,"lat":30.468809}},{"displayName":"Gabersdorf, AT","country":"AT","name":"Gabersdorf","_id":7872399,"coord":{"lon":15.60099,"lat":46.78986}},{"displayName":"Gabersdorf, AT","country":"AT","name":"Gabersdorf","_id":2779064,"coord":{"lon":15.58417,"lat":46.777222}},{"displayName":"Gabes, TN","country":"TN","name":"Gabes","_id":2468369,"coord":{"lon":10.0982,"lat":33.881458}},{"displayName":"Gabi, PH","country":"PH","name":"Gabi","_id":1713473,"coord":{"lon":123.961388,"lat":10.26306}},{"displayName":"Gabi, PH","country":"PH","name":"Gabi","_id":1713478,"coord":{"lon":123.337601,"lat":11.5956}},{"displayName":"Gabi, PH","country":"PH","name":"Gabi","_id":1713479,"coord":{"lon":126.092003,"lat":7.6215}},{"displayName":"Gabiano, IT","country":"IT","name":"Gabiano","_id":3176445,"coord":{"lon":8.19523,"lat":45.15675}},{"displayName":"Gabicce, IT","country":"IT","name":"Gabicce","_id":3176444,"coord":{"lon":12.75641,"lat":43.96471}},{"displayName":"Gabin, PL","country":"PL","name":"Gabin","_id":3099619,"coord":{"lon":19.73509,"lat":52.398491}},{"displayName":"Gabino Barreda, MX","country":"MX","name":"Gabino Barreda","_id":3824981,"coord":{"lon":-96.083328,"lat":18.180559}},{"displayName":"Gabiria, ES","country":"ES","name":"Gabiria","_id":6358127,"coord":{"lon":-2.28758,"lat":43.056431}},{"displayName":"Gabiria, ES","country":"ES","name":"Gabiria","_id":3121507,"coord":{"lon":-2.27962,"lat":43.049339}},{"displayName":"Gablenberg, DE","country":"DE","name":"Gablenberg","_id":2923448,"coord":{"lon":9.2,"lat":48.76667}},{"displayName":"Gablenz, DE","country":"DE","name":"Gablenz","_id":2923443,"coord":{"lon":14.51667,"lat":51.683331}},{"displayName":"Gablenz, DE","country":"DE","name":"Gablenz","_id":6548634,"coord":{"lon":14.6667,"lat":51.533298}},{"displayName":"Gablenz, DE","country":"DE","name":"Gablenz","_id":2923444,"coord":{"lon":14.66667,"lat":51.533329}},{"displayName":"Gablingen, DE","country":"DE","name":"Gablingen","_id":6557134,"coord":{"lon":10.8167,"lat":48.450001}},