[{"displayName":"Haden, AU","country":"AU","name":"Haden","_id":2164111,"coord":{"lon":151.883331,"lat":-27.216669}},{"displayName":"Hadenfeld, DE","country":"DE","name":"Hadenfeld","_id":6552187,"coord":{"lon":9.45543,"lat":54.033932}},{"displayName":"Hadenfeld, DE","country":"DE","name":"Hadenfeld","_id":2912810,"coord":{"lon":9.45575,"lat":54.0341}},{"displayName":"Hadera, IL","country":"IL","name":"Hadera","_id":294946,"coord":{"lon":34.919559,"lat":32.436451}},{"displayName":"Hadergaß, DE","country":"DE","name":"Hadergaß","_id":2912801,"coord":{"lon":12.46667,"lat":47.73333}},{"displayName":"Haderschen, DE","country":"DE","name":"Haderschen","_id":2912790,"coord":{"lon":7.7,"lat":50.73333}},{"displayName":"Haderslev Kommune, DK","country":"DK","name":"Haderslev Kommune","_id":2620961,"coord":{"lon":9.5,"lat":55.23333}},{"displayName":"Haderslev, DK","country":"DK","name":"Haderslev","_id":2620964,"coord":{"lon":9.48982,"lat":55.253769}},{"displayName":"Hadew, ET","country":"ET","name":"Hadew","_id":335316,"coord":{"lon":42.669441,"lat":9.36361}},{"displayName":"Hadfield, GB","country":"GB","name":"Hadfield","_id":2647680,"coord":{"lon":-1.9711,"lat":53.46439}},{"displayName":"Hadgaon, IN","country":"IN","name":"Hadgaon","_id":1270554,"coord":{"lon":77.666672,"lat":19.5}},{"displayName":"Hadidah, SY","country":"SY","name":"Hadidah","_id":170136,"coord":{"lon":36.397339,"lat":34.67337}},{"displayName":"Hadim, TR","country":"TR","name":"Hadim","_id":312899,"coord":{"lon":32.456741,"lat":36.987759}},{"displayName":"Hadithah, IQ","country":"IQ","name":"Hadithah","_id":96309,"coord":{"lon":42.378059,"lat":34.139721}},{"displayName":"Hadjout, DZ","country":"DZ","name":"Hadjout","_id":2494962,"coord":{"lon":2.41382,"lat":36.512569}},{"displayName":"Hadleigh, GB","country":"GB","name":"Hadleigh","_id":2647679,"coord":{"lon":0.60983,"lat":51.552689}},{"displayName":"Hadley Wood, GB","country":"GB","name":"Hadley Wood","_id":6693771,"coord":{"lon":-0.16981,"lat":51.666691}},{"displayName":"Hadley, GB","country":"GB","name":"Hadley","_id":2647677,"coord":{"lon":-2.48333,"lat":52.700001}},{"displayName":"Hadley, US","country":"US","name":"Hadley","_id":4938574,"coord":{"lon":-72.588417,"lat":42.341759}},{"displayName":"Hadley, US","country":"US","name":"Hadley","_id":5119689,"coord":{"lon":-73.848183,"lat":43.317291}},{"displayName":"Hadlikon, CH","country":"CH","name":"Hadlikon","_id":6292364,"coord":{"lon":8.85719,"lat":47.287498}},{"displayName":"Hadlow, GB","country":"GB","name":"Hadlow","_id":2647675,"coord":{"lon":0.33914,"lat":51.224171}},{"displayName":"Hadmersleben, DE","country":"DE","name":"Hadmersleben","_id":2912782,"coord":{"lon":11.3,"lat":51.98333}},{"displayName":"Hadol, FR","country":"FR","name":"Hadol","_id":3014096,"coord":{"lon":6.47662,"lat":48.089828}},{"displayName":"Hadong, KR","country":"KR","name":"Hadong","_id":1844788,"coord":{"lon":127.749168,"lat":35.069439}},{"displayName":"Hadres, AT","country":"AT","name":"Hadres","_id":7872883,"coord":{"lon":16.139111,"lat":48.707859}},{"displayName":"Hadres, AT","country":"AT","name":"Hadres","_id":2777090,"coord":{"lon":16.116671,"lat":48.700001}},{"displayName":"Hadrut, AZ","country":"AZ","name":"Hadrut","_id":148105,"coord":{"lon":47.031799,"lat":39.52002}},{"displayName":"Hadsel, NO","country":"NO","name":"Hadsel","_id":3154394,"coord":{"lon":14.90835,"lat":68.563278}},{"displayName":"Hadspen, AU","country":"AU","name":"Hadspen","_id":2164104,"coord":{"lon":147.083328,"lat":-41.5}},{"displayName":"Hadsten, DK","country":"DK","name":"Hadsten","_id":2620956,"coord":{"lon":10.04931,"lat":56.32819}},{"displayName":"Hadsund, DK","country":"DK","name":"Hadsund","_id":2620952,"coord":{"lon":10.11682,"lat":56.714821}},{"displayName":"Hadyach, UA","country":"UA","name":"Hadyach","_id":709054,"coord":{"lon":33.99099,"lat":50.37112}},{"displayName":"Hadzici, BA","country":"BA","name":"Hadzici","_id":3199438,"coord":{"lon":18.206671,"lat":43.82222}},{"displayName":"Haebaru, JP","country":"JP","name":"Haebaru","_id":1863426,"coord":{"lon":127.871941,"lat":26.336941}},{"displayName":"Haebaru, JP","country":"JP","name":"Haebaru","_id":1894628,"coord":{"lon":127.722504,"lat":26.184719}},{"displayName":"Haejeong, KR","country":"KR","name":"Haejeong","_id":6575423,"coord":{"lon":127.024437,"lat":37.096111}},{"displayName":"Haeju, KP","country":"KP","name":"Haeju","_id":1877615,"coord":{"lon":125.714722,"lat":38.040562}},{"displayName":"Haelen, NL","country":"NL","name":"Haelen","_id":2754975,"coord":{"lon":5.95694,"lat":51.235828}},{"displayName":"Haellefors, SE","country":"SE","name":"Haellefors","_id":2708665,"coord":{"lon":14.52197,"lat":59.783878}},{"displayName":"Haemeenkoski, FI","country":"FI","name":"Haemeenkoski","_id":651073,"coord":{"lon":25.154169,"lat":61.022221}},{"displayName":"Haenam, KR","country":"KR","name":"Haenam","_id":1844751,"coord":{"lon":126.598892,"lat":34.57111}},{"displayName":"Haenigsen, DE","country":"DE","name":"Haenigsen","_id":2910875,"coord":{"lon":10.1,"lat":52.48333}},{"displayName":"Hafenhofen, DE","country":"DE","name":"Hafenhofen","_id":2912758,"coord":{"lon":10.4528,"lat":48.457439}},{"displayName":"Hafenlohr, DE","country":"DE","name":"Hafenlohr","_id":6557038,"coord":{"lon":9.60222,"lat":49.8694}},{"displayName":"Hafenlohr, DE","country":"DE","name":"Hafenlohr","_id":2912753,"coord":{"lon":9.60222,"lat":49.869438}},{"displayName":"Hafenpreppach, DE","country":"DE","name":"Hafenpreppach","_id":2912745,"coord":{"lon":10.76667,"lat":50.200001}},{"displayName":"Hafenreut, DE","country":"DE","name":"Hafenreut","_id":2912744,"coord":{"lon":10.83333,"lat":48.75}},{"displayName":"Haffkrug, DE","country":"DE","name":"Haffkrug","_id":2912711,"coord":{"lon":10.75,"lat":54.049999}},{"displayName":"Hafford, CA","country":"CA","name":"Hafford","_id":5968839,"coord":{"lon":-107.351242,"lat":52.71682}},{"displayName":"Haffouz, TN","country":"TN","name":"Haffouz","_id":2470800,"coord":{"lon":9.67624,"lat":35.632351}},{"displayName":"Hafik, TR","country":"TR","name":"Hafik","_id":312894,"coord":{"lon":37.386391,"lat":39.856392}},{"displayName":"Hafiz Moghul, AF","country":"AF","name":"Hafiz Moghul","_id":1140433,"coord":{"lon":70.400612,"lat":37.056431}},{"displayName":"Hafizabad, PK","country":"PK","name":"Hafizabad","_id":1177384,"coord":{"lon":73.685448,"lat":32.06786}},{"displayName":"Haflong, IN","country":"IN","name":"Haflong","_id":1270543,"coord":{"lon":93.033333,"lat":25.183331}},{"displayName":"Hafnarfjordur, IS","country":"IS","name":"Hafnarfjordur","_id":3416706,"coord":{"lon":-21.93774,"lat":64.067101}},{"displayName":"Hafnerbach, AT","country":"AT","name":"Hafnerbach","_id":7871881,"coord":{"lon":15.48945,"lat":48.225189}},{"displayName":"Hafnerbach, AT","country":"AT","name":"Hafnerbach","_id":2777082,"coord":{"lon":15.48333,"lat":48.216671}},{"displayName":"Hafning bei Trofaiach, AT","country":"AT","name":"Hafning bei Trofaiach","_id":7873482,"coord":{"lon":15.02193,"lat":47.466221}},{"displayName":"Hafning bei Trofaiach, AT","country":"AT","name":"Hafning bei Trofaiach","_id":2777077,"coord":{"lon":15.0,"lat":47.433331}},{"displayName":"Haftoni, AZ","country":"AZ","name":"Haftoni","_id":148088,"coord":{"lon":48.76223,"lat":38.763248}},{"displayName":"Hagaman, US","country":"US","name":"Hagaman","_id":5119709,"coord":{"lon":-74.150963,"lat":42.974522}},{"displayName":"Hagatna Mayors Office, GU","country":"GU","name":"Hagatna Mayors Office","_id":7873868,"coord":{"lon":144.758026,"lat":13.47215}},{"displayName":"Hagatna Village, GU","country":"GU","name":"Hagatna Village","_id":7874008,"coord":{"lon":144.758026,"lat":13.47279}},{"displayName":"Hagatna, GU","country":"GU","name":"Hagatna","_id":4044012,"coord":{"lon":144.748856,"lat":13.47567}},{"displayName":"Hagavik, NO","country":"NO","name":"Hagavik","_id":3154321,"coord":{"lon":5.43333,"lat":60.183331}},{"displayName":"Hagdan, PH","country":"PH","name":"Hagdan","_id":1711997,"coord":{"lon":123.900002,"lat":11.33333}},{"displayName":"Hage, DE","country":"DE","name":"Hage","_id":2912681,"coord":{"lon":7.26667,"lat":53.616669}},{"displayName":"Hagelsdorf, LU","country":"LU","name":"Hagelsdorf","_id":2960499,"coord":{"lon":6.36556,"lat":49.687778}},{"displayName":"Hagelshoek, DE","country":"DE","name":"Hagelshoek","_id":2912649,"coord":{"lon":7.11667,"lat":52.299999}},{"displayName":"Hagelstadt, DE","country":"DE","name":"Hagelstadt","_id":6556680,"coord":{"lon":12.2167,"lat":48.900002}},{"displayName":"Hagelstadt, DE","country":"DE","name":"Hagelstadt","_id":2912646,"coord":{"lon":12.21667,"lat":48.900002}},{"displayName":"Hagen am Teuteburger Wald, DE","country":"DE","name":"Hagen am Teuteburger Wald","_id":2912618,"coord":{"lon":7.98333,"lat":52.200001}},{"displayName":"Hagen im Bremischen, DE","country":"DE","name":"Hagen im Bremischen","_id":6552586,"coord":{"lon":8.65,"lat":53.366699}},{"displayName":"Hagen im Bremischen, DE","country":"DE","name":"Hagen im Bremischen","_id":2912496,"coord":{"lon":8.65,"lat":53.366669}},{"displayName":"Hagen, DE","country":"DE","name":"Hagen","_id":2912621,"coord":{"lon":7.46667,"lat":51.349998}},{"displayName":"Hagen, DE","country":"DE","name":"Hagen","_id":6552095,"coord":{"lon":9.82659,"lat":53.946522}},{"displayName":"Hagen, DE","country":"DE","name":"Hagen","_id":2912605,"coord":{"lon":9.82659,"lat":53.946522}},{"displayName":"Hagenah, DE","country":"DE","name":"Hagenah","_id":2912594,"coord":{"lon":9.33333,"lat":53.549999}},{"displayName":"Hagenau, DE","country":"DE","name":"Hagenau","_id":3206906,"coord":{"lon":11.05928,"lat":49.655128}},{"displayName":"Hagenbach, DE","country":"DE","name":"Hagenbach","_id":2912573,"coord":{"lon":11.18958,"lat":49.75}},{"displayName":"Hagenbach, DE","country":"DE","name":"Hagenbach","_id":6555006,"coord":{"lon":8.2523,"lat":49.022999}},{"displayName":"Hagenbach, DE","country":"DE","name":"Hagenbach","_id":2912577,"coord":{"lon":8.2375,"lat":49.026112}},{"displayName":"Hagenbroich, DE","country":"DE","name":"Hagenbroich","_id":2912547,"coord":{"lon":6.35,"lat":51.316669}},{"displayName":"Hagenbrunn, AT","country":"AT","name":"Hagenbrunn","_id":7871787,"coord":{"lon":16.420771,"lat":48.338341}},{"displayName":"Hagenbrunn, AT","country":"AT","name":"Hagenbrunn","_id":2777065,"coord":{"lon":16.4,"lat":48.333328}},{"displayName":"Hagenbuch, DE","country":"DE","name":"Hagenbuch","_id":2912541,"coord":{"lon":10.83333,"lat":48.833328}},{"displayName":"Hagenbuchach, DE","country":"DE","name":"Hagenbuchach","_id":2912539,"coord":{"lon":10.76667,"lat":49.533329}},{"displayName":"Hagenbuechen, CH","country":"CH","name":"Hagenbuechen","_id":6291436,"coord":{"lon":8.55637,"lat":47.476528}},{"displayName":"Hagenburg, DE","country":"DE","name":"Hagenburg","_id":2912534,"coord":{"lon":9.32473,"lat":52.43367}},{"displayName":"Hagenburg, Flecken, DE","country":"DE","name":"Hagenburg, Flecken","_id":7602459,"coord":{"lon":9.33333,"lat":52.433331}},{"displayName":"Hagenbusch, DE","country":"DE","name":"Hagenbusch","_id":2912533,"coord":{"lon":7.06667,"lat":51.416672}},{"displayName":"Hagenbüchach, DE","country":"DE","name":"Hagenbüchach","_id":6556906,"coord":{"lon":10.7667,"lat":49.533298}},{"displayName":"Hagendorf, CH","country":"CH","name":"Hagendorf","_id":2660426,"coord":{"lon":7.84192,"lat":47.334358}},{"displayName":"Hagenheim, DE","country":"DE","name":"Hagenheim","_id":2912509,"coord":{"lon":10.95,"lat":48.0}},{"displayName":"Hagenjörges, DE","country":"DE","name":"Hagenjörges","_id":2912495,"coord":{"lon":9.9,"lat":47.849998}},{"displayName":"Hagenow, DE","country":"DE","name":"Hagenow","_id":2912481,"coord":{"lon":11.18333,"lat":53.433331}},{"displayName":"Hagensborg, CA","country":"CA","name":"Hagensborg","_id":5968869,"coord":{"lon":-126.504478,"lat":52.398232}},{"displayName":"Hagenthal-le-Bas, FR","country":"FR","name":"Hagenthal-le-Bas","_id":6441452,"coord":{"lon":7.46667,"lat":47.51667}},{"displayName":"Hagenthal-le-Bas, FR","country":"FR","name":"Hagenthal-le-Bas","_id":3014088,"coord":{"lon":7.47783,"lat":47.524971}},{"displayName":"Hagenwil, CH","country":"CH","name":"Hagenwil","_id":7669622,"coord":{"lon":9.3078,"lat":47.53006}},{"displayName":"Hagere Hiywet, ET","country":"ET","name":"Hagere Hiywet","_id":335288,"coord":{"lon":37.849998,"lat":8.98333}},{"displayName":"Hagere Maryam, ET","country":"ET","name":"Hagere Maryam","_id":344620,"coord":{"lon":38.23333,"lat":5.63333}},{"displayName":"Hagere Selam, ET","country":"ET","name":"Hagere Selam","_id":335286,"coord":{"lon":38.51667,"lat":6.48333}},{"displayName":"Hageri, EE","country":"EE","name":"Hageri","_id":592209,"coord":{"lon":24.6525,"lat":59.163059}},{"displayName":"Hagerman, US","country":"US","name":"Hagerman","_id":5470519,"coord":{"lon":-104.326912,"lat":33.115108}},{"displayName":"Hagermarsch, DE","country":"DE","name":"Hagermarsch","_id":6552860,"coord":{"lon":7.29459,"lat":53.646198}},{"displayName":"Hagermarsch, DE","country":"DE","name":"Hagermarsch","_id":2912448,"coord":{"lon":7.3,"lat":53.650002}},{"displayName":"Hagerstown, US","country":"US","name":"Hagerstown","_id":4357141,"coord":{"lon":-77.719994,"lat":39.641762}},{"displayName":"Hagerstown, US","country":"US","name":"Hagerstown","_id":4258413,"coord":{"lon":-85.161629,"lat":39.91116}},{"displayName":"Hagersville, CA","country":"CA","name":"Hagersville","_id":5968875,"coord":{"lon":-80.049652,"lat":42.966808}},{"displayName":"Hagetaubin, FR","country":"FR","name":"Hagetaubin","_id":6440407,"coord":{"lon":-0.61667,"lat":43.51667}},{"displayName":"Hagetaubin, FR","country":"FR","name":"Hagetaubin","_id":3014085,"coord":{"lon":-0.61667,"lat":43.51667}},{"displayName":"Hagetmau, FR","country":"FR","name":"Hagetmau","_id":6433834,"coord":{"lon":-0.5932,"lat":43.655399}},{"displayName":"Hagetmau, FR","country":"FR","name":"Hagetmau","_id":3014084,"coord":{"lon":-0.59172,"lat":43.658932}},{"displayName":"Hagfors, SE","country":"SE","name":"Hagfors","_id":2709214,"coord":{"lon":13.67214,"lat":60.023781}},{"displayName":"Haggard, IE","country":"IE","name":"Haggard","_id":3301976,"coord":{"lon":-7.07861,"lat":52.352501}},{"displayName":"Haggenschwil, CH","country":"CH","name":"Haggenschwil","_id":2660425,"coord":{"lon":9.34247,"lat":47.494221}},{"displayName":"Hagglingen, CH","country":"CH","name":"Hagglingen","_id":2660424,"coord":{"lon":8.25323,"lat":47.3885}},{"displayName":"Haghartsin, AM","country":"AM","name":"Haghartsin","_id":616634,"coord":{"lon":44.968472,"lat":40.776138}},{"displayName":"Haghig, RO","country":"RO","name":"Haghig","_id":676396,"coord":{"lon":25.58333,"lat":45.833328}},{"displayName":"Hagi, JP","country":"JP","name":"Hagi","_id":1863418,"coord":{"lon":131.416672,"lat":34.400002}},{"displayName":"Hagiwara, JP","country":"JP","name":"Hagiwara","_id":1863410,"coord":{"lon":137.199997,"lat":36.666672}},{"displayName":"Hagley, AU","country":"AU","name":"Hagley","_id":2164102,"coord":{"lon":146.916672,"lat":-41.533329}},{"displayName":"Hagley, GB","country":"GB","name":"Hagley","_id":2647662,"coord":{"lon":-2.12819,"lat":52.426201}},{"displayName":"Hagnau, DE","country":"DE","name":"Hagnau","_id":2912417,"coord":{"lon":9.31787,"lat":47.676659}},{"displayName":"Hagnaya, PH","country":"PH","name":"Hagnaya","_id":1711991,"coord":{"lon":123.943497,"lat":11.0924}},{"displayName":"Hagondange, FR","country":"FR","name":"Hagondange","_id":6437557,"coord":{"lon":6.16667,"lat":49.25}},{"displayName":"Hagondange, FR","country":"FR","name":"Hagondange","_id":3014080,"coord":{"lon":6.16812,"lat":49.251339}},{"displayName":"Hagonoy, PH","country":"PH","name":"Hagonoy","_id":1711984,"coord":{"lon":125.325562,"lat":6.68333}},{"displayName":"Hagsbronn, DE","country":"DE","name":"Hagsbronn","_id":2912405,"coord":{"lon":10.91667,"lat":49.166672}},{"displayName":"Hagsfeld, DE","country":"DE","name":"Hagsfeld","_id":2912400,"coord":{"lon":8.45922,"lat":49.03022}},{"displayName":"Hague, CA","country":"CA","name":"Hague","_id":5968919,"coord":{"lon":-106.41787,"lat":52.511181}},{"displayName":"Haguenau, FR","country":"FR","name":"Haguenau","_id":6441131,"coord":{"lon":7.78913,"lat":48.815681}},{"displayName":"Haguenau, FR","country":"FR","name":"Haguenau","_id":3014078,"coord":{"lon":7.79051,"lat":48.815571}},{"displayName":"Haguimit, PH","country":"PH","name":"Haguimit","_id":1711978,"coord":{"lon":123.018608,"lat":10.40083}},{"displayName":"Hagunoy, PH","country":"PH","name":"Hagunoy","_id":1711982,"coord":{"lon":120.733597,"lat":14.8321}},{"displayName":"Hagåtña Municipality, GU","country":"GU","name":"Hagåtña Municipality","_id":4044019,"coord":{"lon":144.757874,"lat":13.47279}},{"displayName":"Hahatonka, US","country":"US","name":"Hahatonka","_id":4389188,"coord":{"lon":-92.769073,"lat":37.973091}},{"displayName":"Hahausen, DE","country":"DE","name":"Hahausen","_id":6552353,"coord":{"lon":10.2167,"lat":51.950001}},{"displayName":"Hahausen, DE","country":"DE","name":"Hahausen","_id":2912392,"coord":{"lon":10.21667,"lat":51.950001}},{"displayName":"Hahira, US","country":"US","name":"Hahira","_id":4198750,"coord":{"lon":-83.372658,"lat":30.99131}},{"displayName":"Hahlen, DE","country":"DE","name":"Hahlen","_id":2912386,"coord":{"lon":8.85,"lat":52.299999}},{"displayName":"Hahn bei Marienberg, DE","country":"DE","name":"Hahn bei Marienberg","_id":6554213,"coord":{"lon":7.93333,"lat":50.633301}},{"displayName":"Hahn bei Marienberg, DE","country":"DE","name":"Hahn bei Marienberg","_id":2912347,"coord":{"lon":7.93333,"lat":50.633331}},{"displayName":"Hahn, DE","country":"DE","name":"Hahn","_id":2912367,"coord":{"lon":8.15,"lat":50.150002}},{"displayName":"Hahn, DE","country":"DE","name":"Hahn","_id":2912357,"coord":{"lon":7.58333,"lat":50.883331}},{"displayName":"Hahn, DE","country":"DE","name":"Hahn","_id":6553898,"coord":{"lon":7.26667,"lat":49.966702}},{"displayName":"Hahn, DE","country":"DE","name":"Hahn","_id":2912368,"coord":{"lon":7.26667,"lat":49.966671}},{"displayName":"Hahnbach, DE","country":"DE","name":"Hahnbach","_id":2912351,"coord":{"lon":11.80302,"lat":49.53389}},{"displayName":"Hahndorf, AU","country":"AU","name":"Hahndorf","_id":2070212,"coord":{"lon":138.800003,"lat":-35.033329}},{"displayName":"Hahneberg, DE","country":"DE","name":"Hahneberg","_id":2912320,"coord":{"lon":14.05,"lat":51.183331}},{"displayName":"Hahnefeld, DE","country":"DE","name":"Hahnefeld","_id":2912319,"coord":{"lon":13.20565,"lat":51.25536}},{"displayName":"Hahnenbach, DE","country":"DE","name":"Hahnenbach","_id":6553491,"coord":{"lon":7.41667,"lat":49.8167}},{"displayName":"Hahnenbach, DE","country":"DE","name":"Hahnenbach","_id":2912309,"coord":{"lon":7.41667,"lat":49.816669}},{"displayName":"Hahnenberg, DE","country":"DE","name":"Hahnenberg","_id":2912272,"coord":{"lon":7.45,"lat":51.099998}},{"displayName":"Hahnenblecher, DE","country":"DE","name":"Hahnenblecher","_id":2912266,"coord":{"lon":7.11667,"lat":51.049999}},{"displayName":"Hahnenklee-Bockswiese, DE","country":"DE","name":"Hahnenklee-Bockswiese","_id":2912236,"coord":{"lon":10.33178,"lat":51.85487}},{"displayName":"Hahnheim, DE","country":"DE","name":"Hahnheim","_id":6555275,"coord":{"lon":8.23694,"lat":49.860802}},{"displayName":"Hahnheim, DE","country":"DE","name":"Hahnheim","_id":2912195,"coord":{"lon":8.23694,"lat":49.860828}},{"displayName":"Hahnichen, DE","country":"DE","name":"Hahnichen","_id":2912184,"coord":{"lon":14.86098,"lat":51.365398}},{"displayName":"Hahnstatten, DE","country":"DE","name":"Hahnstatten","_id":2912168,"coord":{"lon":8.06667,"lat":50.299999}},{"displayName":"Hahnstätten, DE","country":"DE","name":"Hahnstätten","_id":6554034,"coord":{"lon":8.05,"lat":50.296299}},{"displayName":"Hahnville, US","country":"US","name":"Hahnville","_id":4326799,"coord":{"lon":-90.408974,"lat":29.976589}},{"displayName":"Hahnweiler, DE","country":"DE","name":"Hahnweiler","_id":6553594,"coord":{"lon":7.21667,"lat":49.5667}},{"displayName":"Hahnweiler, DE","country":"DE","name":"Hahnweiler","_id":2912167,"coord":{"lon":7.21667,"lat":49.566669}},{"displayName":"Hai Duong, VN","country":"VN","name":"Hai Duong","_id":1581326,"coord":{"lon":106.316673,"lat":20.933331}},{"displayName":"Hai Ha, VN","country":"VN","name":"Hai Ha","_id":1581323,"coord":{"lon":105.23333,"lat":20.616671}},{"displayName":"Haian, CN","country":"CN","name":"Haian","_id":1809116,"coord":{"lon":120.449997,"lat":32.54361}},{"displayName":"Haibach im Muhlkreis, AT","country":"AT","name":"Haibach im Muhlkreis","_id":2777041,"coord":{"lon":14.34411,"lat":48.44429}},{"displayName":"Haibach im Mühlkreis, AT","country":"AT","name":"Haibach im Mühlkreis","_id":7873238,"coord":{"lon":14.34463,"lat":48.44429}},{"displayName":"Haibach, DE","country":"DE","name":"Haibach","_id":6556946,"coord":{"lon":9.204,"lat":49.9646}},{"displayName":"Haibach, DE","country":"DE","name":"Haibach","_id":2912159,"coord":{"lon":9.20722,"lat":49.964439}},{"displayName":"Haibach, DE","country":"DE","name":"Haibach","_id":2912158,"coord":{"lon":13.0,"lat":48.533329}},{"displayName":"Haibach, DE","country":"DE","name":"Haibach","_id":6556578,"coord":{"lon":12.71431,"lat":49.02454}},{"displayName":"Haibach, DE","country":"DE","name":"Haibach","_id":2912160,"coord":{"lon":12.71552,"lat":49.024052}},{"displayName":"Haibara, JP","country":"JP","name":"Haibara","_id":1863398,"coord":{"lon":135.949997,"lat":34.533329}},{"displayName":"Haibeitou, CN","country":"CN","name":"Haibeitou","_id":1809112,"coord":{"lon":113.185013,"lat":39.803822}},{"displayName":"Haicheng, CN","country":"CN","name":"Haicheng","_id":2037086,"coord":{"lon":122.747543,"lat":40.851582}},{"displayName":"Haicheng, CN","country":"CN","name":"Haicheng","_id":1809100,"coord":{"lon":115.331787,"lat":22.97533}},{"displayName":"Haid, AT","country":"AT","name":"Haid","_id":2777031,"coord":{"lon":14.96595,"lat":48.588009}},{"displayName":"Haid, DE","country":"DE","name":"Haid","_id":2912120,"coord":{"lon":11.75288,"lat":49.14983}},{"displayName":"Haid, DE","country":"DE","name":"Haid","_id":2912122,"coord":{"lon":12.71667,"lat":49.083328}},{"displayName":"Haida, DE","country":"DE","name":"Haida","_id":2912106,"coord":{"lon":13.46667,"lat":51.48333}},{"displayName":"Haidao, CN","country":"CN","name":"Haidao","_id":1922253,"coord":{"lon":120.048172,"lat":26.504431}},{"displayName":"Haidemühl, DE","country":"DE","name":"Haidemühl","_id":2912053,"coord":{"lon":14.21667,"lat":51.549999}},{"displayName":"Haidershofen, AT","country":"AT","name":"Haidershofen","_id":7872822,"coord":{"lon":14.50743,"lat":48.073051}},{"displayName":"Haidershofen, AT","country":"AT","name":"Haidershofen","_id":2777015,"coord":{"lon":14.45,"lat":48.066669}},{"displayName":"Haidham, DE","country":"DE","name":"Haidham","_id":2912018,"coord":{"lon":12.21667,"lat":47.883331}},{"displayName":"Haidian, CN","country":"CN","name":"Haidian","_id":1809104,"coord":{"lon":116.299171,"lat":39.979172}},{"displayName":"Haidlfing, DE","country":"DE","name":"Haidlfing","_id":2911987,"coord":{"lon":12.71667,"lat":48.73333}},{"displayName":"Haidmuhle, DE","country":"DE","name":"Haidmuhle","_id":2911983,"coord":{"lon":13.76667,"lat":48.833328}},{"displayName":"Haidmühle, DE","country":"DE","name":"Haidmühle","_id":6556472,"coord":{"lon":13.7667,"lat":48.833302}},{"displayName":"Haifa District, IL","country":"IL","name":"Haifa District","_id":294800,"coord":{"lon":35.0,"lat":32.583328}},{"displayName":"Haifa, IL","country":"IL","name":"Haifa","_id":294801,"coord":{"lon":34.98917,"lat":32.815559}},{"displayName":"Haifu, CN","country":"CN","name":"Haifu","_id":1809096,"coord":{"lon":121.6875,"lat":31.98667}},{"displayName":"Haig, DE","country":"DE","name":"Haig","_id":2911965,"coord":{"lon":11.27644,"lat":50.281551}},{"displayName":"Haiger, DE","country":"DE","name":"Haiger","_id":2911964,"coord":{"lon":8.21667,"lat":50.75}},{"displayName":"Haigerloch, DE","country":"DE","name":"Haigerloch","_id":2911960,"coord":{"lon":8.80357,"lat":48.366138}},{"displayName":"Haigh, GB","country":"GB","name":"Haigh","_id":2647658,"coord":{"lon":-2.58333,"lat":53.599998}},{"displayName":"Haihui, CN","country":"CN","name":"Haihui","_id":1809084,"coord":{"lon":116.05336,"lat":29.543329}},{"displayName":"Haikou, CN","country":"CN","name":"Haikou","_id":1809078,"coord":{"lon":110.341667,"lat":20.04583}},{"displayName":"Haikou, CN","country":"CN","name":"Haikou","_id":1809077,"coord":{"lon":102.575478,"lat":24.77985}},{"displayName":"Haikou, CN","country":"CN","name":"Haikou","_id":1809074,"coord":{"lon":117.807358,"lat":29.106819}},{"displayName":"Haikou, CN","country":"CN","name":"Haikou","_id":6824908,"coord":{"lon":102.942589,"lat":24.519199}},{"displayName":"Haikoudajie, CN","country":"CN","name":"Haikoudajie","_id":6824957,"coord":{"lon":102.947418,"lat":24.526649}},{"displayName":"Haiku-Pauwela, US","country":"US","name":"Haiku-Pauwela","_id":7262697,"coord":{"lon":-156.305084,"lat":20.921869}},{"displayName":"Haikuotiankong, CN","country":"CN","name":"Haikuotiankong","_id":6942880,"coord":{"lon":113.939903,"lat":22.528811}},{"displayName":"Hailakandi, IN","country":"IN","name":"Hailakandi","_id":1270530,"coord":{"lon":92.566673,"lat":24.683331}},{"displayName":"Hailar, CN","country":"CN","name":"Hailar","_id":2037078,"coord":{"lon":119.699997,"lat":49.200001}},{"displayName":"Hailer, DE","country":"DE","name":"Hailer","_id":2911955,"coord":{"lon":9.16667,"lat":50.183331}},{"displayName":"Hailey, US","country":"US","name":"Hailey","_id":5594956,"coord":{"lon":-114.315323,"lat":43.51963}},{"displayName":"Haileybury, CA","country":"CA","name":"Haileybury","_id":5968992,"coord":{"lon":-79.637321,"lat":47.449039}},{"displayName":"Hailin, CN","country":"CN","name":"Hailin","_id":2037075,"coord":{"lon":129.416672,"lat":44.583328}},{"displayName":"Hailing, DE","country":"DE","name":"Hailing","_id":2911953,"coord":{"lon":12.55,"lat":48.75}},{"displayName":"Haillicourt, FR","country":"FR","name":"Haillicourt","_id":3014067,"coord":{"lon":2.57458,"lat":50.475189}},{"displayName":"Hailsham, GB","country":"GB","name":"Hailsham","_id":2647655,"coord":{"lon":0.25775,"lat":50.862202}},{"displayName":"Hailun, CN","country":"CN","name":"Hailun","_id":2037069,"coord":{"lon":126.933327,"lat":47.450001}},{"displayName":"Hailuoto, FI","country":"FI","name":"Hailuoto","_id":659433,"coord":{"lon":24.75,"lat":65.083328}},{"displayName":"Hailuoto, FI","country":"FI","name":"Hailuoto","_id":659431,"coord":{"lon":24.71385,"lat":65.009003}},{"displayName":"Haimen, CN","country":"CN","name":"Haimen","_id":1809062,"coord":{"lon":116.61422,"lat":23.193489}},{"displayName":"Haimen, CN","country":"CN","name":"Haimen","_id":1801200,"coord":{"lon":121.154442,"lat":31.897221}},{"displayName":"Haimhausen, DE","country":"DE","name":"Haimhausen","_id":6556134,"coord":{"lon":11.54875,"lat":48.312199}},{"displayName":"Haimhausen, DE","country":"DE","name":"Haimhausen","_id":2911940,"coord":{"lon":11.55453,"lat":48.315449}},{"displayName":"Haiming, AT","country":"AT","name":"Haiming","_id":7872525,"coord":{"lon":10.88699,"lat":47.243191}},{"displayName":"Haiming, AT","country":"AT","name":"Haiming","_id":2777001,"coord":{"lon":10.88333,"lat":47.25}},{"displayName":"Haiming, DE","country":"DE","name":"Haiming","_id":6556099,"coord":{"lon":12.9,"lat":48.216702}},{"displayName":"Haiming, DE","country":"DE","name":"Haiming","_id":2911938,"coord":{"lon":12.9,"lat":48.216671}},{"displayName":"Haimpertshofen, DE","country":"DE","name":"Haimpertshofen","_id":2911935,"coord":{"lon":11.51667,"lat":48.566669}},{"displayName":"Hain, DE","country":"DE","name":"Hain","_id":2911917,"coord":{"lon":7.18333,"lat":50.450001}},{"displayName":"Hain, DE","country":"DE","name":"Hain","_id":6550494,"coord":{"lon":12.0833,"lat":50.700001}},{"displayName":"Hain, DE","country":"DE","name":"Hain","_id":2911916,"coord":{"lon":12.08333,"lat":50.707489}},{"displayName":"Hain-Grundau, DE","country":"DE","name":"Hain-Grundau","_id":2911825,"coord":{"lon":9.15,"lat":50.25}},{"displayName":"Haina, DE","country":"DE","name":"Haina","_id":2911909,"coord":{"lon":8.96667,"lat":51.033329}},{"displayName":"Haina, DE","country":"DE","name":"Haina","_id":6550082,"coord":{"lon":10.5333,"lat":50.983299}},{"displayName":"Haina, DE","country":"DE","name":"Haina","_id":2911910,"coord":{"lon":10.53333,"lat":50.98333}},{"displayName":"Haina, DE","country":"DE","name":"Haina","_id":6559294,"coord":{"lon":10.48233,"lat":50.42915}},{"displayName":"Haina, DE","country":"DE","name":"Haina","_id":2911911,"coord":{"lon":10.53333,"lat":50.416672}},{"displayName":"Hainan Sheng, CN","country":"CN","name":"Hainan Sheng","_id":1809054,"coord":{"lon":109.599998,"lat":19.200001}},{"displayName":"Hainantun, CN","country":"CN","name":"Hainantun","_id":7403438,"coord":{"lon":121.540878,"lat":38.969551}},{"displayName":"Hainau, DE","country":"DE","name":"Hainau","_id":6554086,"coord":{"lon":7.78333,"lat":50.216702}},{"displayName":"Hainau, DE","country":"DE","name":"Hainau","_id":3207731,"coord":{"lon":7.78235,"lat":50.222881}},{"displayName":"Hainault, GB","country":"GB","name":"Hainault","_id":6690865,"coord":{"lon":0.10716,"lat":51.60836}},{"displayName":"Hainburg an der Donau, AT","country":"AT","name":"Hainburg an der Donau","_id":2776988,"coord":{"lon":16.94504,"lat":48.146271}},{"displayName":"Hainchen, DE","country":"DE","name":"Hainchen","_id":2911855,"coord":{"lon":8.21667,"lat":50.849998}},{"displayName":"Hainersdorf, AT","country":"AT","name":"Hainersdorf","_id":7873392,"coord":{"lon":15.95712,"lat":47.113499}},{"displayName":"Hainersdorf, AT","country":"AT","name":"Hainersdorf","_id":2776982,"coord":{"lon":15.93333,"lat":47.116669}},{"displayName":"Hainert, DE","country":"DE","name":"Hainert","_id":2911834,"coord":{"lon":10.5,"lat":50.0}},{"displayName":"Haines Borough, US","country":"US","name":"Haines Borough","_id":5846893,"coord":{"lon":-135.500565,"lat":59.250561}},{"displayName":"Haines City, US","country":"US","name":"Haines City","_id":4157827,"coord":{"lon":-81.617851,"lat":28.11418}},{"displayName":"Haines Junction, CA","country":"CA","name":"Haines Junction","_id":5969025,"coord":{"lon":-137.510818,"lat":60.752159}},{"displayName":"Haines, US","country":"US","name":"Haines","_id":5846901,"coord":{"lon":-135.444107,"lat":59.228588}},{"displayName":"Hainesville, US","country":"US","name":"Hainesville","_id":4894921,"coord":{"lon":-88.067863,"lat":42.34502}},{"displayName":"Hainewalde, DE","country":"DE","name":"Hainewalde","_id":6548676,"coord":{"lon":14.7,"lat":50.916698}},{"displayName":"Hainewalde, DE","country":"DE","name":"Hainewalde","_id":2911833,"coord":{"lon":14.7,"lat":50.916672}},{"displayName":"Hainfeld, AT","country":"AT","name":"Hainfeld","_id":7872929,"coord":{"lon":15.8017,"lat":48.039989}},{"displayName":"Hainfeld, AT","country":"AT","name":"Hainfeld","_id":2776981,"coord":{"lon":15.77414,"lat":48.033901}},{"displayName":"Hainfeld, DE","country":"DE","name":"Hainfeld","_id":6555189,"coord":{"lon":8.10111,"lat":49.2575}},{"displayName":"Hainfeld, DE","country":"DE","name":"Hainfeld","_id":2911831,"coord":{"lon":8.10111,"lat":49.2575}},{"displayName":"Hainhofen, DE","country":"DE","name":"Hainhofen","_id":2911813,"coord":{"lon":10.8,"lat":48.383331}},{"displayName":"Hainichen, DE","country":"DE","name":"Hainichen","_id":2911795,"coord":{"lon":13.11667,"lat":50.966671}},{"displayName":"Hainichen, DE","country":"DE","name":"Hainichen","_id":6550366,"coord":{"lon":11.6167,"lat":51.0}},{"displayName":"Hainichen, DE","country":"DE","name":"Hainichen","_id":2911794,"coord":{"lon":11.61667,"lat":51.0}},{"displayName":"Hainsacker, DE","country":"DE","name":"Hainsacker","_id":2911775,"coord":{"lon":12.05,"lat":49.066669}},{"displayName":"Hainsberg, DE","country":"DE","name":"Hainsberg","_id":2911771,"coord":{"lon":12.1,"lat":50.700001}},{"displayName":"Hainsdorf im Schwarzautal, AT","country":"AT","name":"Hainsdorf im Schwarzautal","_id":7873465,"coord":{"lon":15.64266,"lat":46.82774}},{"displayName":"Hainsdorf im Schwarzautal, AT","country":"AT","name":"Hainsdorf im Schwarzautal","_id":2776975,"coord":{"lon":15.64139,"lat":46.835831}},{"displayName":"Hainsfarth, DE","country":"DE","name":"Hainsfarth","_id":6557281,"coord":{"lon":10.6167,"lat":48.966702}},{"displayName":"Hainsfarth, DE","country":"DE","name":"Hainsfarth","_id":2911769,"coord":{"lon":10.61667,"lat":48.966671}},{"displayName":"Hainspitz, DE","country":"DE","name":"Hainspitz","_id":6550367,"coord":{"lon":11.8333,"lat":50.950001}},{"displayName":"Hainspitz, DE","country":"DE","name":"Hainspitz","_id":2911767,"coord":{"lon":11.83333,"lat":50.950001}},{"displayName":"Hainstadt, DE","country":"DE","name":"Hainstadt","_id":2911765,"coord":{"lon":9.0425,"lat":49.836109}},{"displayName":"Haintchen, DE","country":"DE","name":"Haintchen","_id":2911760,"coord":{"lon":8.31667,"lat":50.366669}},{"displayName":"Hainuzuka, JP","country":"JP","name":"Hainuzuka","_id":1863385,"coord":{"lon":130.5,"lat":33.200001}},{"displayName":"Hainzenberg, AT","country":"AT","name":"Hainzenberg","_id":7872629,"coord":{"lon":11.93231,"lat":47.203049}},{"displayName":"Hainzenberg, AT","country":"AT","name":"Hainzenberg","_id":2776970,"coord":{"lon":11.90034,"lat":47.21788}},{"displayName":"Haiphong, VN","country":"VN","name":"Haiphong","_id":1581298,"coord":{"lon":106.68222,"lat":20.85611}},{"displayName":"Hairag, CN","country":"CN","name":"Hairag","_id":1809049,"coord":{"lon":100.416168,"lat":37.223171}},{"displayName":"Haishan, CN","country":"CN","name":"Haishan","_id":1919674,"coord":{"lon":116.945587,"lat":23.53414}},{"displayName":"Haisnes, FR","country":"FR","name":"Haisnes","_id":3014060,"coord":{"lon":2.79416,"lat":50.507759}},{"displayName":"Haitangwan, CN","country":"CN","name":"Haitangwan","_id":7632853,"coord":{"lon":109.750038,"lat":18.40337}},{"displayName":"Haiterbach, DE","country":"DE","name":"Haiterbach","_id":2911739,"coord":{"lon":8.65,"lat":48.533329}},{"displayName":"Haitou, CN","country":"CN","name":"Haitou","_id":6834870,"coord":{"lon":110.38295,"lat":21.20347}},{"displayName":"Haitou, CN","country":"CN","name":"Haitou","_id":1809033,"coord":{"lon":119.169724,"lat":34.933609}},{"displayName":"Haitou, CN","country":"CN","name":"Haitou","_id":1809034,"coord":{"lon":108.950539,"lat":19.50563}},{"displayName":"Haixing, CN","country":"CN","name":"Haixing","_id":7886687,"coord":{"lon":122.130341,"lat":40.276081}},{"displayName":"Haixiu, CN","country":"CN","name":"Haixiu","_id":7763411,"coord":{"lon":110.27607,"lat":20.01096}},{"displayName":"Haiyan, CN","country":"CN","name":"Haiyan","_id":1809013,"coord":{"lon":121.341797,"lat":32.144051}},{"displayName":"Haiyang, CN","country":"CN","name":"Haiyang","_id":1809023,"coord":{"lon":118.176979,"lat":29.786119}},{"displayName":"Haiyanmiao, CN","country":"CN","name":"Haiyanmiao","_id":1898918,"coord":{"lon":121.3993,"lat":30.22748}},{"displayName":"Haiyou, CN","country":"CN","name":"Haiyou","_id":1809010,"coord":{"lon":121.373444,"lat":29.123581}},{"displayName":"Haizhou, CN","country":"CN","name":"Haizhou","_id":1809003,"coord":{"lon":119.128891,"lat":34.581669}},{"displayName":"Haizhou, CN","country":"CN","name":"Haizhou","_id":7033215,"coord":{"lon":122.741508,"lat":40.848629}},{"displayName":"Haizhouwobao, CN","country":"CN","name":"Haizhouwobao","_id":7012548,"coord":{"lon":123.370819,"lat":42.938229}},{"displayName":"Haj ve Slezsku, CZ","country":"CZ","name":"Haj ve Slezsku","_id":3076001,"coord":{"lon":18.0954,"lat":49.89856}},{"displayName":"Hajan, IN","country":"IN","name":"Hajan","_id":1270529,"coord":{"lon":74.616669,"lat":34.299999}},{"displayName":"Hajar al Mushaikh, YE","country":"YE","name":"Hajar al Mushaikh","_id":79609,"coord":{"lon":47.833328,"lat":16.133329}},{"displayName":"Hajdubagos, HU","country":"HU","name":"Hajdubagos","_id":720295,"coord":{"lon":21.66551,"lat":47.392948}},{"displayName":"Hajduboszormeny, HU","country":"HU","name":"Hajduboszormeny","_id":720292,"coord":{"lon":21.51667,"lat":47.666672}},{"displayName":"Hajducica, RS","country":"RS","name":"Hajducica","_id":790063,"coord":{"lon":20.95722,"lat":45.249168}},{"displayName":"Hajdudorog, HU","country":"HU","name":"Hajdudorog","_id":720290,"coord":{"lon":21.5,"lat":47.816669}},{"displayName":"Hajduhadhaz, HU","country":"HU","name":"Hajduhadhaz","_id":720287,"coord":{"lon":21.66667,"lat":47.683331}},{"displayName":"Hajdunanas, HU","country":"HU","name":"Hajdunanas","_id":720284,"coord":{"lon":21.433331,"lat":47.849998}},{"displayName":"Hajdusamson, HU","country":"HU","name":"Hajdusamson","_id":720280,"coord":{"lon":21.76667,"lat":47.599998}},{"displayName":"Hajduszoboszlo, HU","country":"HU","name":"Hajduszoboszlo","_id":720276,"coord":{"lon":21.4,"lat":47.450001}},{"displayName":"Hajduszovat, HU","country":"HU","name":"Hajduszovat","_id":720274,"coord":{"lon":21.48333,"lat":47.383331}},{"displayName":"Hajdú-Bihar megye, HU","country":"HU","name":"Hajdú-Bihar megye","_id":720293,"coord":{"lon":21.5,"lat":47.416672}},{"displayName":"Hajen, DE","country":"DE","name":"Hajen","_id":2911729,"coord":{"lon":9.43743,"lat":52.0}},{"displayName":"Haji Khel, AF","country":"AF","name":"Haji Khel","_id":1140341,"coord":{"lon":69.433411,"lat":35.109219}},{"displayName":"Hajigabul Rayon, AZ","country":"AZ","name":"Hajigabul Rayon","_id":828315,"coord":{"lon":48.916672,"lat":40.083328}},{"displayName":"Hajiganj, BD","country":"BD","name":"Hajiganj","_id":1201753,"coord":{"lon":90.859169,"lat":23.25111}},{"displayName":"Hajin, SY","country":"SY","name":"Hajin","_id":174506,"coord":{"lon":40.827,"lat":34.692699}},{"displayName":"Hajipur, IN","country":"IN","name":"Hajipur","_id":1270525,"coord":{"lon":85.216667,"lat":25.683331}},{"displayName":"Hajipur, IN","country":"IN","name":"Hajipur","_id":1270523,"coord":{"lon":75.757782,"lat":31.975559}},{"displayName":"Hajjah, PS","country":"PS","name":"Hajjah","_id":283812,"coord":{"lon":35.130772,"lat":32.204269}},{"displayName":"Hajjah, YE","country":"YE","name":"Hajjah","_id":75337,"coord":{"lon":43.60582,"lat":15.69425}},{"displayName":"Hajmasker, HU","country":"HU","name":"Hajmasker","_id":3051881,"coord":{"lon":18.01964,"lat":47.14513}},{"displayName":"Hajnowka, PL","country":"PL","name":"Hajnowka","_id":771158,"coord":{"lon":23.581221,"lat":52.743279}},{"displayName":"Hajnówka, PL","country":"PL","name":"Hajnówka","_id":7532457,"coord":{"lon":23.5665,"lat":52.723598}},{"displayName":"Hajo, IN","country":"IN","name":"Hajo","_id":1270522,"coord":{"lon":91.533333,"lat":26.25}},{"displayName":"Hajoho, KM","country":"KM","name":"Hajoho","_id":1091076,"coord":{"lon":44.488331,"lat":-12.1175}},{"displayName":"Hajos, HU","country":"HU","name":"Hajos","_id":3051873,"coord":{"lon":19.12056,"lat":46.398609}},{"displayName":"Hajrat al Khinbish, SA","country":"SA","name":"Hajrat al Khinbish","_id":391699,"coord":{"lon":45.036751,"lat":27.78248}},{"displayName":"Hajuu-Us, MN","country":"MN","name":"Hajuu-Us","_id":2031088,"coord":{"lon":107.489548,"lat":46.049881}},{"displayName":"Hakab, CH","country":"CH","name":"Hakab","_id":6291292,"coord":{"lon":8.65954,"lat":47.451031}},{"displayName":"Hakai, CA","country":"CA","name":"Hakai","_id":8181708,"coord":{"lon":-128.131256,"lat":51.65448}},{"displayName":"Hakama, JO","country":"JO","name":"Hakama","_id":249318,"coord":{"lon":35.884109,"lat":32.594452}},{"displayName":"Hakeborn, DE","country":"DE","name":"Hakeborn","_id":2911725,"coord":{"lon":11.36667,"lat":51.916672}},{"displayName":"Haken felde, DE","country":"DE","name":"Haken felde","_id":6545287,"coord":{"lon":13.20819,"lat":52.558922}},{"displayName":"Hakenstedt, DE","country":"DE","name":"Hakenstedt","_id":2911700,"coord":{"lon":11.26667,"lat":52.183331}},{"displayName":"Hakha, MM","country":"MM","name":"Hakha","_id":1325443,"coord":{"lon":93.616669,"lat":22.65}},{"displayName":"Hakkari, TR","country":"TR","name":"Hakkari","_id":318137,"coord":{"lon":43.740829,"lat":37.57444}},{"displayName":"Hakkari, TR","country":"TR","name":"Hakkari","_id":312888,"coord":{"lon":44.166672,"lat":37.583328}},{"displayName":"Hakodate, JP","country":"JP","name":"Hakodate","_id":2130188,"coord":{"lon":140.736664,"lat":41.775829}},{"displayName":"Hakone, JP","country":"JP","name":"Hakone","_id":1863357,"coord":{"lon":139.033325,"lat":35.183331}},{"displayName":"Hakonegasaki, JP","country":"JP","name":"Hakonegasaki","_id":1863356,"coord":{"lon":139.351105,"lat":35.76944}},{"displayName":"Hakui, JP","country":"JP","name":"Hakui","_id":1863341,"coord":{"lon":136.783325,"lat":36.883331}},{"displayName":"Hala, PK","country":"PK","name":"Hala","_id":1177278,"coord":{"lon":68.422729,"lat":25.81308}},{"displayName":"Halabjah, IQ","country":"IQ","name":"Halabjah","_id":96205,"coord":{"lon":45.986111,"lat":35.17778}},{"displayName":"Halacho, MX","country":"MX","name":"Halacho","_id":3527164,"coord":{"lon":-90.083328,"lat":20.48333}},{"displayName":"Halalca, TR","country":"TR","name":"Halalca","_id":312872,"coord":{"lon":27.93944,"lat":39.634441}},{"displayName":"Halapitan, PH","country":"PH","name":"Halapitan","_id":1711958,"coord":{"lon":125.330002,"lat":7.9175}},{"displayName":"Halastó, HU","country":"HU","name":"Halastó","_id":3051839,"coord":{"lon":19.299999,"lat":48.083328}},{"displayName":"Halaszi, HU","country":"HU","name":"Halaszi","_id":3051829,"coord":{"lon":17.326151,"lat":47.889301}},{"displayName":"Halasztelek, HU","country":"HU","name":"Halasztelek","_id":3051822,"coord":{"lon":18.98119,"lat":47.361729}},{"displayName":"Halat, ID","country":"ID","name":"Halat","_id":7463779,"coord":{"lon":122.207298,"lat":-8.6832}},{"displayName":"Halaucesti, RO","country":"RO","name":"Halaucesti","_id":676371,"coord":{"lon":26.799999,"lat":47.099998}},{"displayName":"Halawa Heights, US","country":"US","name":"Halawa Heights","_id":5855327,"coord":{"lon":-157.918335,"lat":21.38167}},{"displayName":"Halawa, US","country":"US","name":"Halawa","_id":5855319,"coord":{"lon":-157.921677,"lat":21.37944}},{"displayName":"Halawah, JO","country":"JO","name":"Halawah","_id":249310,"coord":{"lon":35.661469,"lat":32.38464}},{"displayName":"Halayhay, PH","country":"PH","name":"Halayhay","_id":1711955,"coord":{"lon":120.813332,"lat":14.37389}},{"displayName":"Halayhayin, PH","country":"PH","name":"Halayhayin","_id":1711954,"coord":{"lon":121.407501,"lat":14.1891}},{"displayName":"Halba, LB","country":"LB","name":"Halba","_id":274723,"coord":{"lon":36.07972,"lat":34.542782}},{"displayName":"Halbach, DE","country":"DE","name":"Halbach","_id":2911695,"coord":{"lon":7.2,"lat":51.200001}},{"displayName":"Halban, MN","country":"MN","name":"Halban","_id":1515882,"coord":{"lon":97.740898,"lat":49.52877}},{"displayName":"Halbe, DE","country":"DE","name":"Halbe","_id":6547564,"coord":{"lon":13.7,"lat":52.116699}},{"displayName":"Halbe, DE","country":"DE","name":"Halbe","_id":2911691,"coord":{"lon":13.7,"lat":52.116669}},{"displayName":"Halbemond, DE","country":"DE","name":"Halbemond","_id":6552861,"coord":{"lon":7.28478,"lat":53.5676}},{"displayName":"Halbemond, DE","country":"DE","name":"Halbemond","_id":2911683,"coord":{"lon":7.28333,"lat":53.566669}},{"displayName":"Halbendorf, DE","country":"DE","name":"Halbendorf","_id":2911682,"coord":{"lon":14.6,"lat":50.916672}},{"displayName":"Halbenrain, AT","country":"AT","name":"Halbenrain","_id":7873535,"coord":{"lon":15.93143,"lat":46.73019}},{"displayName":"Halbenrain, AT","country":"AT","name":"Halbenrain","_id":2776959,"coord":{"lon":15.94667,"lat":46.721939}},{"displayName":"Halbersdorf, DE","country":"DE","name":"Halbersdorf","_id":2911667,"coord":{"lon":10.63333,"lat":49.866669}},{"displayName":"Halberstadt, DE","country":"DE","name":"Halberstadt","_id":2911665,"coord":{"lon":11.05,"lat":51.900002}},{"displayName":"Halblech, DE","country":"DE","name":"Halblech","_id":6557232,"coord":{"lon":10.8276,"lat":47.640999}},{"displayName":"Halblech, DE","country":"DE","name":"Halblech","_id":2911648,"coord":{"lon":10.81398,"lat":47.624222}},{"displayName":"Halbs, DE","country":"DE","name":"Halbs","_id":6554215,"coord":{"lon":7.96667,"lat":50.583302}},{"displayName":"Halbs, DE","country":"DE","name":"Halbs","_id":2911641,"coord":{"lon":7.96667,"lat":50.583328}},{"displayName":"Halbturn, AT","country":"AT","name":"Halbturn","_id":7872717,"coord":{"lon":17.00675,"lat":47.860531}},{"displayName":"Halbturn, AT","country":"AT","name":"Halbturn","_id":2776957,"coord":{"lon":16.97542,"lat":47.87019}},{"displayName":"Halbury, AU","country":"AU","name":"Halbury","_id":2070205,"coord":{"lon":138.516663,"lat":-34.083328}},{"displayName":"Halbweg, DE","country":"DE","name":"Halbweg","_id":2911640,"coord":{"lon":9.0,"lat":53.950001}},{"displayName":"Halchiu, RO","country":"RO","name":"Halchiu","_id":676368,"coord":{"lon":25.549999,"lat":45.76667}},{"displayName":"Halcombe, NZ","country":"NZ","name":"Halcombe","_id":2190358,"coord":{"lon":175.5,"lat":-40.150002}},{"displayName":"Haldaur, IN","country":"IN","name":"Haldaur","_id":1270509,"coord":{"lon":78.283333,"lat":29.299999}},{"displayName":"Halde, DE","country":"DE","name":"Halde","_id":2911634,"coord":{"lon":10.35,"lat":47.683331}},{"displayName":"Haldem, DE","country":"DE","name":"Haldem","_id":2911631,"coord":{"lon":8.38333,"lat":52.433331}},{"displayName":"Halden, NO","country":"NO","name":"Halden","_id":3154209,"coord":{"lon":11.38754,"lat":59.124779}},{"displayName":"Halden, NO","country":"NO","name":"Halden","_id":6453395,"coord":{"lon":11.38709,"lat":59.122581}},{"displayName":"Haldensleben, DE","country":"DE","name":"Haldensleben","_id":2911584,"coord":{"lon":11.40982,"lat":52.289059}},{"displayName":"Haldenstein, CH","country":"CH","name":"Haldenstein","_id":7286026,"coord":{"lon":9.50086,"lat":46.881641}},{"displayName":"Haldenstein, CH","country":"CH","name":"Haldenstein","_id":2660420,"coord":{"lon":9.52618,"lat":46.87867}},{"displayName":"Haldenwang, DE","country":"DE","name":"Haldenwang","_id":6557178,"coord":{"lon":10.45,"lat":48.4333}},{"displayName":"Haldenwang, DE","country":"DE","name":"Haldenwang","_id":2911579,"coord":{"lon":10.44817,"lat":48.43763}},{"displayName":"Haldenwang, DE","country":"DE","name":"Haldenwang","_id":6557307,"coord":{"lon":10.35,"lat":47.799999}},{"displayName":"Haldenwang, DE","country":"DE","name":"Haldenwang","_id":2911580,"coord":{"lon":10.35,"lat":47.799999}},{"displayName":"Haldern, DE","country":"DE","name":"Haldern","_id":2911575,"coord":{"lon":6.46667,"lat":51.76667}},{"displayName":"Haldia, IN","country":"IN","name":"Haldia","_id":1344377,"coord":{"lon":88.109749,"lat":22.060459}},{"displayName":"Haldibari, IN","country":"IN","name":"Haldibari","_id":1270504,"coord":{"lon":88.76667,"lat":26.33333}},{"displayName":"Haldimand County, CA","country":"CA","name":"Haldimand County","_id":5969093,"coord":{"lon":-79.866333,"lat":42.98341}},{"displayName":"Haldwani, IN","country":"IN","name":"Haldwani","_id":1270498,"coord":{"lon":79.51667,"lat":29.216669}},{"displayName":"Hale Center, US","country":"US","name":"Hale Center","_id":5522714,"coord":{"lon":-101.843788,"lat":34.06424}},{"displayName":"Hale County, US","country":"US","name":"Hale County","_id":4065796,"coord":{"lon":-87.633339,"lat":32.758739}},{"displayName":"Hale County, US","country":"US","name":"Hale County","_id":5522717,"coord":{"lon":-101.833794,"lat":34.066738}},{"displayName":"Hale, GB","country":"GB","name":"Hale","_id":2647644,"coord":{"lon":-0.78333,"lat":51.216671}},{"displayName":"Hale, GB","country":"GB","name":"Hale","_id":6640028,"coord":{"lon":-2.33271,"lat":53.378311}},{"displayName":"Hale, GB","country":"GB","name":"Hale","_id":2647643,"coord":{"lon":-2.8,"lat":53.333328}},{"displayName":"Halebank, GB","country":"GB","name":"Halebank","_id":7295223,"coord":{"lon":-2.78873,"lat":53.345982}},{"displayName":"Haledon, US","country":"US","name":"Haledon","_id":5098794,"coord":{"lon":-74.186256,"lat":40.93565}},{"displayName":"Haleine, FR","country":"FR","name":"Haleine","_id":6614688,"coord":{"lon":-0.44269,"lat":48.51675}},{"displayName":"Haleine, FR","country":"FR","name":"Haleine","_id":3014057,"coord":{"lon":-0.44269,"lat":48.51675}},{"displayName":"Haleiwa, US","country":"US","name":"Haleiwa","_id":5855420,"coord":{"lon":-158.112503,"lat":21.590281}},{"displayName":"Halen, BE","country":"BE","name":"Halen","_id":2796716,"coord":{"lon":5.11216,"lat":50.948689}},{"displayName":"Halen, BE","country":"BE","name":"Halen","_id":2796715,"coord":{"lon":5.11096,"lat":50.948372}},{"displayName":"Halen, CH","country":"CH","name":"Halen","_id":2660419,"coord":{"lon":7.41749,"lat":46.973461}},{"displayName":"Halena, IN","country":"IN","name":"Halena","_id":1270495,"coord":{"lon":77.150002,"lat":27.116667}},{"displayName":"Halenbeck, DE","country":"DE","name":"Halenbeck","_id":2911566,"coord":{"lon":12.31667,"lat":53.25}},{"displayName":"Halenhorst, DE","country":"DE","name":"Halenhorst","_id":2911561,"coord":{"lon":8.15,"lat":52.98333}},{"displayName":"Halenkov, CZ","country":"CZ","name":"Halenkov","_id":3075997,"coord":{"lon":18.14749,"lat":49.317402}},{"displayName":"Halenkovice, CZ","country":"CZ","name":"Halenkovice","_id":3075996,"coord":{"lon":17.47156,"lat":49.171021}},{"displayName":"Hales Corners, US","country":"US","name":"Hales Corners","_id":5255320,"coord":{"lon":-88.048698,"lat":42.937519}},{"displayName":"Hales Crossing, US","country":"US","name":"Hales Crossing","_id":4938625,"coord":{"lon":-72.56398,"lat":42.654251}},{"displayName":"Halesite, US","country":"US","name":"Halesite","_id":5119742,"coord":{"lon":-73.415398,"lat":40.888432}},{"displayName":"Halesowen, GB","country":"GB","name":"Halesowen","_id":2647639,"coord":{"lon":-2.04938,"lat":52.448589}},{"displayName":"Halesworth, GB","country":"GB","name":"Halesworth","_id":2647638,"coord":{"lon":1.5029,"lat":52.346401}},{"displayName":"Haley Station, CA","country":"CA","name":"Haley Station","_id":5969145,"coord":{"lon":-76.782722,"lat":45.566811}},{"displayName":"Haleyville, US","country":"US","name":"Haleyville","_id":4065830,"coord":{"lon":-87.621407,"lat":34.22649}},{"displayName":"Half Moon Bay, US","country":"US","name":"Half Moon Bay","_id":5354943,"coord":{"lon":-122.428589,"lat":37.463551}},{"displayName":"Half Moon, US","country":"US","name":"Half Moon","_id":4469607,"coord":{"lon":-77.459412,"lat":34.826}},{"displayName":"Half Way Tree, JM","country":"JM","name":"Half Way Tree","_id":3490165,"coord":{"lon":-76.799278,"lat":18.01248}},{"displayName":"Half Way Tree, KN","country":"KN","name":"Half Way Tree","_id":3575384,"coord":{"lon":-62.816669,"lat":17.33333}},{"displayName":"Halfaya, SY","country":"SY","name":"Halfaya","_id":170044,"coord":{"lon":36.605721,"lat":35.259949}},{"displayName":"Halfeti, TR","country":"TR","name":"Halfeti","_id":312862,"coord":{"lon":37.868961,"lat":37.247292}},{"displayName":"Halfing, DE","country":"DE","name":"Halfing","_id":6556367,"coord":{"lon":12.2791,"lat":47.952499}},{"displayName":"Halfing, DE","country":"DE","name":"Halfing","_id":2911556,"coord":{"lon":12.27525,"lat":47.951969}},{"displayName":"Halfmoon Bay, CA","country":"CA","name":"Halfmoon Bay","_id":5969185,"coord":{"lon":-123.919441,"lat":49.51635}},{"displayName":"Halfway House, US","country":"US","name":"Halfway House","_id":5192391,"coord":{"lon":-75.643242,"lat":40.28204}},{"displayName":"Halfway House, ZA","country":"ZA","name":"Halfway House","_id":998210,"coord":{"lon":28.126369,"lat":-26.00526}},{"displayName":"Halfway Town (historical), US","country":"US","name":"Halfway Town (historical)","_id":4627102,"coord":{"lon":-84.084633,"lat":35.536751}},{"displayName":"Halfway, US","country":"US","name":"Halfway","_id":4357176,"coord":{"lon":-77.758881,"lat":39.620651}},{"displayName":"Halhul, PS","country":"PS","name":"Halhul","_id":283806,"coord":{"lon":35.105438,"lat":31.578581}},{"displayName":"Haliburton, CA","country":"CA","name":"Haliburton","_id":6942554,"coord":{"lon":-78.507607,"lat":45.045872}},{"displayName":"Halidere, TR","country":"TR","name":"Halidere","_id":862940,"coord":{"lon":29.75223,"lat":40.716042}},{"displayName":"Halifax County, US","country":"US","name":"Halifax County","_id":4469619,"coord":{"lon":-77.649696,"lat":36.250149}},{"displayName":"Halifax, CA","country":"CA","name":"Halifax","_id":6324729,"coord":{"lon":-63.572392,"lat":44.645329}},{"displayName":"Halifax, CA","country":"CA","name":"Halifax","_id":5969423,"coord":{"lon":-63.57333,"lat":44.646}},{"displayName":"Halifax, GB","country":"GB","name":"Halifax","_id":2647632,"coord":{"lon":-1.85,"lat":53.716671}},{"displayName":"Halifax, US","country":"US","name":"Halifax","_id":4469617,"coord":{"lon":-77.589417,"lat":36.328491}},{"displayName":"Halifax, US","country":"US","name":"Halifax","_id":4762755,"coord":{"lon":-78.928337,"lat":36.765968}},{"displayName":"Halifax, US","country":"US","name":"Halifax","_id":4938652,"coord":{"lon":-70.861977,"lat":41.991211}},{"displayName":"Haligue, PH","country":"PH","name":"Haligue","_id":1711943,"coord":{"lon":121.116669,"lat":13.66667}},{"displayName":"Halikko, FI","country":"FI","name":"Halikko","_id":659350,"coord":{"lon":23.08333,"lat":60.400002}},{"displayName":"Halimpu, ID","country":"ID","name":"Halimpu","_id":7857768,"coord":{"lon":107.666801,"lat":-7.4333}},{"displayName":"Halinga vald, EE","country":"EE","name":"Halinga vald","_id":7522271,"coord":{"lon":24.480511,"lat":58.625858}},{"displayName":"Halingerort, DE","country":"DE","name":"Halingerort","_id":2911544,"coord":{"lon":8.48333,"lat":52.366669}},{"displayName":"Halinow, PL","country":"PL","name":"Halinow","_id":771150,"coord":{"lon":21.355101,"lat":52.228802}},{"displayName":"Halisahar, IN","country":"IN","name":"Halisahar","_id":1270484,"coord":{"lon":88.419441,"lat":22.94972}},{"displayName":"Haliun, MN","country":"MN","name":"Haliun","_id":1515878,"coord":{"lon":96.162392,"lat":45.9296}},{"displayName":"Haliut, CN","country":"CN","name":"Haliut","_id":2037045,"coord":{"lon":108.519722,"lat":41.55611}},{"displayName":"Haliyal, IN","country":"IN","name":"Haliyal","_id":1270482,"coord":{"lon":74.76667,"lat":15.33333}},{"displayName":"Haljala vald, EE","country":"EE","name":"Haljala vald","_id":7522272,"coord":{"lon":26.22015,"lat":59.454269}},{"displayName":"Haljala, EE","country":"EE","name":"Haljala","_id":592200,"coord":{"lon":26.261391,"lat":59.433609}},{"displayName":"Haljarp, SE","country":"SE","name":"Haljarp","_id":2708889,"coord":{"lon":15.45,"lat":57.633331}},{"displayName":"Halkalı, TR","country":"TR","name":"Halkalı","_id":745977,"coord":{"lon":28.78944,"lat":41.036671}},{"displayName":"Halkapinar, TR","country":"TR","name":"Halkapinar","_id":312817,"coord":{"lon":34.187431,"lat":37.433941}},{"displayName":"Halkirk, CA","country":"CA","name":"Halkirk","_id":5969452,"coord":{"lon":-112.151817,"lat":52.28344}},{"displayName":"Halkyn, GB","country":"GB","name":"Halkyn","_id":2647629,"coord":{"lon":-3.19016,"lat":53.225559}},{"displayName":"Hall Beach, CA","country":"CA","name":"Hall Beach","_id":5969475,"coord":{"lon":-81.235977,"lat":68.791344}},{"displayName":"Hall County, US","country":"US","name":"Hall County","_id":4198821,"coord":{"lon":-83.783234,"lat":34.316769}},{"displayName":"Hall County, US","country":"US","name":"Hall County","_id":5069587,"coord":{"lon":-98.5009,"lat":40.86668}},{"displayName":"Hall in Tirol, AT","country":"AT","name":"Hall in Tirol","_id":7873622,"coord":{"lon":11.50225,"lat":47.281212}},{"displayName":"Hall in Tirol, AT","country":"AT","name":"Hall in Tirol","_id":2764958,"coord":{"lon":11.51667,"lat":47.283329}},{"displayName":"Hall Park, US","country":"US","name":"Hall Park","_id":4538234,"coord":{"lon":-97.406418,"lat":35.237011}},{"displayName":"Hall, AT","country":"AT","name":"Hall","_id":7872439,"coord":{"lon":14.44597,"lat":47.617599}},{"displayName":"Hall, AT","country":"AT","name":"Hall","_id":2776954,"coord":{"lon":14.45,"lat":47.599998}},{"displayName":"Hallabrottet, SE","country":"SE","name":"Hallabrottet","_id":2708821,"coord":{"lon":15.2,"lat":59.116669}},{"displayName":"Hallam, AU","country":"AU","name":"Hallam","_id":2164062,"coord":{"lon":145.266663,"lat":-38.01667}},{"displayName":"Hallam, US","country":"US","name":"Hallam","_id":5192413,"coord":{"lon":-76.604134,"lat":40.004822}},{"displayName":"Hallandale Beach, US","country":"US","name":"Hallandale Beach","_id":4157898,"coord":{"lon":-80.148376,"lat":25.981199}},{"displayName":"Hallands Län, SE","country":"SE","name":"Hallands Län","_id":2708794,"coord":{"lon":13.0,"lat":56.75}},{"displayName":"Hallau, CH","country":"CH","name":"Hallau","_id":7286027,"coord":{"lon":8.44315,"lat":47.70047}},{"displayName":"Hallau, CH","country":"CH","name":"Hallau","_id":2660418,"coord":{"lon":8.45827,"lat":47.69648}},{"displayName":"Hallbach, DE","country":"DE","name":"Hallbach","_id":2911533,"coord":{"lon":13.31667,"lat":50.700001}},{"displayName":"Hallbergmoos, DE","country":"DE","name":"Hallbergmoos","_id":6556203,"coord":{"lon":11.744,"lat":48.309502}},{"displayName":"Hallbergmoos, DE","country":"DE","name":"Hallbergmoos","_id":2911530,"coord":{"lon":11.75142,"lat":48.327469}},{"displayName":"Hallbybrunn, SE","country":"SE","name":"Hallbybrunn","_id":2708710,"coord":{"lon":16.433331,"lat":59.383331}},{"displayName":"Halle (Saale), DE","country":"DE","name":"Halle (Saale)","_id":2911522,"coord":{"lon":12.0,"lat":51.5}},{"displayName":"Halle Neustadt, DE","country":"DE","name":"Halle Neustadt","_id":7289614,"coord":{"lon":11.91605,"lat":51.47924}},{"displayName":"Halle, BE","country":"BE","name":"Halle","_id":2796697,"coord":{"lon":4.64636,"lat":51.24118}},{"displayName":"Halle, BE","country":"BE","name":"Halle","_id":2796696,"coord":{"lon":4.23454,"lat":50.733849}},{"displayName":"Halle, DE","country":"DE","name":"Halle","_id":2911520,"coord":{"lon":8.36667,"lat":52.066669}},{"displayName":"Halle, DE","country":"DE","name":"Halle","_id":6552506,"coord":{"lon":9.56667,"lat":51.983299}},{"displayName":"Halle, DE","country":"DE","name":"Halle","_id":2911521,"coord":{"lon":9.56532,"lat":51.991219}},{"displayName":"Hallebourg, CA","country":"CA","name":"Hallebourg","_id":5969494,"coord":{"lon":-83.516533,"lat":49.66692}},{"displayName":"Halleforsnas, SE","country":"SE","name":"Halleforsnas","_id":2708663,"coord":{"lon":16.5,"lat":59.166672}},{"displayName":"Hallein, AT","country":"AT","name":"Hallein","_id":7872197,"coord":{"lon":13.09146,"lat":47.682739}},{"displayName":"Hallein, AT","country":"AT","name":"Hallein","_id":2776951,"coord":{"lon":13.1,"lat":47.683331}},{"displayName":"Hallenberg, DE","country":"DE","name":"Hallenberg","_id":2911514,"coord":{"lon":8.63333,"lat":51.116669}},{"displayName":"Hallencourt, FR","country":"FR","name":"Hallencourt","_id":3014050,"coord":{"lon":1.87649,"lat":49.992008}},{"displayName":"Hallennes-lez-Haubourdin, FR","country":"FR","name":"Hallennes-lez-Haubourdin","_id":3014049,"coord":{"lon":2.96667,"lat":50.616669}},{"displayName":"Haller, CH","country":"CH","name":"Haller","_id":6291169,"coord":{"lon":8.60483,"lat":47.500488}},{"displayName":"Haller, LU","country":"LU","name":"Haller","_id":2960497,"coord":{"lon":6.2825,"lat":49.8125}},{"displayName":"Hallering, FR","country":"FR","name":"Hallering","_id":6437558,"coord":{"lon":6.55,"lat":49.116669}},{"displayName":"Hallering, FR","country":"FR","name":"Hallering","_id":3014048,"coord":{"lon":6.55308,"lat":49.120159}},{"displayName":"Hallerndorf, DE","country":"DE","name":"Hallerndorf","_id":6556781,"coord":{"lon":10.9833,"lat":49.766701}},{"displayName":"Hallerndorf, DE","country":"DE","name":"Hallerndorf","_id":2911491,"coord":{"lon":10.97946,"lat":49.75909}},{"displayName":"Hallerowo, PL","country":"PL","name":"Hallerowo","_id":3098048,"coord":{"lon":18.40206,"lat":54.798729}},{"displayName":"Hallett, AU","country":"AU","name":"Hallett","_id":2070185,"coord":{"lon":138.883331,"lat":-33.400002}},{"displayName":"Hallettsville, US","country":"US","name":"Hallettsville","_id":4695866,"coord":{"lon":-96.941093,"lat":29.44385}},{"displayName":"Hallgarten, DE","country":"DE","name":"Hallgarten","_id":6553492,"coord":{"lon":7.78333,"lat":49.766701}},{"displayName":"Hallgarten, DE","country":"DE","name":"Hallgarten","_id":2911483,"coord":{"lon":7.78333,"lat":49.76667}},{"displayName":"Hallines, FR","country":"FR","name":"Hallines","_id":3014044,"coord":{"lon":2.22629,"lat":50.710869}},{"displayName":"Halling, GB","country":"GB","name":"Halling","_id":2647616,"coord":{"lon":0.4452,"lat":51.351421}},{"displayName":"Hallock, US","country":"US","name":"Hallock","_id":5029154,"coord":{"lon":-96.946449,"lat":48.774429}},{"displayName":"Hallora, AU","country":"AU","name":"Hallora","_id":2164054,"coord":{"lon":145.833328,"lat":-38.26667}},{"displayName":"Hallowell, US","country":"US","name":"Hallowell","_id":4966320,"coord":{"lon":-69.790878,"lat":44.2859}},{"displayName":"Halls Creek, AU","country":"AU","name":"Halls Creek","_id":7839513,"coord":{"lon":127.452042,"lat":-19.00069}},{"displayName":"Halls Creek, AU","country":"AU","name":"Halls Creek","_id":2070176,"coord":{"lon":127.76667,"lat":-18.26667}},{"displayName":"Halls Gap, AU","country":"AU","name":"Halls Gap","_id":2164044,"coord":{"lon":142.519257,"lat":-37.139111}},{"displayName":"Halls Harbour, CA","country":"CA","name":"Halls Harbour","_id":5969607,"coord":{"lon":-64.615471,"lat":45.20015}},{"displayName":"Halls, US","country":"US","name":"Halls","_id":4627194,"coord":{"lon":-89.396179,"lat":35.875629}},{"displayName":"Hallsberg, SE","country":"SE","name":"Hallsberg","_id":2708511,"coord":{"lon":15.11174,"lat":59.065701}},{"displayName":"Hallschlag, DE","country":"DE","name":"Hallschlag","_id":6554691,"coord":{"lon":6.43333,"lat":50.349998}},{"displayName":"Hallschlag, DE","country":"DE","name":"Hallschlag","_id":2911464,"coord":{"lon":6.43333,"lat":50.349998}},{"displayName":"Hallstadt, DE","country":"DE","name":"Hallstadt","_id":2911463,"coord":{"lon":10.87539,"lat":49.929008}},{"displayName":"Hallstahammar, SE","country":"SE","name":"Hallstahammar","_id":2708429,"coord":{"lon":16.22846,"lat":59.613949}},{"displayName":"Hallstavik, SE","country":"SE","name":"Hallstavik","_id":2708426,"coord":{"lon":18.6,"lat":60.049999}},{"displayName":"Hallstead, US","country":"US","name":"Hallstead","_id":5192431,"coord":{"lon":-75.74324,"lat":41.961189}},{"displayName":"Hallston, AU","country":"AU","name":"Hallston","_id":2164042,"coord":{"lon":146.033325,"lat":-38.366669}},{"displayName":"Hallsville, US","country":"US","name":"Hallsville","_id":4389293,"coord":{"lon":-92.220741,"lat":39.116989}},{"displayName":"Hallsville, US","country":"US","name":"Hallsville","_id":4695894,"coord":{"lon":-94.574089,"lat":32.504318}},{"displayName":"Halluin, FR","country":"FR","name":"Halluin","_id":6438272,"coord":{"lon":3.13333,"lat":50.783329}},{"displayName":"Halluin, FR","country":"FR","name":"Halluin","_id":3014034,"coord":{"lon":3.12611,"lat":50.786282}},{"displayName":"Hallum, NL","country":"NL","name":"Hallum","_id":2754930,"coord":{"lon":5.78379,"lat":53.306568}},{"displayName":"Hallungen, DE","country":"DE","name":"Hallungen","_id":6549877,"coord":{"lon":10.3333,"lat":51.133301}},{"displayName":"Hallungen, DE","country":"DE","name":"Hallungen","_id":2911461,"coord":{"lon":10.33333,"lat":51.133331}},{"displayName":"Hallwang, AT","country":"AT","name":"Hallwang","_id":7873296,"coord":{"lon":13.09128,"lat":47.84676}},{"displayName":"Hallwang, AT","country":"AT","name":"Hallwang","_id":2776938,"coord":{"lon":13.08333,"lat":47.849998}},{"displayName":"Halmagel, RO","country":"RO","name":"Halmagel","_id":676358,"coord":{"lon":22.616671,"lat":46.26667}},{"displayName":"Halmagiu, RO","country":"RO","name":"Halmagiu","_id":676356,"coord":{"lon":22.58333,"lat":46.26667}},{"displayName":"Halmaj, HU","country":"HU","name":"Halmaj","_id":720228,"coord":{"lon":21.0,"lat":48.25}},{"displayName":"Halmasd, RO","country":"RO","name":"Halmasd","_id":676354,"coord":{"lon":22.616671,"lat":47.150002}},{"displayName":"Halmeu, RO","country":"RO","name":"Halmeu","_id":676351,"coord":{"lon":23.01667,"lat":47.966671}},{"displayName":"Halmstad, SE","country":"SE","name":"Halmstad","_id":2708365,"coord":{"lon":12.85676,"lat":56.674461}},{"displayName":"Halmstad, SE","country":"SE","name":"Halmstad","_id":2708366,"coord":{"lon":13.03333,"lat":55.950001}},{"displayName":"Halmstads Kommun, SE","country":"SE","name":"Halmstads Kommun","_id":2708363,"coord":{"lon":12.86667,"lat":56.700001}},{"displayName":"Halny, SK","country":"SK","name":"Halny","_id":3060151,"coord":{"lon":19.667219,"lat":48.81926}},{"displayName":"Halog West, PH","country":"PH","name":"Halog West","_id":1711941,"coord":{"lon":120.414703,"lat":16.3668}},{"displayName":"Halol, IN","country":"IN","name":"Halol","_id":1270474,"coord":{"lon":73.466667,"lat":22.5}},{"displayName":"Hals, DK","country":"DK","name":"Hals","_id":2620871,"coord":{"lon":10.30807,"lat":56.99609}},{"displayName":"Halsbach, DE","country":"DE","name":"Halsbach","_id":6559320,"coord":{"lon":12.68307,"lat":48.115711}},{"displayName":"Halsbach, DE","country":"DE","name":"Halsbach","_id":2911443,"coord":{"lon":12.68333,"lat":48.133331}},{"displayName":"Halsbrucke, DE","country":"DE","name":"Halsbrucke","_id":2911426,"coord":{"lon":13.35,"lat":50.950001}},{"displayName":"Halsbrücke, DE","country":"DE","name":"Halsbrücke","_id":6548518,"coord":{"lon":13.35,"lat":50.950001}},{"displayName":"Halsdorf, DE","country":"DE","name":"Halsdorf","_id":6554434,"coord":{"lon":6.36667,"lat":49.9333}},{"displayName":"Halsdorf, DE","country":"DE","name":"Halsdorf","_id":2911423,"coord":{"lon":6.36667,"lat":49.933331}},{"displayName":"Halsenbach, DE","country":"DE","name":"Halsenbach","_id":6553899,"coord":{"lon":7.55,"lat":50.166698}},{"displayName":"Halsenbach, DE","country":"DE","name":"Halsenbach","_id":2911419,"coord":{"lon":7.55,"lat":50.166672}},{"displayName":"Halsey, US","country":"US","name":"Halsey","_id":5729974,"coord":{"lon":-123.10981,"lat":44.38401}},{"displayName":"Halsham, GB","country":"GB","name":"Halsham","_id":2647606,"coord":{"lon":-0.0745,"lat":53.729851}},{"displayName":"Halshany, BY","country":"BY","name":"Halshany","_id":628317,"coord":{"lon":26.01368,"lat":54.2565}},{"displayName":"Halsnæs Kommune, DK","country":"DK","name":"Halsnæs Kommune","_id":6543941,"coord":{"lon":11.94214,"lat":55.967651}},{"displayName":"Halsou, FR","country":"FR","name":"Halsou","_id":6440408,"coord":{"lon":-1.41667,"lat":43.366669}},{"displayName":"Halsou, FR","country":"FR","name":"Halsou","_id":3014031,"coord":{"lon":-1.42436,"lat":43.376331}},{"displayName":"Halssila, FI","country":"FI","name":"Halssila","_id":659233,"coord":{"lon":25.792471,"lat":62.243271}},{"displayName":"Halssilanrinne, FI","country":"FI","name":"Halssilanrinne","_id":6692025,"coord":{"lon":25.80611,"lat":62.245831}},{"displayName":"Halstead, GB","country":"GB","name":"Halstead","_id":2647605,"coord":{"lon":0.13269,"lat":51.327961}},{"displayName":"Halstead, US","country":"US","name":"Halstead","_id":4272558,"coord":{"lon":-97.508652,"lat":38.0014}},{"displayName":"Halstenbek, DE","country":"DE","name":"Halstenbek","_id":6551682,"coord":{"lon":9.8372,"lat":53.6334}},{"displayName":"Halstenbek, DE","country":"DE","name":"Halstenbek","_id":2911408,"coord":{"lon":9.85,"lat":53.633331}},{"displayName":"Halsteren, NL","country":"NL","name":"Halsteren","_id":2754922,"coord":{"lon":4.26785,"lat":51.528339}},{"displayName":"Halstern, DE","country":"DE","name":"Halstern","_id":2911404,"coord":{"lon":8.7,"lat":52.23333}},{"displayName":"Halsua, FI","country":"FI","name":"Halsua","_id":659232,"coord":{"lon":24.25,"lat":63.416672}},{"displayName":"Halsua, FI","country":"FI","name":"Halsua","_id":659231,"coord":{"lon":24.16667,"lat":63.466671}},{"displayName":"Halswell, NZ","country":"NZ","name":"Halswell","_id":2190329,"coord":{"lon":172.566666,"lat":-43.583328}},{"displayName":"Halten, CH","country":"CH","name":"Halten","_id":2660415,"coord":{"lon":8.16667,"lat":46.900002}},{"displayName":"Haltern, DE","country":"DE","name":"Haltern","_id":2911395,"coord":{"lon":7.18163,"lat":51.74297}},{"displayName":"Halteu, ID","country":"ID","name":"Halteu","_id":7921660,"coord":{"lon":107.899101,"lat":-7.0836}},{"displayName":"Haltingen, DE","country":"DE","name":"Haltingen","_id":2911389,"coord":{"lon":7.61667,"lat":47.616669}},{"displayName":"Haltom City, US","country":"US","name":"Haltom City","_id":4695912,"coord":{"lon":-97.26918,"lat":32.799568}},{"displayName":"Halton, AU","country":"AU","name":"Halton","_id":2164036,"coord":{"lon":151.516663,"lat":-32.316669}},{"displayName":"Halton, GB","country":"GB","name":"Halton","_id":2647599,"coord":{"lon":-2.7,"lat":53.316669}},{"displayName":"Haltwhistle, GB","country":"GB","name":"Haltwhistle","_id":2647593,"coord":{"lon":-2.45682,"lat":54.971008}},{"displayName":"Halvad, IN","country":"IN","name":"Halvad","_id":1270466,"coord":{"lon":71.183327,"lat":23.01667}},{"displayName":"Halver, DE","country":"DE","name":"Halver","_id":2911384,"coord":{"lon":7.49817,"lat":51.186119}},{"displayName":"Halvesbostel, DE","country":"DE","name":"Halvesbostel","_id":6552632,"coord":{"lon":9.6,"lat":53.349998}},{"displayName":"Halvesbostel, DE","country":"DE","name":"Halvesbostel","_id":2911379,"coord":{"lon":9.6,"lat":53.349998}},{"displayName":"Halwan, EG","country":"EG","name":"Halwan","_id":355795,"coord":{"lon":31.30084,"lat":29.84144}},{"displayName":"Haly Creek, AU","country":"AU","name":"Haly Creek","_id":2164034,"coord":{"lon":151.75,"lat":-26.683331}},{"displayName":"Ham Lake, US","country":"US","name":"Ham Lake","_id":5029181,"coord":{"lon":-93.249947,"lat":45.25024}},{"displayName":"Ham, FR","country":"FR","name":"Ham","_id":3014029,"coord":{"lon":3.07301,"lat":49.747211}},{"displayName":"Ham, GB","country":"GB","name":"Ham","_id":6949212,"coord":{"lon":-0.30933,"lat":51.436192}},{"displayName":"Ham-Nord, CA","country":"CA","name":"Ham-Nord","_id":5969986,"coord":{"lon":-71.649094,"lat":45.90007}},{"displayName":"Ham-sous-Varsberg, FR","country":"FR","name":"Ham-sous-Varsberg","_id":3014006,"coord":{"lon":6.64626,"lat":49.180309}},{"displayName":"Hama, JP","country":"JP","name":"Hama","_id":1854585,"coord":{"lon":128.816666,"lat":32.650002}},{"displayName":"Hamada, JP","country":"JP","name":"Hamada","_id":1863310,"coord":{"lon":132.083328,"lat":34.883331}},{"displayName":"Hamadan, IR","country":"IR","name":"Hamadan","_id":132144,"coord":{"lon":48.514561,"lat":34.799221}},{"displayName":"Hamah, SY","country":"SY","name":"Hamah","_id":170017,"coord":{"lon":36.757832,"lat":35.13179}},{"displayName":"Hamakita, JP","country":"JP","name":"Hamakita","_id":1863293,"coord":{"lon":137.783325,"lat":34.799999}},{"displayName":"Hamamatsu, JP","country":"JP","name":"Hamamatsu","_id":1863289,"coord":{"lon":137.733337,"lat":34.700001}},{"displayName":"Hamamozu, TR","country":"TR","name":"Hamamozu","_id":745955,"coord":{"lon":35.025799,"lat":40.78476}},{"displayName":"Hamanaka, JP","country":"JP","name":"Hamanaka","_id":1863282,"coord":{"lon":139.783325,"lat":38.816669}},{"displayName":"Hamanoichi, JP","country":"JP","name":"Hamanoichi","_id":1863279,"coord":{"lon":130.733337,"lat":31.716669}},{"displayName":"Hamanose, JP","country":"JP","name":"Hamanose","_id":1863276,"coord":{"lon":135.149994,"lat":33.883331}},{"displayName":"Hamar, FO","country":"FO","name":"Hamar","_id":2620838,"coord":{"lon":-6.95,"lat":61.599998}},{"displayName":"Hamar, NO","country":"NO","name":"Hamar","_id":3154084,"coord":{"lon":11.06798,"lat":60.794498}},{"displayName":"Hamar, NO","country":"NO","name":"Hamar","_id":6453351,"coord":{"lon":11.0783,"lat":60.79451}},{"displayName":"Hamars, FR","country":"FR","name":"Hamars","_id":6427257,"coord":{"lon":-0.55,"lat":49.0}},{"displayName":"Hamars, FR","country":"FR","name":"Hamars","_id":3014027,"coord":{"lon":-0.54616,"lat":48.998329}},{"displayName":"Hamatang, CN","country":"CN","name":"Hamatang","_id":2037042,"coord":{"lon":129.499191,"lat":43.42305}},{"displayName":"Hamatonbetsu, JP","country":"JP","name":"Hamatonbetsu","_id":2131651,"coord":{"lon":142.383331,"lat":45.133331}},{"displayName":"Hamb, DE","country":"DE","name":"Hamb","_id":2911369,"coord":{"lon":6.38333,"lat":51.566669}},{"displayName":"Hambach, DE","country":"DE","name":"Hambach","_id":2911360,"coord":{"lon":6.45,"lat":50.900002}},{"displayName":"Hambach, DE","country":"DE","name":"Hambach","_id":2911364,"coord":{"lon":10.21667,"lat":50.099998}},{"displayName":"Hambach, DE","country":"DE","name":"Hambach","_id":6554035,"coord":{"lon":7.98333,"lat":50.400002}},{"displayName":"Hambach, DE","country":"DE","name":"Hambach","_id":2911362,"coord":{"lon":7.98333,"lat":50.400002}},{"displayName":"Hambach, FR","country":"FR","name":"Hambach","_id":3014026,"coord":{"lon":7.04246,"lat":49.06263}},{"displayName":"Hambantota, LK","country":"LK","name":"Hambantota","_id":1244926,"coord":{"lon":81.1185,"lat":6.1241}},{"displayName":"Hamberang Sabrang, ID","country":"ID","name":"Hamberang Sabrang","_id":7844329,"coord":{"lon":106.403198,"lat":-6.538}},{"displayName":"Hamberge, DE","country":"DE","name":"Hamberge","_id":6552272,"coord":{"lon":10.5833,"lat":53.833302}},{"displayName":"Hamberge, DE","country":"DE","name":"Hamberge","_id":2911325,"coord":{"lon":10.58333,"lat":53.833328}},{"displayName":"Hambergen, DE","country":"DE","name":"Hambergen","_id":6552705,"coord":{"lon":8.83333,"lat":53.3167}},{"displayName":"Hambergen, DE","country":"DE","name":"Hambergen","_id":2911322,"coord":{"lon":8.83333,"lat":53.316669}},{"displayName":"Hamble, GB","country":"GB","name":"Hamble","_id":2647585,"coord":{"lon":-1.32432,"lat":50.859661}},{"displayName":"Hamblen County, US","country":"US","name":"Hamblen County","_id":4627251,"coord":{"lon":-83.266563,"lat":36.200089}},{"displayName":"Hambleton District, GB","country":"GB","name":"Hambleton District","_id":7290607,"coord":{"lon":-1.33708,"lat":54.250259}},{"displayName":"Hambleton, GB","country":"GB","name":"Hambleton","_id":2647580,"coord":{"lon":-1.16667,"lat":53.76667}},{"displayName":"Hamborg, DE","country":"DE","name":"Hamborg","_id":2911318,"coord":{"lon":10.58687,"lat":52.87027}},{"displayName":"Hamborn, DE","country":"DE","name":"Hamborn","_id":2911314,"coord":{"lon":6.76667,"lat":51.48333}},{"displayName":"Hambrucken, DE","country":"DE","name":"Hambrucken","_id":2911308,"coord":{"lon":8.54056,"lat":49.189999}},{"displayName":"Hambrücken, DE","country":"DE","name":"Hambrücken","_id":6555609,"coord":{"lon":8.54056,"lat":49.189999}},{"displayName":"Hambuch, DE","country":"DE","name":"Hambuch","_id":6553689,"coord":{"lon":7.18333,"lat":50.233299}},{"displayName":"Hambuch, DE","country":"DE","name":"Hambuch","_id":2911306,"coord":{"lon":7.18333,"lat":50.23333}},{"displayName":"Hambuhren, DE","country":"DE","name":"Hambuhren","_id":2911300,"coord":{"lon":9.98333,"lat":52.633331}},{"displayName":"Hamburg, DE","country":"DE","name":"Hamburg","_id":2911298,"coord":{"lon":10.0,"lat":53.549999}},{"displayName":"Hamburg, Freie und Hansestadt, DE","country":"DE","name":"Hamburg, Freie und Hansestadt","_id":6547395,"coord":{"lon":10.0,"lat":53.549999}},{"displayName":"Hamburg, US","country":"US","name":"Hamburg","_id":4627266,"coord":{"lon":-88.304207,"lat":35.09481}},{"displayName":"Hamburg, US","country":"US","name":"Hamburg","_id":4859603,"coord":{"lon":-95.657768,"lat":40.60445}},{"displayName":"Hamburg, US","country":"US","name":"Hamburg","_id":4113607,"coord":{"lon":-91.79763,"lat":33.22818}},{"displayName":"Hamburg, US","country":"US","name":"Hamburg","_id":5098760,"coord":{"lon":-74.573479,"lat":41.148479}},{"displayName":"Hamburg, US","country":"US","name":"Hamburg","_id":5119833,"coord":{"lon":-78.829483,"lat":42.715889}},{"displayName":"Hamburg, US","country":"US","name":"Hamburg","_id":5192444,"coord":{"lon":-75.98188,"lat":40.555649}},{"displayName":"Hamburg-Mitte, DE","country":"DE","name":"Hamburg-Mitte","_id":2911288,"coord":{"lon":10.01667,"lat":53.549999}},{"displayName":"Hambye, FR","country":"FR","name":"Hambye","_id":6435433,"coord":{"lon":-1.26667,"lat":48.950001}},{"displayName":"Hambye, FR","country":"FR","name":"Hambye","_id":3014023,"coord":{"lon":-1.26417,"lat":48.947979}},{"displayName":"Hambühl, DE","country":"DE","name":"Hambühl","_id":2911301,"coord":{"lon":10.53333,"lat":49.616669}},{"displayName":"Hambühren, DE","country":"DE","name":"Hambühren","_id":6552558,"coord":{"lon":9.98333,"lat":52.633301}},{"displayName":"Hamcearca, RO","country":"RO","name":"Hamcearca","_id":676343,"coord":{"lon":28.366671,"lat":45.116669}},{"displayName":"Hamden, US","country":"US","name":"Hamden","_id":4835654,"coord":{"lon":-72.896767,"lat":41.395931}},{"displayName":"Hamdorf, DE","country":"DE","name":"Hamdorf","_id":2911283,"coord":{"lon":10.28333,"lat":53.98333}},{"displayName":"Hamdorf, DE","country":"DE","name":"Hamdorf","_id":6551851,"coord":{"lon":9.53333,"lat":54.233299}},{"displayName":"Hamdorf, DE","country":"DE","name":"Hamdorf","_id":2911282,"coord":{"lon":9.53333,"lat":54.23333}},{"displayName":"Hameenkyro, FI","country":"FI","name":"Hameenkyro","_id":659184,"coord":{"lon":23.195311,"lat":61.63913}},{"displayName":"Hameenlinna, FI","country":"FI","name":"Hameenlinna","_id":659180,"coord":{"lon":24.46434,"lat":60.99596}},{"displayName":"Hamel, AU","country":"AU","name":"Hamel","_id":2070172,"coord":{"lon":115.916672,"lat":-32.883331}},{"displayName":"Hameldon Hill, GB","country":"GB","name":"Hameldon Hill","_id":6947750,"coord":{"lon":-2.2919,"lat":53.755699}},{"displayName":"Hamelhausen, DE","country":"DE","name":"Hamelhausen","_id":2911275,"coord":{"lon":9.28293,"lat":52.780861}},{"displayName":"Hamelin, FR","country":"FR","name":"Hamelin","_id":6612583,"coord":{"lon":-1.21667,"lat":48.549999}},{"displayName":"Hamelin, FR","country":"FR","name":"Hamelin","_id":3014017,"coord":{"lon":-1.20856,"lat":48.543049}},{"displayName":"Hameln, DE","country":"DE","name":"Hameln","_id":2911271,"coord":{"lon":9.35623,"lat":52.10397}},{"displayName":"Hamersen, DE","country":"DE","name":"Hamersen","_id":6552728,"coord":{"lon":9.48333,"lat":53.25}},{"displayName":"Hamersen, DE","country":"DE","name":"Hamersen","_id":2911260,"coord":{"lon":9.48034,"lat":53.25592}},{"displayName":"Hamersleben, DE","country":"DE","name":"Hamersleben","_id":2911259,"coord":{"lon":11.08333,"lat":52.066669}},{"displayName":"Hamersley, AU","country":"AU","name":"Hamersley","_id":2070165,"coord":{"lon":115.807571,"lat":-31.84898}},{"displayName":"Hames-Boucres, FR","country":"FR","name":"Hames-Boucres","_id":3014014,"coord":{"lon":1.84338,"lat":50.881779}},{"displayName":"Hamfelde in Lauenburg, DE","country":"DE","name":"Hamfelde in Lauenburg","_id":2911251,"coord":{"lon":10.44817,"lat":53.596581}},{"displayName":"Hamgyŏng-bukto, KP","country":"KP","name":"Hamgyŏng-bukto","_id":2044245,"coord":{"lon":129.408325,"lat":41.903061}},{"displayName":"Hamgyŏng-namdo, KP","country":"KP","name":"Hamgyŏng-namdo","_id":1877450,"coord":{"lon":127.53083,"lat":40.240002}},{"displayName":"Hamhung, KP","country":"KP","name":"Hamhung","_id":1877449,"coord":{"lon":127.536392,"lat":39.918331}},{"displayName":"Hami, CN","country":"CN","name":"Hami","_id":1529484,"coord":{"lon":93.449997,"lat":42.799999}},{"displayName":"Hamich, DE","country":"DE","name":"Hamich","_id":2911250,"coord":{"lon":6.31667,"lat":50.783329}},{"displayName":"Hamidiyah, SY","country":"SY","name":"Hamidiyah","_id":173842,"coord":{"lon":35.94495,"lat":34.712551}},{"displayName":"Hamilton City, NZ","country":"NZ","name":"Hamilton City","_id":7910041,"coord":{"lon":175.25975,"lat":-37.777901}},{"displayName":"Hamilton City, US","country":"US","name":"Hamilton City","_id":5355074,"coord":{"lon":-122.013588,"lat":39.742661}},{"displayName":"Hamilton County, US","country":"US","name":"Hamilton County","_id":4695945,"coord":{"lon":-98.083641,"lat":31.71682}},{"displayName":"Hamilton County, US","country":"US","name":"Hamilton County","_id":4921085,"coord":{"lon":-86.008598,"lat":40.045589}},{"displayName":"Hamilton County, US","country":"US","name":"Hamilton County","_id":4513583,"coord":{"lon":-84.533279,"lat":39.183392}},{"displayName":"Hamilton County, US","country":"US","name":"Hamilton County","_id":5119847,"coord":{"lon":-74.50016,"lat":43.666729}},{"displayName":"Hamilton County, US","country":"US","name":"Hamilton County","_id":4859624,"coord":{"lon":-93.716881,"lat":42.383308}},{"displayName":"Hamilton County, US","country":"US","name":"Hamilton County","_id":4627306,"coord":{"lon":-85.149963,"lat":35.200069}},{"displayName":"Hamilton Square, US","country":"US","name":"Hamilton Square","_id":5098781,"coord":{"lon":-74.653214,"lat":40.227329}},{"displayName":"Hamilton, AU","country":"AU","name":"Hamilton","_id":2164025,"coord":{"lon":142.022018,"lat":-37.744251}},{"displayName":"Hamilton, AU","country":"AU","name":"Hamilton","_id":2207245,"coord":{"lon":153.066666,"lat":-27.441669}},{"displayName":"Hamilton, BM","country":"BM","name":"Hamilton","_id":3573198,"coord":{"lon":-64.783607,"lat":32.293892}},{"displayName":"Hamilton, BM","country":"BM","name":"Hamilton","_id":3573197,"coord":{"lon":-64.777969,"lat":32.291489}},{"displayName":"Hamilton, CA","country":"CA","name":"Hamilton","_id":5969782,"coord":{"lon":-79.849632,"lat":43.250111}},{"displayName":"Hamilton, CA","country":"CA","name":"Hamilton","_id":5969785,"coord":{"lon":-79.949638,"lat":43.23341}},{"displayName":"Hamilton, GB","country":"GB","name":"Hamilton","_id":2647570,"coord":{"lon":-4.03333,"lat":55.76667}},{"displayName":"Hamilton, NZ","country":"NZ","name":"Hamilton","_id":2190324,"coord":{"lon":175.283325,"lat":-37.783329}},{"displayName":"Hamilton, US","country":"US","name":"Hamilton","_id":4513575,"coord":{"lon":-84.56134,"lat":39.399502}},{"displayName":"Hamilton, US","country":"US","name":"Hamilton","_id":4065965,"coord":{"lon":-87.98864,"lat":34.142319}},{"displayName":"Hamilton, US","country":"US","name":"Hamilton","_id":4198912,"coord":{"lon":-84.874931,"lat":32.757912}},{"displayName":"Hamilton, US","country":"US","name":"Hamilton","_id":4389309,"coord":{"lon":-93.998268,"lat":39.743622}},{"displayName":"Hamilton, US","country":"US","name":"Hamilton","_id":4695938,"coord":{"lon":-98.123917,"lat":31.70377}},{"displayName":"Hamilton, US","country":"US","name":"Hamilton","_id":4894981,"coord":{"lon":-91.339043,"lat":40.396431}},{"displayName":"Hamilton, US","country":"US","name":"Hamilton","_id":4921083,"coord":{"lon":-84.912743,"lat":41.533661}},{"displayName":"Hamilton, US","country":"US","name":"Hamilton","_id":4938697,"coord":{"lon":-71.76757,"lat":42.256199}},{"displayName":"Hamilton, US","country":"US","name":"Hamilton","_id":5119842,"coord":{"lon":-75.544617,"lat":42.827011}},{"displayName":"Hamilton, US","country":"US","name":"Hamilton","_id":5655959,"coord":{"lon":-114.16037,"lat":46.246868}},{"displayName":"Hamim, US","country":"US","name":"Hamim","_id":4293895,"coord":{"lon":-83.313789,"lat":38.127579}},{"displayName":"Hamina, FI","country":"FI","name":"Hamina","_id":659171,"coord":{"lon":27.16667,"lat":60.549999}},{"displayName":"Hamina, FI","country":"FI","name":"Hamina","_id":659169,"coord":{"lon":27.197941,"lat":60.56974}},{"displayName":"Hamiota, CA","country":"CA","name":"Hamiota","_id":5969883,"coord":{"lon":-100.596992,"lat":50.180611}},{"displayName":"Hamirpur, IN","country":"IN","name":"Hamirpur","_id":1270454,"coord":{"lon":76.51667,"lat":31.683331}},{"displayName":"Hamirpur, IN","country":"IN","name":"Hamirpur","_id":1270455,"coord":{"lon":80.150002,"lat":25.950001}},{"displayName":"Hamiville, LU","country":"LU","name":"Hamiville","_id":2960494,"coord":{"lon":5.90417,"lat":50.046108}},{"displayName":"Hamlet, US","country":"US","name":"Hamlet","_id":4469730,"coord":{"lon":-79.694221,"lat":34.88488}},{"displayName":"Hamley Bridge, AU","country":"AU","name":"Hamley Bridge","_id":2070147,"coord":{"lon":138.683334,"lat":-34.366669}},{"displayName":"Hamlin, US","country":"US","name":"Hamlin","_id":4807976,"coord":{"lon":-82.102921,"lat":38.278702}},{"displayName":"Hamlin, US","country":"US","name":"Hamlin","_id":5119868,"coord":{"lon":-77.92112,"lat":43.30312}},{"displayName":"Hamlin, US","country":"US","name":"Hamlin","_id":5522769,"coord":{"lon":-100.126488,"lat":32.88483}},{"displayName":"Hamm, DE","country":"DE","name":"Hamm","_id":2911246,"coord":{"lon":6.6,"lat":49.566669}},{"displayName":"Hamm, DE","country":"DE","name":"Hamm","_id":2911240,"coord":{"lon":7.82089,"lat":51.680328}},{"displayName":"Hamm, DE","country":"DE","name":"Hamm","_id":2911242,"coord":{"lon":7.66667,"lat":50.76667}},{"displayName":"Hamm, DE","country":"DE","name":"Hamm","_id":6547434,"coord":{"lon":6.41667,"lat":50.016701}},{"displayName":"Hamm, DE","country":"DE","name":"Hamm","_id":2911243,"coord":{"lon":6.41667,"lat":50.01667}},{"displayName":"Hamm, Stadt, DE","country":"DE","name":"Hamm, Stadt","_id":6553135,"coord":{"lon":7.81335,"lat":51.68021}},{"displayName":"Hamma Bouziane, DZ","country":"DZ","name":"Hamma Bouziane","_id":2494610,"coord":{"lon":6.59603,"lat":36.412048}},{"displayName":"Hamma, DE","country":"DE","name":"Hamma","_id":6549839,"coord":{"lon":10.8833,"lat":51.416698}},{"displayName":"Hamma, DE","country":"DE","name":"Hamma","_id":2911233,"coord":{"lon":10.88333,"lat":51.416672}},{"displayName":"Hammah, DE","country":"DE","name":"Hammah","_id":6552799,"coord":{"lon":9.36667,"lat":53.616699}},{"displayName":"Hammah, DE","country":"DE","name":"Hammah","_id":2911230,"coord":{"lon":9.36667,"lat":53.616669}},{"displayName":"Hammam Ali, YE","country":"YE","name":"Hammam Ali","_id":75239,"coord":{"lon":44.147629,"lat":14.66371}},{"displayName":"Hammam Bou Hadjar, DZ","country":"DZ","name":"Hammam Bou Hadjar","_id":2494554,"coord":{"lon":-0.96778,"lat":35.378891}},{"displayName":"Hammam Damt, YE","country":"YE","name":"Hammam Damt","_id":408866,"coord":{"lon":44.670059,"lat":14.09031}},{"displayName":"Hammam Sousse, TN","country":"TN","name":"Hammam Sousse","_id":2470579,"coord":{"lon":10.60313,"lat":35.860901}},{"displayName":"Hammam-Lif, TN","country":"TN","name":"Hammam-Lif","_id":2470588,"coord":{"lon":10.34163,"lat":36.728661}},{"displayName":"Hammamet, DZ","country":"DZ","name":"Hammamet","_id":2494548,"coord":{"lon":7.95184,"lat":35.44862}},{"displayName":"Hammarland, AX","country":"AX","name":"Hammarland","_id":3041777,"coord":{"lon":19.75,"lat":60.25}},{"displayName":"Hammarland, AX","country":"AX","name":"Hammarland","_id":3041776,"coord":{"lon":19.75,"lat":60.216671}},{"displayName":"Hammarstrand, SE","country":"SE","name":"Hammarstrand","_id":2708152,"coord":{"lon":16.353769,"lat":63.110409}},{"displayName":"Hamme, BE","country":"BE","name":"Hamme","_id":2796640,"coord":{"lon":4.13538,"lat":51.08445}},{"displayName":"Hamme, BE","country":"BE","name":"Hamme","_id":2796637,"coord":{"lon":4.13705,"lat":51.098221}},{"displayName":"Hammel, DK","country":"DK","name":"Hammel","_id":2620835,"coord":{"lon":9.86316,"lat":56.257622}},{"displayName":"Hammelbach, DE","country":"DE","name":"Hammelbach","_id":2911218,"coord":{"lon":8.83556,"lat":49.636669}},{"displayName":"Hammelburg, DE","country":"DE","name":"Hammelburg","_id":2911214,"coord":{"lon":9.9,"lat":50.116669}},{"displayName":"Hammenstedt, DE","country":"DE","name":"Hammenstedt","_id":2911189,"coord":{"lon":10.05429,"lat":51.69725}},{"displayName":"Hammer, DE","country":"DE","name":"Hammer","_id":2911173,"coord":{"lon":13.98333,"lat":53.599998}},{"displayName":"Hammerau, DE","country":"DE","name":"Hammerau","_id":2911167,"coord":{"lon":12.95,"lat":47.799999}},{"displayName":"Hammerbrook, DE","country":"DE","name":"Hammerbrook","_id":7932378,"coord":{"lon":10.03042,"lat":53.545269}},{"displayName":"Hammerbrucke, DE","country":"DE","name":"Hammerbrucke","_id":2911145,"coord":{"lon":12.41667,"lat":50.433331}},{"displayName":"Hammerbühl, DE","country":"DE","name":"Hammerbühl","_id":2911144,"coord":{"lon":11.28333,"lat":49.700001}},{"displayName":"Hammerfest, NO","country":"NO","name":"Hammerfest","_id":779683,"coord":{"lon":23.682091,"lat":70.663361}},{"displayName":"Hammerfest, NO","country":"NO","name":"Hammerfest","_id":6453312,"coord":{"lon":23.682949,"lat":70.662567}},{"displayName":"Hammersbach, DE","country":"DE","name":"Hammersbach","_id":6553188,"coord":{"lon":8.9905,"lat":50.224701}},{"displayName":"Hammersbach, DE","country":"DE","name":"Hammersbach","_id":2911099,"coord":{"lon":8.98333,"lat":50.216671}},{"displayName":"Hammerschrott, DE","country":"DE","name":"Hammerschrott","_id":2911087,"coord":{"lon":11.55,"lat":49.633331}},{"displayName":"Hammersfeld, DE","country":"DE","name":"Hammersfeld","_id":2911082,"coord":{"lon":11.05,"lat":50.75}},{"displayName":"Hammersmith, GB","country":"GB","name":"Hammersmith","_id":2647567,"coord":{"lon":-0.22882,"lat":51.493839}},{"displayName":"Hammerstedt, DE","country":"DE","name":"Hammerstedt","_id":6550242,"coord":{"lon":11.45,"lat":50.950001}},{"displayName":"Hammerstedt, DE","country":"DE","name":"Hammerstedt","_id":2911077,"coord":{"lon":11.45428,"lat":50.954208}},{"displayName":"Hammerstein, DE","country":"DE","name":"Hammerstein","_id":2911072,"coord":{"lon":7.08333,"lat":51.23333}},{"displayName":"Hammerstein, DE","country":"DE","name":"Hammerstein","_id":2911074,"coord":{"lon":7.3,"lat":49.683331}},{"displayName":"Hammerstein, DE","country":"DE","name":"Hammerstein","_id":6553829,"coord":{"lon":7.35,"lat":50.483299}},{"displayName":"Hammerstein, DE","country":"DE","name":"Hammerstein","_id":2911073,"coord":{"lon":7.35,"lat":50.48333}},{"displayName":"Hammerum, DK","country":"DK","name":"Hammerum","_id":2620814,"coord":{"lon":9.06121,"lat":56.13361}},{"displayName":"Hammeveer, BE","country":"BE","name":"Hammeveer","_id":2796631,"coord":{"lon":4.13333,"lat":51.099998}},{"displayName":"Hamminkeln, DE","country":"DE","name":"Hamminkeln","_id":2911051,"coord":{"lon":6.58333,"lat":51.73333}},{"displayName":"Hamminkeln, Stadt, DE","country":"DE","name":"Hamminkeln, Stadt","_id":6557516,"coord":{"lon":6.62263,"lat":51.737431}},{"displayName":"Hammond, AU","country":"AU","name":"Hammond","_id":2070143,"coord":{"lon":138.316666,"lat":-32.51667}},{"displayName":"Hammond, US","country":"US","name":"Hammond","_id":4326868,"coord":{"lon":-90.461197,"lat":30.50436}},{"displayName":"Hammond, US","country":"US","name":"Hammond","_id":4921100,"coord":{"lon":-87.500038,"lat":41.58337}},{"displayName":"Hammond, US","country":"US","name":"Hammond","_id":5255427,"coord":{"lon":-92.435753,"lat":44.978859}},{"displayName":"Hammonton, US","country":"US","name":"Hammonton","_id":4502129,"coord":{"lon":-74.802391,"lat":39.636509}},{"displayName":"Hammoor, DE","country":"DE","name":"Hammoor","_id":6559312,"coord":{"lon":10.25583,"lat":53.72834}},{"displayName":"Hammoor, DE","country":"DE","name":"Hammoor","_id":2911044,"coord":{"lon":10.322,"lat":53.713779}},{"displayName":"Hamner Estates, US","country":"US","name":"Hamner Estates","_id":4066045,"coord":{"lon":-87.548622,"lat":33.277889}},{"displayName":"Hamnvik, NO","country":"NO","name":"Hamnvik","_id":3154000,"coord":{"lon":17.17457,"lat":68.778313}},{"displayName":"Hamoir, BE","country":"BE","name":"Hamoir","_id":2796630,"coord":{"lon":5.53462,"lat":50.426998}},{"displayName":"Hamoir, BE","country":"BE","name":"Hamoir","_id":2796629,"coord":{"lon":5.53304,"lat":50.42675}},{"displayName":"Hamois, BE","country":"BE","name":"Hamois","_id":2796628,"coord":{"lon":5.15121,"lat":50.334831}},{"displayName":"Hamois, BE","country":"BE","name":"Hamois","_id":2796627,"coord":{"lon":5.15619,"lat":50.340199}},{"displayName":"Hamond, BR","country":"BR","name":"Hamond","_id":3461712,"coord":{"lon":-48.25,"lat":-21.41667}},{"displayName":"Hamoraon, PH","country":"PH","name":"Hamoraon","_id":1710320,"coord":{"lon":123.551514,"lat":12.22564}},{"displayName":"Hampden County, US","country":"US","name":"Hampden County","_id":4938741,"coord":{"lon":-72.58287,"lat":42.166759}},{"displayName":"Hampden Sydney, US","country":"US","name":"Hampden Sydney","_id":4762888,"coord":{"lon":-78.459717,"lat":37.242371}},{"displayName":"Hampden, AU","country":"AU","name":"Hampden","_id":2070141,"coord":{"lon":139.050003,"lat":-34.150002}},{"displayName":"Hampden, CA","country":"CA","name":"Hampden","_id":5969990,"coord":{"lon":-56.848259,"lat":49.549999}},{"displayName":"Hampden, US","country":"US","name":"Hampden","_id":4938738,"coord":{"lon":-72.413422,"lat":42.06398}},{"displayName":"Hampden, US","country":"US","name":"Hampden","_id":4966371,"coord":{"lon":-68.836983,"lat":44.744518}},{"displayName":"Hampi, IN","country":"IN","name":"Hampi","_id":1270448,"coord":{"lon":76.466667,"lat":15.33333}},{"displayName":"Hampshire County, US","country":"US","name":"Hampshire County","_id":4938757,"coord":{"lon":-72.58287,"lat":42.33342}},{"displayName":"Hampshire, AU","country":"AU","name":"Hampshire","_id":2163998,"coord":{"lon":145.783325,"lat":-41.26667}},{"displayName":"Hampshire, GB","country":"GB","name":"Hampshire","_id":2647554,"coord":{"lon":-1.25,"lat":51.0}},{"displayName":"Hampshire, US","country":"US","name":"Hampshire","_id":4895016,"coord":{"lon":-88.530357,"lat":42.097801}},{"displayName":"Hampstead Marshall, GB","country":"GB","name":"Hampstead Marshall","_id":7292717,"coord":{"lon":-1.40711,"lat":51.387138}},{"displayName":"Hampstead, AU","country":"AU","name":"Hampstead","_id":2163996,"coord":{"lon":152.733337,"lat":-27.700001}},{"displayName":"Hampstead, CA","country":"CA","name":"Hampstead","_id":5970014,"coord":{"lon":-73.663071,"lat":45.48064}},{"displayName":"Hampstead, US","country":"US","name":"Hampstead","_id":4357279,"coord":{"lon":-76.849983,"lat":39.604832}},{"displayName":"Hampstead, US","country":"US","name":"Hampstead","_id":4469765,"coord":{"lon":-77.710533,"lat":34.367668}},{"displayName":"Hampstead, US","country":"US","name":"Hampstead","_id":5087105,"coord":{"lon":-71.181168,"lat":42.874531}},{"displayName":"Hampton Bays, US","country":"US","name":"Hampton Bays","_id":5119899,"coord":{"lon":-72.517593,"lat":40.868992}},{"displayName":"Hampton Beach, US","country":"US","name":"Hampton Beach","_id":5087114,"coord":{"lon":-70.811996,"lat":42.90731}},{"displayName":"Hampton County, US","country":"US","name":"Hampton County","_id":4580988,"coord":{"lon":-81.116493,"lat":32.800171}},{"displayName":"Hampton East, AU","country":"AU","name":"Hampton East","_id":7932649,"coord":{"lon":145.028625,"lat":-37.936951}},{"displayName":"Hampton Falls, US","country":"US","name":"Hampton Falls","_id":5087122,"coord":{"lon":-70.863663,"lat":42.916199}},{"displayName":"Hampton in Arden, GB","country":"GB","name":"Hampton in Arden","_id":7301178,"coord":{"lon":-1.71563,"lat":52.430439}},{"displayName":"Hampton in Arden, GB","country":"GB","name":"Hampton in Arden","_id":2647546,"coord":{"lon":-1.70271,"lat":52.4254}},{"displayName":"Hampton Manor, US","country":"US","name":"Hampton Manor","_id":5119907,"coord":{"lon":-73.728447,"lat":42.620911}},{"displayName":"Hampton Park, AU","country":"AU","name":"Hampton Park","_id":2163990,"coord":{"lon":145.25,"lat":-38.033329}},{"displayName":"Hampton, AU","country":"AU","name":"Hampton","_id":7932648,"coord":{"lon":145.004593,"lat":-37.937229}},{"displayName":"Hampton, CA","country":"CA","name":"Hampton","_id":5970018,"coord":{"lon":-65.853539,"lat":45.528759}},{"displayName":"Hampton, CA","country":"CA","name":"Hampton","_id":5970016,"coord":{"lon":-63.465408,"lat":46.216831}},{"displayName":"Hampton, GB","country":"GB","name":"Hampton","_id":2647550,"coord":{"lon":-0.36684,"lat":51.421051}},{"displayName":"Hampton, GB","country":"GB","name":"Hampton","_id":2647549,"coord":{"lon":-2.38333,"lat":52.466671}},{"displayName":"Hampton, US","country":"US","name":"Hampton","_id":4762894,"coord":{"lon":-76.345222,"lat":37.029869}},{"displayName":"Hampton, US","country":"US","name":"Hampton","_id":4113647,"coord":{"lon":-92.469879,"lat":33.537891}},{"displayName":"Hampton, US","country":"US","name":"Hampton","_id":4198972,"coord":{"lon":-84.282982,"lat":33.387058}},{"displayName":"Hampton, US","country":"US","name":"Hampton","_id":4357289,"coord":{"lon":-76.584686,"lat":39.422878}},{"displayName":"Hampton, US","country":"US","name":"Hampton","_id":4580983,"coord":{"lon":-81.127609,"lat":32.877941}},{"displayName":"Hampton, US","country":"US","name":"Hampton","_id":4859658,"coord":{"lon":-93.202423,"lat":42.74192}},{"displayName":"Hampton, US","country":"US","name":"Hampton","_id":4895027,"coord":{"lon":-90.409302,"lat":41.55587}},{"displayName":"Hampton, US","country":"US","name":"Hampton","_id":5087110,"coord":{"lon":-70.838943,"lat":42.937592}},{"displayName":"Hampton, US","country":"US","name":"Hampton","_id":5098787,"coord":{"lon":-74.956001,"lat":40.707039}},{"displayName":"Hamptons at Boca Raton, US","country":"US","name":"Hamptons at Boca Raton","_id":4157981,"coord":{"lon":-80.185883,"lat":26.38258}},{"displayName":"Hamrun, MT","country":"MT","name":"Hamrun","_id":2562998,"coord":{"lon":14.48444,"lat":35.88472}},{"displayName":"Hamstead Marshall, GB","country":"GB","name":"Hamstead Marshall","_id":6693633,"coord":{"lon":-1.40745,"lat":51.386669}},{"displayName":"Hamsterley, GB","country":"GB","name":"Hamsterley","_id":2647542,"coord":{"lon":-1.81667,"lat":54.683331}},{"displayName":"Hamtic, PH","country":"PH","name":"Hamtic","_id":1711908,"coord":{"lon":121.982399,"lat":10.7023}},{"displayName":"Hamtramck, US","country":"US","name":"Hamtramck","_id":4995197,"coord":{"lon":-83.049637,"lat":42.392818}},{"displayName":"Hamur, TR","country":"TR","name":"Hamur","_id":312731,"coord":{"lon":42.98917,"lat":39.608891}},{"displayName":"Hamvasbánya, HU","country":"HU","name":"Hamvasbánya","_id":3051788,"coord":{"lon":18.5,"lat":47.75}},{"displayName":"Hamwarde, DE","country":"DE","name":"Hamwarde","_id":6551449,"coord":{"lon":10.4167,"lat":53.450001}},{"displayName":"Hamwarde, DE","country":"DE","name":"Hamwarde","_id":2911013,"coord":{"lon":10.41667,"lat":53.450001}},{"displayName":"Hamweddel, DE","country":"DE","name":"Hamweddel","_id":6551852,"coord":{"lon":9.61667,"lat":54.1833}},{"displayName":"Hamweddel, DE","country":"DE","name":"Hamweddel","_id":2911010,"coord":{"lon":9.61667,"lat":54.183331}},{"displayName":"Hamyang, KR","country":"KR","name":"Hamyang","_id":1844533,"coord":{"lon":127.727661,"lat":35.519379}},{"displayName":"Hamza, UZ","country":"UZ","name":"Hamza","_id":1513650,"coord":{"lon":71.49556,"lat":40.426392}},{"displayName":"Hamzabey, TR","country":"TR","name":"Hamzabey","_id":745922,"coord":{"lon":29.52639,"lat":40.13583}},{"displayName":"Hamādīyah, IQ","country":"IQ","name":"Hamādīyah","_id":96165,"coord":{"lon":44.21352,"lat":35.277569}},{"displayName":"Han Pijesak, BA","country":"BA","name":"Han Pijesak","_id":3199417,"coord":{"lon":18.952499,"lat":44.08083}},{"displayName":"Han, TR","country":"TR","name":"Han","_id":312649,"coord":{"lon":30.861389,"lat":39.159168}},{"displayName":"Han, TR","country":"TR","name":"Han","_id":312699,"coord":{"lon":40.198551,"lat":36.950809}},{"displayName":"Hana, US","country":"US","name":"Hana","_id":5855471,"coord":{"lon":-155.99028,"lat":20.75806}},{"displayName":"Hanabatachō, JP","country":"JP","name":"Hanabatachō","_id":1863250,"coord":{"lon":130.699997,"lat":32.799999}},{"displayName":"Hanahan, US","country":"US","name":"Hanahan","_id":4581023,"coord":{"lon":-80.022034,"lat":32.91851}},{"displayName":"Hanak, TR","country":"TR","name":"Hanak","_id":745903,"coord":{"lon":42.847221,"lat":41.233608}},{"displayName":"Hanam, KR","country":"KR","name":"Hanam","_id":1897007,"coord":{"lon":127.205559,"lat":37.540001}},{"displayName":"Hanamaki, JP","country":"JP","name":"Hanamaki","_id":2112823,"coord":{"lon":141.116669,"lat":39.383331}},{"displayName":"Hanamaulu, US","country":"US","name":"Hanamaulu","_id":5855629,"coord":{"lon":-159.354156,"lat":21.993191}},{"displayName":"Hanapepe Heights, US","country":"US","name":"Hanapepe Heights","_id":5855644,"coord":{"lon":-159.589951,"lat":21.91633}},