[{"displayName":"Liamyok, SS","country":"SS","name":"Liamyok","_id":371450,"coord":{"lon":33.0,"lat":8.36667}},{"displayName":"Lian, CN","country":"CN","name":"Lian","_id":1909789,"coord":{"lon":110.066917,"lat":18.433241}},{"displayName":"Lian, PH","country":"PH","name":"Lian","_id":1706787,"coord":{"lon":120.650902,"lat":14.0381}},{"displayName":"Lianan, CN","country":"CN","name":"Lianan","_id":1916276,"coord":{"lon":115.29351,"lat":22.916491}},{"displayName":"Lianbinxiang, CN","country":"CN","name":"Lianbinxiang","_id":1989660,"coord":{"lon":111.983063,"lat":27.74556}},{"displayName":"Liancai, CN","country":"CN","name":"Liancai","_id":1804121,"coord":{"lon":105.85965,"lat":35.559761}},{"displayName":"Liancheng, CN","country":"CN","name":"Liancheng","_id":1804119,"coord":{"lon":105.074966,"lat":24.05192}},{"displayName":"Liancheng, CN","country":"CN","name":"Liancheng","_id":1924968,"coord":{"lon":116.307152,"lat":27.892559}},{"displayName":"Liancheng, CN","country":"CN","name":"Liancheng","_id":6982913,"coord":{"lon":119.853317,"lat":28.474331}},{"displayName":"Liancourt, FR","country":"FR","name":"Liancourt","_id":2998532,"coord":{"lon":2.46595,"lat":49.330341}},{"displayName":"Liancun, CN","country":"CN","name":"Liancun","_id":1804111,"coord":{"lon":113.474258,"lat":33.611019}},{"displayName":"Liandonggang, CN","country":"CN","name":"Liandonggang","_id":1927954,"coord":{"lon":109.882271,"lat":29.007509}},{"displayName":"Lianfeng, CN","country":"CN","name":"Lianfeng","_id":1804106,"coord":{"lon":116.721619,"lat":25.704411}},{"displayName":"Lianga, PH","country":"PH","name":"Lianga","_id":1706781,"coord":{"lon":126.094719,"lat":8.63361}},{"displayName":"Liangbing, CN","country":"CN","name":"Liangbing","_id":2036168,"coord":{"lon":128.783325,"lat":43.183331}},{"displayName":"Liangchahe, CN","country":"CN","name":"Liangchahe","_id":1941081,"coord":{"lon":109.718399,"lat":29.175739}},{"displayName":"Liangcun, CN","country":"CN","name":"Liangcun","_id":1804089,"coord":{"lon":115.576057,"lat":26.55904}},{"displayName":"Liangcunchang, CN","country":"CN","name":"Liangcunchang","_id":1804088,"coord":{"lon":106.424438,"lat":28.40667}},{"displayName":"Liangdang Chengguanzhen, CN","country":"CN","name":"Liangdang Chengguanzhen","_id":1804081,"coord":{"lon":106.302223,"lat":33.909721}},{"displayName":"Liangduo, CN","country":"CN","name":"Liangduo","_id":1804073,"coord":{"lon":120.363731,"lat":32.776348}},{"displayName":"Liangfang, CN","country":"CN","name":"Liangfang","_id":1804071,"coord":{"lon":114.038887,"lat":27.21319}},{"displayName":"Liangfeng, CN","country":"CN","name":"Liangfeng","_id":1550289,"coord":{"lon":107.720284,"lat":27.360279}},{"displayName":"Lianghe, CN","country":"CN","name":"Lianghe","_id":7372534,"coord":{"lon":105.919472,"lat":33.121681}},{"displayName":"Lianghekou, CN","country":"CN","name":"Lianghekou","_id":1804041,"coord":{"lon":106.349998,"lat":33.349998}},{"displayName":"Lianghekou, CN","country":"CN","name":"Lianghekou","_id":1941086,"coord":{"lon":110.025833,"lat":29.452221}},{"displayName":"Lianghu, CN","country":"CN","name":"Lianghu","_id":1919014,"coord":{"lon":120.898453,"lat":29.99152}},{"displayName":"Lianghua, CN","country":"CN","name":"Lianghua","_id":1916872,"coord":{"lon":114.671928,"lat":23.11273}},{"displayName":"Liangjiang, CN","country":"CN","name":"Liangjiang","_id":1917515,"coord":{"lon":113.284576,"lat":25.360929}},{"displayName":"Liangjiazi, CN","country":"CN","name":"Liangjiazi","_id":7012543,"coord":{"lon":123.485382,"lat":42.778351}},{"displayName":"Liangkou, CN","country":"CN","name":"Liangkou","_id":1804006,"coord":{"lon":113.728073,"lat":23.71995}},{"displayName":"Liangnong, CN","country":"CN","name":"Liangnong","_id":1803995,"coord":{"lon":121.074654,"lat":29.912781}},{"displayName":"Liangshan, CN","country":"CN","name":"Liangshan","_id":1803987,"coord":{"lon":114.906128,"lat":27.6724}},{"displayName":"Liangshan, CN","country":"CN","name":"Liangshan","_id":1998509,"coord":{"lon":108.192711,"lat":34.62085}},{"displayName":"Liangshan, CN","country":"CN","name":"Liangshan","_id":7348484,"coord":{"lon":105.973999,"lat":35.073181}},{"displayName":"Liangshan, CN","country":"CN","name":"Liangshan","_id":7387615,"coord":{"lon":106.942619,"lat":33.086262}},{"displayName":"Liangshi, CN","country":"CN","name":"Liangshi","_id":6645575,"coord":{"lon":111.737137,"lat":27.20636}},{"displayName":"Liangshui, CN","country":"CN","name":"Liangshui","_id":1803979,"coord":{"lon":104.80909,"lat":33.43177}},{"displayName":"Liangshui, CN","country":"CN","name":"Liangshui","_id":1899364,"coord":{"lon":105.21833,"lat":32.383331}},{"displayName":"Liangshui, CN","country":"CN","name":"Liangshui","_id":2036149,"coord":{"lon":125.853081,"lat":40.92852}},{"displayName":"Liangshuijing, CN","country":"CN","name":"Liangshuijing","_id":1801279,"coord":{"lon":109.276428,"lat":29.28838}},{"displayName":"Liangshuikou, CN","country":"CN","name":"Liangshuikou","_id":1803974,"coord":{"lon":110.09639,"lat":29.541389}},{"displayName":"Liangting, CN","country":"CN","name":"Liangting","_id":1803961,"coord":{"lon":107.489723,"lat":34.7887}},{"displayName":"Liangtun, CN","country":"CN","name":"Liangtun","_id":2036143,"coord":{"lon":122.518982,"lat":40.211391}},{"displayName":"Liangwa, CN","country":"CN","name":"Liangwa","_id":1803954,"coord":{"lon":112.925217,"lat":33.84586}},{"displayName":"Liangxiang, CN","country":"CN","name":"Liangxiang","_id":1803948,"coord":{"lon":116.139999,"lat":39.731941}},{"displayName":"Liangxu, CN","country":"CN","name":"Liangxu","_id":1548509,"coord":{"lon":120.116669,"lat":32.46944}},{"displayName":"Liangyaping, CN","country":"CN","name":"Liangyaping","_id":1803944,"coord":{"lon":110.67083,"lat":27.71833}},{"displayName":"Liangying, CN","country":"CN","name":"Liangying","_id":1919803,"coord":{"lon":116.359123,"lat":23.215759}},{"displayName":"Liangzhu, CN","country":"CN","name":"Liangzhu","_id":1803935,"coord":{"lon":120.047043,"lat":30.379299}},{"displayName":"Lianhe, CN","country":"CN","name":"Lianhe","_id":1803927,"coord":{"lon":118.341713,"lat":24.572981}},{"displayName":"Lianhe, CN","country":"CN","name":"Lianhe","_id":7064569,"coord":{"lon":117.631073,"lat":28.389151}},{"displayName":"Lianhu, CN","country":"CN","name":"Lianhu","_id":1803924,"coord":{"lon":116.541992,"lat":28.995489}},{"displayName":"Lianhu, CN","country":"CN","name":"Lianhu","_id":7064011,"coord":{"lon":108.924202,"lat":34.25848}},{"displayName":"Lianhua, CN","country":"CN","name":"Lianhua","_id":1812379,"coord":{"lon":116.800598,"lat":23.575939}},{"displayName":"Lianhua, CN","country":"CN","name":"Lianhua","_id":6422089,"coord":{"lon":112.277496,"lat":25.943609}},{"displayName":"Lianhua, CN","country":"CN","name":"Lianhua","_id":7061864,"coord":{"lon":113.819656,"lat":33.597679}},{"displayName":"Lianhua, CN","country":"CN","name":"Lianhua","_id":7348465,"coord":{"lon":105.791077,"lat":35.0616}},{"displayName":"Lianhua, CN","country":"CN","name":"Lianhua","_id":7643645,"coord":{"lon":115.979301,"lat":29.640949}},{"displayName":"Lianhuashan, CN","country":"CN","name":"Lianhuashan","_id":1784430,"coord":{"lon":116.992493,"lat":29.618521}},{"displayName":"Lianhuasi, CN","country":"CN","name":"Lianhuasi","_id":1803906,"coord":{"lon":109.840858,"lat":34.524578}},{"displayName":"Lianjiang, CN","country":"CN","name":"Lianjiang","_id":1804120,"coord":{"lon":110.281723,"lat":21.64673}},{"displayName":"Lianjiang, CN","country":"CN","name":"Lianjiang","_id":7650839,"coord":{"lon":115.39286,"lat":25.131411}},{"displayName":"Lianjiangkou, CN","country":"CN","name":"Lianjiangkou","_id":1803897,"coord":{"lon":113.303871,"lat":24.03278}},{"displayName":"Lianlu, CN","country":"CN","name":"Lianlu","_id":7446428,"coord":{"lon":103.745598,"lat":35.014359}},{"displayName":"Lianozovo, RU","country":"RU","name":"Lianozovo","_id":535330,"coord":{"lon":37.5868,"lat":55.897831}},{"displayName":"Lianpeng, CN","country":"CN","name":"Lianpeng","_id":7696236,"coord":{"lon":111.268822,"lat":30.65519}},{"displayName":"Lianran, CN","country":"CN","name":"Lianran","_id":1803886,"coord":{"lon":102.484962,"lat":24.92271}},{"displayName":"Lianrao, CN","country":"CN","name":"Lianrao","_id":1919602,"coord":{"lon":116.982277,"lat":23.727249}},{"displayName":"Lianshan, CN","country":"CN","name":"Lianshan","_id":2036434,"coord":{"lon":120.853271,"lat":40.76432}},{"displayName":"Lianshi, CN","country":"CN","name":"Lianshi","_id":1803879,"coord":{"lon":120.416718,"lat":30.70846}},{"displayName":"Liantang, CN","country":"CN","name":"Liantang","_id":1803862,"coord":{"lon":115.933327,"lat":28.549999}},{"displayName":"Liantang, CN","country":"CN","name":"Liantang","_id":1803861,"coord":{"lon":121.046059,"lat":31.011669}},{"displayName":"Liantang, CN","country":"CN","name":"Liantang","_id":1921990,"coord":{"lon":118.516113,"lat":27.923889}},{"displayName":"Lianxia, CN","country":"CN","name":"Lianxia","_id":1919691,"coord":{"lon":116.778061,"lat":23.497709}},{"displayName":"Lianyi, CN","country":"CN","name":"Lianyi","_id":7526555,"coord":{"lon":120.23912,"lat":32.899471}},{"displayName":"Lianyuan, CN","country":"CN","name":"Lianyuan","_id":1804451,"coord":{"lon":111.664169,"lat":27.68833}},{"displayName":"Lianyun, CN","country":"CN","name":"Lianyun","_id":1803848,"coord":{"lon":119.442497,"lat":34.731941}},{"displayName":"Lianzhou, CN","country":"CN","name":"Lianzhou","_id":1803841,"coord":{"lon":112.3825,"lat":24.781111}},{"displayName":"Lianzhou, CN","country":"CN","name":"Lianzhou","_id":1803842,"coord":{"lon":109.169456,"lat":21.6682}},{"displayName":"Lianzhou, CN","country":"CN","name":"Lianzhou","_id":7658330,"coord":{"lon":114.257538,"lat":27.045731}},{"displayName":"Lianzhu, CN","country":"CN","name":"Lianzhu","_id":1805164,"coord":{"lon":101.710281,"lat":23.40844}},{"displayName":"Liao, CN","country":"CN","name":"Liao","_id":1887803,"coord":{"lon":121.988892,"lat":29.79833}},{"displayName":"Liaobu, CN","country":"CN","name":"Liaobu","_id":1803836,"coord":{"lon":113.880676,"lat":22.99312}},{"displayName":"Liaocheng, CN","country":"CN","name":"Liaocheng","_id":1803834,"coord":{"lon":115.964722,"lat":36.44389}},{"displayName":"Liaodian, CN","country":"CN","name":"Liaodian","_id":2036122,"coord":{"lon":127.05394,"lat":45.63261}},{"displayName":"Liaohua, CN","country":"CN","name":"Liaohua","_id":7636841,"coord":{"lon":115.996101,"lat":29.39308}},{"displayName":"Liaonan, CN","country":"CN","name":"Liaonan","_id":7643657,"coord":{"lon":115.968788,"lat":29.30126}},{"displayName":"Liaoning Sheng, CN","country":"CN","name":"Liaoning Sheng","_id":2036115,"coord":{"lon":123.0,"lat":41.0}},{"displayName":"Liaotang, CN","country":"CN","name":"Liaotang","_id":7658349,"coord":{"lon":114.593193,"lat":27.275221}},{"displayName":"Liaotun, CN","country":"CN","name":"Liaotun","_id":2036114,"coord":{"lon":121.767891,"lat":41.485142}},{"displayName":"Liaoyang, CN","country":"CN","name":"Liaoyang","_id":2036113,"coord":{"lon":123.173058,"lat":41.271938}},{"displayName":"Liaoyang, CN","country":"CN","name":"Liaoyang","_id":1783600,"coord":{"lon":113.339859,"lat":37.079769}},{"displayName":"Liaoyuan, CN","country":"CN","name":"Liaoyuan","_id":2036109,"coord":{"lon":125.135834,"lat":42.90361}},{"displayName":"Liaozhong, CN","country":"CN","name":"Liaozhong","_id":2036106,"coord":{"lon":122.724167,"lat":41.506111}},{"displayName":"Liaño, ES","country":"ES","name":"Liaño","_id":3118467,"coord":{"lon":-3.84172,"lat":43.37962}},{"displayName":"Lib, MH","country":"MH","name":"Lib","_id":7306524,"coord":{"lon":167.376617,"lat":8.31221}},{"displayName":"Libacao, PH","country":"PH","name":"Libacao","_id":1706757,"coord":{"lon":122.304207,"lat":11.4802}},{"displayName":"Libacao, PH","country":"PH","name":"Libacao","_id":1706758,"coord":{"lon":122.915833,"lat":10.1825}},{"displayName":"Libagon, PH","country":"PH","name":"Libagon","_id":1706750,"coord":{"lon":125.055832,"lat":10.30083}},{"displayName":"Liban, CZ","country":"CZ","name":"Liban","_id":3071990,"coord":{"lon":15.21684,"lat":50.37542}},{"displayName":"Libano, CO","country":"CO","name":"Libano","_id":3676604,"coord":{"lon":-75.062317,"lat":4.9218}},{"displayName":"Libao, CN","country":"CN","name":"Libao","_id":1803807,"coord":{"lon":120.683891,"lat":32.563061}},{"displayName":"Libas, PH","country":"PH","name":"Libas","_id":1706716,"coord":{"lon":120.300003,"lat":15.86667}},{"displayName":"Libas, PH","country":"PH","name":"Libas","_id":1706717,"coord":{"lon":121.955551,"lat":13.24167}},{"displayName":"Libas, PH","country":"PH","name":"Libas","_id":1706726,"coord":{"lon":124.544998,"lat":10.9388}},{"displayName":"Libas, PH","country":"PH","name":"Libas","_id":1706732,"coord":{"lon":125.98333,"lat":9.88333}},{"displayName":"Libas, PH","country":"PH","name":"Libas","_id":1706736,"coord":{"lon":124.778893,"lat":6.53556}},{"displayName":"Libato, PH","country":"PH","name":"Libato","_id":1706702,"coord":{"lon":121.334633,"lat":13.81514}},{"displayName":"Libbenichen, DE","country":"DE","name":"Libbenichen","_id":2878184,"coord":{"lon":14.43333,"lat":52.48333}},{"displayName":"Libbesdorf, DE","country":"DE","name":"Libbesdorf","_id":2878183,"coord":{"lon":12.1,"lat":51.76667}},{"displayName":"Libby, US","country":"US","name":"Libby","_id":5662190,"coord":{"lon":-115.556,"lat":48.38829}},{"displayName":"Libcice nad Vltavou, CZ","country":"CZ","name":"Libcice nad Vltavou","_id":3071980,"coord":{"lon":14.36385,"lat":50.197781}},{"displayName":"Libehna, DE","country":"DE","name":"Libehna","_id":2878180,"coord":{"lon":12.05,"lat":51.716671}},{"displayName":"Libei, CN","country":"CN","name":"Libei","_id":1803804,"coord":{"lon":116.132927,"lat":27.646009}},{"displayName":"Liben, CZ","country":"CZ","name":"Liben","_id":3071966,"coord":{"lon":14.47457,"lat":50.108189}},{"displayName":"Libenge, CD","country":"CD","name":"Libenge","_id":2313762,"coord":{"lon":18.633329,"lat":3.65}},{"displayName":"Liberal, US","country":"US","name":"Liberal","_id":5445820,"coord":{"lon":-100.920998,"lat":37.043079}},{"displayName":"Libercourt, FR","country":"FR","name":"Libercourt","_id":2998520,"coord":{"lon":3.01584,"lat":50.483219}},{"displayName":"Liberdade, BR","country":"BR","name":"Liberdade","_id":3458611,"coord":{"lon":-46.633331,"lat":-23.549999}},{"displayName":"Liberec, CZ","country":"CZ","name":"Liberec","_id":3071961,"coord":{"lon":15.05619,"lat":50.767109}},{"displayName":"Liberecký kraj, CZ","country":"CZ","name":"Liberecký kraj","_id":3339541,"coord":{"lon":15.0,"lat":50.75}},{"displayName":"Liberi, IT","country":"IT","name":"Liberi","_id":3174767,"coord":{"lon":14.29003,"lat":41.227821}},{"displayName":"Liberia, CR","country":"CR","name":"Liberia","_id":3623076,"coord":{"lon":-85.437721,"lat":10.63504}},{"displayName":"Liberta, AG","country":"AG","name":"Liberta","_id":3576144,"coord":{"lon":-61.783329,"lat":17.033331}},{"displayName":"Libertad, AR","country":"AR","name":"Libertad","_id":3431367,"coord":{"lon":-57.820202,"lat":-30.042999}},{"displayName":"Libertad, AR","country":"AR","name":"Libertad","_id":3431366,"coord":{"lon":-58.680099,"lat":-34.688911}},{"displayName":"Libertad, PH","country":"PH","name":"Libertad","_id":1706684,"coord":{"lon":125.501938,"lat":8.94417}},{"displayName":"Libertad, PH","country":"PH","name":"Libertad","_id":1706667,"coord":{"lon":122.00972,"lat":12.45556}},{"displayName":"Libertad, PH","country":"PH","name":"Libertad","_id":1706669,"coord":{"lon":121.918999,"lat":11.7694}},{"displayName":"Libertad, PH","country":"PH","name":"Libertad","_id":1706673,"coord":{"lon":124.568329,"lat":11.03639}},{"displayName":"Libertad, PH","country":"PH","name":"Libertad","_id":1706674,"coord":{"lon":122.76944,"lat":11.03528}},{"displayName":"Libertad, PH","country":"PH","name":"Libertad","_id":1706675,"coord":{"lon":124.0215,"lat":11.0304}},{"displayName":"Libertad, PH","country":"PH","name":"Libertad","_id":1706677,"coord":{"lon":124.449997,"lat":10.91667}},{"displayName":"Libertad, PH","country":"PH","name":"Libertad","_id":1706678,"coord":{"lon":123.566673,"lat":10.83333}},{"displayName":"Libertad, PH","country":"PH","name":"Libertad","_id":1706685,"coord":{"lon":124.351387,"lat":8.56111}},{"displayName":"Libertad, PH","country":"PH","name":"Libertad","_id":1706687,"coord":{"lon":123.838203,"lat":8.2755}},{"displayName":"Libertad, PH","country":"PH","name":"Libertad","_id":1706688,"coord":{"lon":124.23333,"lat":8.25}},{"displayName":"Libertad, PH","country":"PH","name":"Libertad","_id":1706689,"coord":{"lon":126.02639,"lat":8.1075}},{"displayName":"Libertad, UY","country":"UY","name":"Libertad","_id":3441988,"coord":{"lon":-56.619171,"lat":-34.633331}},{"displayName":"Libertad, VE","country":"VE","name":"Libertad","_id":3634760,"coord":{"lon":-68.691772,"lat":9.35562}},{"displayName":"Libertad, VE","country":"VE","name":"Libertad","_id":3634761,"coord":{"lon":-69.629768,"lat":8.32651}},{"displayName":"Libertador General San Martin, AR","country":"AR","name":"Libertador General San Martin","_id":3846915,"coord":{"lon":-64.787567,"lat":-23.80644}},{"displayName":"Libertow, PL","country":"PL","name":"Libertow","_id":3093458,"coord":{"lon":19.894609,"lat":49.97242}},{"displayName":"Liberty Center, US","country":"US","name":"Liberty Center","_id":5160667,"coord":{"lon":-84.008827,"lat":41.443378}},{"displayName":"Liberty City, US","country":"US","name":"Liberty City","_id":4706141,"coord":{"lon":-94.948547,"lat":32.445431}},{"displayName":"Liberty County, US","country":"US","name":"Liberty County","_id":4706143,"coord":{"lon":-94.800201,"lat":30.133551}},{"displayName":"Liberty County, US","country":"US","name":"Liberty County","_id":5662222,"coord":{"lon":-111.017471,"lat":48.549992}},{"displayName":"Liberty County, US","country":"US","name":"Liberty County","_id":4205615,"coord":{"lon":-81.500389,"lat":31.83354}},{"displayName":"Liberty Grove, US","country":"US","name":"Liberty Grove","_id":7151300,"coord":{"lon":-88.230278,"lat":41.613892}},{"displayName":"Liberty Lake, US","country":"US","name":"Liberty Lake","_id":5800870,"coord":{"lon":-117.11821,"lat":47.675911}},{"displayName":"Liberty Valley, JM","country":"JM","name":"Liberty Valley","_id":3489782,"coord":{"lon":-77.366669,"lat":18.4}},{"displayName":"Liberty, PH","country":"PH","name":"Liberty","_id":1706658,"coord":{"lon":125.002502,"lat":10.87417}},{"displayName":"Liberty, PH","country":"PH","name":"Liberty","_id":1706659,"coord":{"lon":124.628891,"lat":6.54111}},{"displayName":"Liberty, PH","country":"PH","name":"Liberty","_id":1706660,"coord":{"lon":124.981941,"lat":6.45528}},{"displayName":"Liberty, US","country":"US","name":"Liberty","_id":5301878,"coord":{"lon":-112.486832,"lat":33.377541}},{"displayName":"Liberty, US","country":"US","name":"Liberty","_id":4298005,"coord":{"lon":-87.19278,"lat":36.8881}},{"displayName":"Liberty, US","country":"US","name":"Liberty","_id":5525066,"coord":{"lon":-101.767113,"lat":33.69397}},{"displayName":"Liberty, US","country":"US","name":"Liberty","_id":4395052,"coord":{"lon":-94.419121,"lat":39.246109}},{"displayName":"Liberty, US","country":"US","name":"Liberty","_id":4260329,"coord":{"lon":-84.931068,"lat":39.635601}},{"displayName":"Liberty, US","country":"US","name":"Liberty","_id":4298003,"coord":{"lon":-84.9394,"lat":37.318409}},{"displayName":"Liberty, US","country":"US","name":"Liberty","_id":4433362,"coord":{"lon":-90.812317,"lat":31.15823}},{"displayName":"Liberty, US","country":"US","name":"Liberty","_id":4475785,"coord":{"lon":-79.571693,"lat":35.85347}},{"displayName":"Liberty, US","country":"US","name":"Liberty","_id":4585025,"coord":{"lon":-82.69236,"lat":34.787891}},{"displayName":"Liberty, US","country":"US","name":"Liberty","_id":4706088,"coord":{"lon":-94.795479,"lat":30.057989}},{"displayName":"Liberty, US","country":"US","name":"Liberty","_id":5124323,"coord":{"lon":-74.746552,"lat":41.801201}},{"displayName":"Liberty, US","country":"US","name":"Liberty","_id":5197865,"coord":{"lon":-79.856163,"lat":40.325352}},{"displayName":"Liberty, US","country":"US","name":"Liberty","_id":5777253,"coord":{"lon":-111.863548,"lat":41.333549}},{"displayName":"Libertyville, US","country":"US","name":"Libertyville","_id":4899739,"coord":{"lon":-87.953133,"lat":42.283081}},{"displayName":"Libesice, CZ","country":"CZ","name":"Libesice","_id":3071955,"coord":{"lon":14.28906,"lat":50.568859}},{"displayName":"Libeznice, CZ","country":"CZ","name":"Libeznice","_id":3071951,"coord":{"lon":14.49357,"lat":50.191978}},{"displayName":"Libiaz, PL","country":"PL","name":"Libiaz","_id":3093457,"coord":{"lon":19.31568,"lat":50.103958}},{"displayName":"Libice nad Cidlinou, CZ","country":"CZ","name":"Libice nad Cidlinou","_id":3071947,"coord":{"lon":15.1782,"lat":50.12677}},{"displayName":"Libin Haut, BE","country":"BE","name":"Libin Haut","_id":2792441,"coord":{"lon":5.2543,"lat":49.984501}},{"displayName":"Libin, BE","country":"BE","name":"Libin","_id":2792443,"coord":{"lon":5.28333,"lat":49.98333}},{"displayName":"Libin, BE","country":"BE","name":"Libin","_id":2792442,"coord":{"lon":5.25612,"lat":49.981071}},{"displayName":"Libis, CZ","country":"CZ","name":"Libis","_id":3071937,"coord":{"lon":14.5024,"lat":50.27417}},{"displayName":"Libiąż Mały, PL","country":"PL","name":"Libiąż Mały","_id":3093456,"coord":{"lon":19.316669,"lat":50.099998}},{"displayName":"Libiąż, PL","country":"PL","name":"Libiąż","_id":7533306,"coord":{"lon":19.3179,"lat":50.094898}},{"displayName":"Libjo, PH","country":"PH","name":"Libjo","_id":1706646,"coord":{"lon":125.535278,"lat":10.19778}},{"displayName":"Libmanan, PH","country":"PH","name":"Libmanan","_id":1706629,"coord":{"lon":123.059601,"lat":13.6928}},{"displayName":"Libochovice, CZ","country":"CZ","name":"Libochovice","_id":3071911,"coord":{"lon":14.04439,"lat":50.406261}},{"displayName":"Libog, PH","country":"PH","name":"Libog","_id":1706614,"coord":{"lon":123.777802,"lat":13.2349}},{"displayName":"Libohove, AL","country":"AL","name":"Libohove","_id":782523,"coord":{"lon":20.26306,"lat":40.031109}},{"displayName":"Libon, PH","country":"PH","name":"Libon","_id":1706612,"coord":{"lon":123.383331,"lat":13.26667}},{"displayName":"Libon, PH","country":"PH","name":"Libon","_id":1706609,"coord":{"lon":123.438599,"lat":13.2997}},{"displayName":"Libona, PH","country":"PH","name":"Libona","_id":1706607,"coord":{"lon":124.735283,"lat":8.33889}},{"displayName":"Liboran, PH","country":"PH","name":"Liboran","_id":1706599,"coord":{"lon":124.648888,"lat":8.35472}},{"displayName":"Liborina, CO","country":"CO","name":"Liborina","_id":3676591,"coord":{"lon":-75.81218,"lat":6.6779}},{"displayName":"Liborio Negron Torres, PR","country":"PR","name":"Liborio Negron Torres","_id":4566004,"coord":{"lon":-66.942398,"lat":18.04302}},{"displayName":"Liboro, PH","country":"PH","name":"Liboro","_id":1706598,"coord":{"lon":122.7295,"lat":13.8245}},{"displayName":"Libouchec, CZ","country":"CZ","name":"Libouchec","_id":3071895,"coord":{"lon":14.04071,"lat":50.758541}},{"displayName":"Libourne, FR","country":"FR","name":"Libourne","_id":6454008,"coord":{"lon":-0.23333,"lat":44.916672}},{"displayName":"Libourne, FR","country":"FR","name":"Libourne","_id":2998517,"coord":{"lon":-0.23333,"lat":44.916672}},{"displayName":"Librazhd, AL","country":"AL","name":"Librazhd","_id":782519,"coord":{"lon":20.315001,"lat":41.17944}},{"displayName":"Librazhd-Qender, AL","country":"AL","name":"Librazhd-Qender","_id":832209,"coord":{"lon":20.33556,"lat":41.196941}},{"displayName":"Libres, MX","country":"MX","name":"Libres","_id":3524374,"coord":{"lon":-97.683327,"lat":19.466669}},{"displayName":"Libreville, GA","country":"GA","name":"Libreville","_id":2399697,"coord":{"lon":9.45365,"lat":0.3925}},{"displayName":"Librilla, ES","country":"ES","name":"Librilla","_id":6359528,"coord":{"lon":-1.34156,"lat":37.903309}},{"displayName":"Librilla, ES","country":"ES","name":"Librilla","_id":2515060,"coord":{"lon":-1.35557,"lat":37.886421}},{"displayName":"Librizzi, IT","country":"IT","name":"Librizzi","_id":2524394,"coord":{"lon":14.95818,"lat":38.09576}},{"displayName":"Libros, ES","country":"ES","name":"Libros","_id":6361545,"coord":{"lon":-1.21908,"lat":40.1422}},{"displayName":"Libros, ES","country":"ES","name":"Libros","_id":3118458,"coord":{"lon":-1.2336,"lat":40.16312}},{"displayName":"Librán, ES","country":"ES","name":"Librán","_id":3118460,"coord":{"lon":-6.50377,"lat":42.728161}},{"displayName":"Libu, CN","country":"CN","name":"Libu","_id":1803799,"coord":{"lon":112.420578,"lat":24.56715}},{"displayName":"Libu, CN","country":"CN","name":"Libu","_id":1940997,"coord":{"lon":112.066673,"lat":30.322229}},{"displayName":"Libuganon, PH","country":"PH","name":"Libuganon","_id":1706557,"coord":{"lon":125.778328,"lat":7.35083}},{"displayName":"Libungan, PH","country":"PH","name":"Libungan","_id":1706550,"coord":{"lon":124.519997,"lat":7.24083}},{"displayName":"Libusin, CZ","country":"CZ","name":"Libusin","_id":3071881,"coord":{"lon":14.05458,"lat":50.16819}},{"displayName":"Libya, LY","country":"LY","name":"Libya","_id":2215636,"coord":{"lon":17.0,"lat":25.0}},{"displayName":"Licab, PH","country":"PH","name":"Licab","_id":1706532,"coord":{"lon":120.763397,"lat":15.5439}},{"displayName":"Licata, IT","country":"IT","name":"Licata","_id":2524393,"coord":{"lon":13.94607,"lat":37.10714}},{"displayName":"Licata, IT","country":"IT","name":"Licata","_id":6541340,"coord":{"lon":13.94607,"lat":37.10714}},{"displayName":"Licciana Nardi, IT","country":"IT","name":"Licciana Nardi","_id":3174760,"coord":{"lon":10.03559,"lat":44.266048}},{"displayName":"Lice, TR","country":"TR","name":"Lice","_id":305089,"coord":{"lon":40.647499,"lat":38.459171}},{"displayName":"Liceia, PT","country":"PT","name":"Liceia","_id":8011855,"coord":{"lon":-8.72056,"lat":40.254841}},{"displayName":"Liceia, PT","country":"PT","name":"Liceia","_id":2738310,"coord":{"lon":-8.7207,"lat":40.248379}},{"displayName":"Licenza, IT","country":"IT","name":"Licenza","_id":3174758,"coord":{"lon":12.90008,"lat":42.07412}},{"displayName":"Liceras, ES","country":"ES","name":"Liceras","_id":6361151,"coord":{"lon":-3.23328,"lat":41.398258}},{"displayName":"Liceras, ES","country":"ES","name":"Liceras","_id":3118457,"coord":{"lon":-3.24371,"lat":41.379391}},{"displayName":"Licey al Medio, DO","country":"DO","name":"Licey al Medio","_id":3499748,"coord":{"lon":-70.599998,"lat":19.433331}},{"displayName":"Lich, DE","country":"DE","name":"Lich","_id":2878166,"coord":{"lon":8.81567,"lat":50.520851}},{"displayName":"Lichen Stary, PL","country":"PL","name":"Lichen Stary","_id":3093446,"coord":{"lon":18.35515,"lat":52.31226}},{"displayName":"Licheng, CN","country":"CN","name":"Licheng","_id":1802788,"coord":{"lon":119.523987,"lat":31.430799}},{"displayName":"Licheng, CN","country":"CN","name":"Licheng","_id":1803791,"coord":{"lon":113.828362,"lat":23.29554}},{"displayName":"Licheng, CN","country":"CN","name":"Licheng","_id":1803790,"coord":{"lon":110.389191,"lat":24.506491}},{"displayName":"Licherode, DE","country":"DE","name":"Licherode","_id":2878162,"coord":{"lon":9.58333,"lat":51.01667}},{"displayName":"Lichfield District, GB","country":"GB","name":"Lichfield District","_id":7290628,"coord":{"lon":-1.7733,"lat":52.695999}},{"displayName":"Lichfield, GB","country":"GB","name":"Lichfield","_id":2644531,"coord":{"lon":-1.82549,"lat":52.681541}},{"displayName":"Lichinga, MZ","country":"MZ","name":"Lichinga","_id":1043893,"coord":{"lon":35.240559,"lat":-13.31278}},{"displayName":"Lichk, AM","country":"AM","name":"Lichk","_id":616471,"coord":{"lon":45.234669,"lat":40.159328}},{"displayName":"Lichnov (o. Novy Jicin), CZ","country":"CZ","name":"Lichnov (o. Novy Jicin)","_id":3071875,"coord":{"lon":18.16898,"lat":49.564232}},{"displayName":"Lichnov, CZ","country":"CZ","name":"Lichnov","_id":3071874,"coord":{"lon":17.6264,"lat":50.007858}},{"displayName":"Lichos, FR","country":"FR","name":"Lichos","_id":6440473,"coord":{"lon":-0.86667,"lat":43.299999}},{"displayName":"Lichos, FR","country":"FR","name":"Lichos","_id":2998498,"coord":{"lon":-0.87812,"lat":43.305511}},{"displayName":"Lichte, DE","country":"DE","name":"Lichte","_id":6550324,"coord":{"lon":11.1697,"lat":50.519402}},{"displayName":"Lichte, DE","country":"DE","name":"Lichte","_id":2878153,"coord":{"lon":11.18333,"lat":50.51667}},{"displayName":"Lichtenau, DE","country":"DE","name":"Lichtenau","_id":2878133,"coord":{"lon":8.9,"lat":51.616669}},{"displayName":"Lichtenau, DE","country":"DE","name":"Lichtenau","_id":2878140,"coord":{"lon":8.01667,"lat":48.73333}},{"displayName":"Lichtenau, DE","country":"DE","name":"Lichtenau","_id":2878135,"coord":{"lon":12.55,"lat":50.549999}},{"displayName":"Lichtenau, DE","country":"DE","name":"Lichtenau","_id":2878136,"coord":{"lon":10.85,"lat":50.5}},{"displayName":"Lichtenau, DE","country":"DE","name":"Lichtenau","_id":2878143,"coord":{"lon":10.45,"lat":47.98333}},{"displayName":"Lichtenau, DE","country":"DE","name":"Lichtenau","_id":2878138,"coord":{"lon":10.4,"lat":49.166672}},{"displayName":"Lichtenberg, BE","country":"BE","name":"Lichtenberg","_id":2792432,"coord":{"lon":5.20017,"lat":50.80534}},{"displayName":"Lichtenberg, DE","country":"DE","name":"Lichtenberg","_id":6548720,"coord":{"lon":13.9667,"lat":51.1833}},{"displayName":"Lichtenberg, DE","country":"DE","name":"Lichtenberg","_id":2878109,"coord":{"lon":13.96667,"lat":51.183331}},{"displayName":"Lichtenberg, DE","country":"DE","name":"Lichtenberg","_id":2878111,"coord":{"lon":13.41667,"lat":50.833328}},{"displayName":"Lichtenberg, DE","country":"DE","name":"Lichtenberg","_id":2878114,"coord":{"lon":11.67624,"lat":50.38335}},{"displayName":"Lichtenborn, DE","country":"DE","name":"Lichtenborn","_id":6554565,"coord":{"lon":6.3,"lat":50.116699}},{"displayName":"Lichtenborn, DE","country":"DE","name":"Lichtenborn","_id":2878093,"coord":{"lon":6.3,"lat":50.116669}},{"displayName":"Lichtenburg, ZA","country":"ZA","name":"Lichtenburg","_id":982899,"coord":{"lon":26.159679,"lat":-26.152}},{"displayName":"Lichtenegg, AT","country":"AT","name":"Lichtenegg","_id":7871937,"coord":{"lon":16.215521,"lat":47.580399}},{"displayName":"Lichtenegg, AT","country":"AT","name":"Lichtenegg","_id":2772538,"coord":{"lon":16.200001,"lat":47.599998}},{"displayName":"Lichtenfels, DE","country":"DE","name":"Lichtenfels","_id":2878074,"coord":{"lon":11.05928,"lat":50.145672}},{"displayName":"Lichtenhaag, DE","country":"DE","name":"Lichtenhaag","_id":2878071,"coord":{"lon":12.38333,"lat":48.5}},{"displayName":"Lichtenhain, DE","country":"DE","name":"Lichtenhain","_id":2878061,"coord":{"lon":14.23333,"lat":50.950001}},{"displayName":"Lichtenhain, DE","country":"DE","name":"Lichtenhain","_id":2878064,"coord":{"lon":11.31667,"lat":50.5}},{"displayName":"Lichtenow, DE","country":"DE","name":"Lichtenow","_id":2878046,"coord":{"lon":13.9,"lat":52.48333}},{"displayName":"Lichtenrade, DE","country":"DE","name":"Lichtenrade","_id":2878044,"coord":{"lon":13.40637,"lat":52.398441}},{"displayName":"Lichtensee, DE","country":"DE","name":"Lichtensee","_id":2878041,"coord":{"lon":13.36667,"lat":51.383331}},{"displayName":"Lichtensteig, CH","country":"CH","name":"Lichtensteig","_id":7286345,"coord":{"lon":9.09651,"lat":47.324799}},{"displayName":"Lichtensteig, CH","country":"CH","name":"Lichtensteig","_id":2659898,"coord":{"lon":9.08758,"lat":47.323811}},{"displayName":"Lichtenstein, DE","country":"DE","name":"Lichtenstein","_id":2878037,"coord":{"lon":12.65,"lat":50.75}},{"displayName":"Lichtentanne, DE","country":"DE","name":"Lichtentanne","_id":6548600,"coord":{"lon":12.4333,"lat":50.700001}},{"displayName":"Lichtentanne, DE","country":"DE","name":"Lichtentanne","_id":2878027,"coord":{"lon":12.43333,"lat":50.700001}},{"displayName":"Lichtenvoorde, NL","country":"NL","name":"Lichtenvoorde","_id":2751651,"coord":{"lon":6.56667,"lat":51.986671}},{"displayName":"Lichtenwalde, DE","country":"DE","name":"Lichtenwalde","_id":2878025,"coord":{"lon":13.01667,"lat":50.883331}},{"displayName":"Lichtenworth, AT","country":"AT","name":"Lichtenworth","_id":2772531,"coord":{"lon":16.283331,"lat":47.833328}},{"displayName":"Lichtenwörth, AT","country":"AT","name":"Lichtenwörth","_id":7873055,"coord":{"lon":16.31481,"lat":47.820499}},{"displayName":"Lichterfeld, DE","country":"DE","name":"Lichterfeld","_id":2878022,"coord":{"lon":13.76667,"lat":51.599998}},{"displayName":"Lichtervelde, BE","country":"BE","name":"Lichtervelde","_id":2792430,"coord":{"lon":3.1458,"lat":51.028339}},{"displayName":"Lichtervelde, BE","country":"BE","name":"Lichtervelde","_id":2792428,"coord":{"lon":3.15,"lat":51.033329}},{"displayName":"Lichtetanne, DE","country":"DE","name":"Lichtetanne","_id":2878007,"coord":{"lon":12.43333,"lat":50.700001}},{"displayName":"Lichuan Zhen, CN","country":"CN","name":"Lichuan Zhen","_id":7516812,"coord":{"lon":104.319481,"lat":34.248451}},{"displayName":"Lichuan, CN","country":"CN","name":"Lichuan","_id":1803782,"coord":{"lon":108.849998,"lat":30.299999}},{"displayName":"Liciada, PH","country":"PH","name":"Liciada","_id":1706526,"coord":{"lon":120.932777,"lat":14.89806}},{"displayName":"Licking County, US","country":"US","name":"Licking County","_id":5160740,"coord":{"lon":-82.50016,"lat":40.083401}},{"displayName":"Licking, US","country":"US","name":"Licking","_id":4395255,"coord":{"lon":-91.857101,"lat":37.499489}},{"displayName":"Licodia Eubea, IT","country":"IT","name":"Licodia Eubea","_id":2524392,"coord":{"lon":14.70608,"lat":37.157139}},{"displayName":"Licola, AU","country":"AU","name":"Licola","_id":2160259,"coord":{"lon":146.616669,"lat":-37.633331}},{"displayName":"Licq-Athérey, FR","country":"FR","name":"Licq-Athérey","_id":6440474,"coord":{"lon":-0.86667,"lat":43.066669}},{"displayName":"Licq-Athérey, FR","country":"FR","name":"Licq-Athérey","_id":2998493,"coord":{"lon":-0.87874,"lat":43.06686}},{"displayName":"Licques, FR","country":"FR","name":"Licques","_id":2998492,"coord":{"lon":1.93844,"lat":50.784161}},{"displayName":"Licuan, PH","country":"PH","name":"Licuan","_id":1706499,"coord":{"lon":120.905899,"lat":17.6089}},{"displayName":"Licun, CN","country":"CN","name":"Licun","_id":1803772,"coord":{"lon":111.45475,"lat":35.760719}},{"displayName":"Licun, CN","country":"CN","name":"Licun","_id":1803775,"coord":{"lon":115.392738,"lat":25.847059}},{"displayName":"Licun, CN","country":"CN","name":"Licun","_id":7685371,"coord":{"lon":115.698982,"lat":27.995041}},{"displayName":"Licuriciu, RO","country":"RO","name":"Licuriciu","_id":674804,"coord":{"lon":23.616671,"lat":44.916672}},{"displayName":"Licínio de Almeida, BR","country":"BR","name":"Licínio de Almeida","_id":3458604,"coord":{"lon":-42.5075,"lat":-14.68222}},{"displayName":"Lida, BY","country":"BY","name":"Lida","_id":626081,"coord":{"lon":25.299721,"lat":53.883331}},{"displayName":"Lidayao, CN","country":"CN","name":"Lidayao","_id":2036103,"coord":{"lon":112.453667,"lat":40.237148}},{"displayName":"Lidcombe, AU","country":"AU","name":"Lidcombe","_id":2160258,"coord":{"lon":151.039703,"lat":-33.864361}},{"displayName":"Liddes, CH","country":"CH","name":"Liddes","_id":7286346,"coord":{"lon":7.18869,"lat":45.979252}},{"displayName":"Lidecko, CZ","country":"CZ","name":"Lidecko","_id":3071863,"coord":{"lon":18.0513,"lat":49.20303}},{"displayName":"Lidian, CN","country":"CN","name":"Lidian","_id":1803757,"coord":{"lon":105.687553,"lat":35.226822}},{"displayName":"Lidian, CN","country":"CN","name":"Lidian","_id":1803760,"coord":{"lon":113.757858,"lat":31.21604}},{"displayName":"Lidian, CN","country":"CN","name":"Lidian","_id":1940924,"coord":{"lon":113.950058,"lat":31.5168}},{"displayName":"Lidice, PA","country":"PA","name":"Lidice","_id":3705894,"coord":{"lon":-79.900002,"lat":8.75}},{"displayName":"Lidingoe, SE","country":"SE","name":"Lidingoe","_id":2696334,"coord":{"lon":18.133329,"lat":59.366669}},{"displayName":"Lidingö Kommun, SE","country":"SE","name":"Lidingö Kommun","_id":2696332,"coord":{"lon":18.183331,"lat":59.366669}},{"displayName":"Lidkoping, SE","country":"SE","name":"Lidkoping","_id":2696329,"coord":{"lon":13.15765,"lat":58.505169}},{"displayName":"Lidköpings Kommun, SE","country":"SE","name":"Lidköpings Kommun","_id":2696328,"coord":{"lon":13.0,"lat":58.5}},{"displayName":"Lidlidda, PH","country":"PH","name":"Lidlidda","_id":1706487,"coord":{"lon":120.521301,"lat":17.2693}},{"displayName":"Lidlington, GB","country":"GB","name":"Lidlington","_id":2644522,"coord":{"lon":-0.55914,"lat":52.041538}},{"displayName":"Lido Beach, US","country":"US","name":"Lido Beach","_id":5124352,"coord":{"lon":-73.625412,"lat":40.588989}},{"displayName":"Lido di Jesolo, IT","country":"IT","name":"Lido di Jesolo","_id":3174742,"coord":{"lon":12.64694,"lat":45.506939}},{"displayName":"Lido di Ostia, IT","country":"IT","name":"Lido di Ostia","_id":3174741,"coord":{"lon":12.27654,"lat":41.732121}},{"displayName":"Lido, ID","country":"ID","name":"Lido","_id":7456688,"coord":{"lon":118.7341,"lat":-8.6294}},{"displayName":"Lidon, ES","country":"ES","name":"Lidon","_id":3118454,"coord":{"lon":-1.1125,"lat":40.717251}},{"displayName":"Lidong, CN","country":"CN","name":"Lidong","_id":2036102,"coord":{"lon":127.891121,"lat":46.078892}},{"displayName":"Lidong, CN","country":"CN","name":"Lidong","_id":8135414,"coord":{"lon":111.822098,"lat":29.64286}},{"displayName":"Lidsdale, AU","country":"AU","name":"Lidsdale","_id":2160255,"coord":{"lon":150.083328,"lat":-33.400002}},{"displayName":"Lidster, AU","country":"AU","name":"Lidster","_id":2160254,"coord":{"lon":149.016663,"lat":-33.283329}},{"displayName":"Lidstone, CA","country":"CA","name":"Lidstone","_id":6053575,"coord":{"lon":-101.165283,"lat":52.027802}},{"displayName":"Liduzhen, CN","country":"CN","name":"Liduzhen","_id":7328932,"coord":{"lon":116.156418,"lat":28.2236}},{"displayName":"Lidzava, GE","country":"GE","name":"Lidzava","_id":613195,"coord":{"lon":40.3675,"lat":43.178055}},{"displayName":"Lidzbark Warminski, PL","country":"PL","name":"Lidzbark Warminski","_id":766307,"coord":{"lon":20.57954,"lat":54.125881}},{"displayName":"Lidzbark Warmiński, PL","country":"PL","name":"Lidzbark Warmiński","_id":7531391,"coord":{"lon":20.567341,"lat":54.130779}},{"displayName":"Lidzbark, PL","country":"PL","name":"Lidzbark","_id":7533015,"coord":{"lon":19.823799,"lat":53.259998}},{"displayName":"Lidzbark, PL","country":"PL","name":"Lidzbark","_id":3093439,"coord":{"lon":19.82663,"lat":53.262829}},{"displayName":"Lidón, ES","country":"ES","name":"Lidón","_id":6361546,"coord":{"lon":-1.10542,"lat":40.728199}},{"displayName":"Liebelsberg, DE","country":"DE","name":"Liebelsberg","_id":2877987,"coord":{"lon":8.68203,"lat":48.672661}},{"displayName":"Liebenau, DE","country":"DE","name":"Liebenau","_id":2877979,"coord":{"lon":9.09719,"lat":52.603619}},{"displayName":"Liebenau, DE","country":"DE","name":"Liebenau","_id":2877980,"coord":{"lon":9.28207,"lat":51.49699}},{"displayName":"Liebenburg, DE","country":"DE","name":"Liebenburg","_id":2877969,"coord":{"lon":10.43169,"lat":52.021759}},{"displayName":"Liebenburg, DE","country":"DE","name":"Liebenburg","_id":6552354,"coord":{"lon":10.45,"lat":52.016701}},{"displayName":"Liebenfels, AT","country":"AT","name":"Liebenfels","_id":7871645,"coord":{"lon":14.2556,"lat":46.752861}},{"displayName":"Liebenfels, AT","country":"AT","name":"Liebenfels","_id":3324633,"coord":{"lon":14.28667,"lat":46.737782}},{"displayName":"Liebenscheid, DE","country":"DE","name":"Liebenscheid","_id":6554236,"coord":{"lon":8.1,"lat":50.700001}},{"displayName":"Liebenscheid, DE","country":"DE","name":"Liebenscheid","_id":2877955,"coord":{"lon":8.1,"lat":50.700001}},{"displayName":"Liebenstein, DE","country":"DE","name":"Liebenstein","_id":6550212,"coord":{"lon":10.85,"lat":50.766701}},{"displayName":"Liebenstein, DE","country":"DE","name":"Liebenstein","_id":2877948,"coord":{"lon":10.85,"lat":50.76667}},{"displayName":"Liebenthal, DE","country":"DE","name":"Liebenthal","_id":2877944,"coord":{"lon":13.46117,"lat":52.912842}},{"displayName":"Liebenwalde, DE","country":"DE","name":"Liebenwalde","_id":2877942,"coord":{"lon":13.39465,"lat":52.87125}},{"displayName":"Lieberose, DE","country":"DE","name":"Lieberose","_id":2877932,"coord":{"lon":14.3,"lat":51.98333}},{"displayName":"Liebersee, DE","country":"DE","name":"Liebersee","_id":2877925,"coord":{"lon":13.16667,"lat":51.466671}},{"displayName":"Liebertwolkwitz, DE","country":"DE","name":"Liebertwolkwitz","_id":2877922,"coord":{"lon":12.46667,"lat":51.283329}},{"displayName":"Liebistorf, CH","country":"CH","name":"Liebistorf","_id":2659895,"coord":{"lon":7.19636,"lat":46.90881}},{"displayName":"Liebling, RO","country":"RO","name":"Liebling","_id":674799,"coord":{"lon":21.321671,"lat":45.577499}},{"displayName":"Lieblingshof, DE","country":"DE","name":"Lieblingshof","_id":2877905,"coord":{"lon":12.32924,"lat":54.03001}},{"displayName":"Lieblos, DE","country":"DE","name":"Lieblos","_id":2877904,"coord":{"lon":9.1432,"lat":50.20789}},{"displayName":"Lieboch, AT","country":"AT","name":"Lieboch","_id":7873406,"coord":{"lon":15.33572,"lat":46.975269}},{"displayName":"Lieboch, AT","country":"AT","name":"Lieboch","_id":2772514,"coord":{"lon":15.3375,"lat":46.974171}},{"displayName":"Liebshausen, DE","country":"DE","name":"Liebshausen","_id":6553923,"coord":{"lon":7.63333,"lat":50.033298}},{"displayName":"Liebshausen, DE","country":"DE","name":"Liebshausen","_id":2877892,"coord":{"lon":7.63333,"lat":50.033329}},{"displayName":"Liebstadt, DE","country":"DE","name":"Liebstadt","_id":2877891,"coord":{"lon":13.86667,"lat":50.866669}},{"displayName":"Liebstedt, DE","country":"DE","name":"Liebstedt","_id":6550260,"coord":{"lon":11.4,"lat":51.049999}},{"displayName":"Liebstedt, DE","country":"DE","name":"Liebstedt","_id":2877889,"coord":{"lon":11.4,"lat":51.049999}},{"displayName":"Liebsthal, DE","country":"DE","name":"Liebsthal","_id":2877887,"coord":{"lon":7.4,"lat":49.48333}},{"displayName":"Liebu, CN","country":"CN","name":"Liebu","_id":1803751,"coord":{"lon":111.95594,"lat":39.325611}},{"displayName":"Liedekerke, BE","country":"BE","name":"Liedekerke","_id":2792423,"coord":{"lon":4.08743,"lat":50.868919}},{"displayName":"Liedekerke, BE","country":"BE","name":"Liedekerke","_id":2792424,"coord":{"lon":4.08333,"lat":50.866669}},{"displayName":"Liedena, ES","country":"ES","name":"Liedena","_id":3118452,"coord":{"lon":-1.27579,"lat":42.619431}},{"displayName":"Liederbach, DE","country":"DE","name":"Liederbach","_id":3208086,"coord":{"lon":8.5,"lat":50.116669}},{"displayName":"Liedering, DE","country":"DE","name":"Liedering","_id":2877871,"coord":{"lon":12.33333,"lat":48.01667}},{"displayName":"Liederschiedt, FR","country":"FR","name":"Liederschiedt","_id":6437663,"coord":{"lon":7.5,"lat":49.116669}},{"displayName":"Liederschiedt, FR","country":"FR","name":"Liederschiedt","_id":2998482,"coord":{"lon":7.49671,"lat":49.122139}},{"displayName":"Liedersdorf, DE","country":"DE","name":"Liedersdorf","_id":2877869,"coord":{"lon":11.43333,"lat":51.466671}},{"displayName":"Liedolsheim, DE","country":"DE","name":"Liedolsheim","_id":2877865,"coord":{"lon":8.42222,"lat":49.158749}},{"displayName":"Lieffrens, CH","country":"CH","name":"Lieffrens","_id":7670271,"coord":{"lon":6.90167,"lat":46.637989}},{"displayName":"Liefrange, LU","country":"LU","name":"Liefrange","_id":2960333,"coord":{"lon":5.8775,"lat":49.91}},{"displayName":"Lieg, DE","country":"DE","name":"Lieg","_id":6553702,"coord":{"lon":7.35,"lat":50.133301}},{"displayName":"Lieg, DE","country":"DE","name":"Lieg","_id":2877863,"coord":{"lon":7.35,"lat":50.133331}},{"displayName":"Liegau-Augustusbad, DE","country":"DE","name":"Liegau-Augustusbad","_id":2877861,"coord":{"lon":13.88333,"lat":51.133331}},{"displayName":"Liege, BE","country":"BE","name":"Liege","_id":2792413,"coord":{"lon":5.56749,"lat":50.633732}},{"displayName":"Lieksa, FI","country":"FI","name":"Lieksa","_id":648091,"coord":{"lon":30.033331,"lat":63.316669}},{"displayName":"Lieksa, FI","country":"FI","name":"Lieksa","_id":648090,"coord":{"lon":30.01667,"lat":63.316669}},{"displayName":"Lieler, LU","country":"LU","name":"Lieler","_id":2960332,"coord":{"lon":6.11,"lat":50.124439}},{"displayName":"Lielvarde, LV","country":"LV","name":"Lielvarde","_id":457965,"coord":{"lon":24.80743,"lat":56.720661}},{"displayName":"Liemehna, DE","country":"DE","name":"Liemehna","_id":2877849,"coord":{"lon":12.51326,"lat":51.435822}},{"displayName":"Liena, AU","country":"AU","name":"Liena","_id":2160251,"coord":{"lon":146.25,"lat":-41.566669}},{"displayName":"Liencres, ES","country":"ES","name":"Liencres","_id":3118447,"coord":{"lon":-3.92906,"lat":43.460152}},{"displayName":"Lienden, NL","country":"NL","name":"Lienden","_id":2751641,"coord":{"lon":5.51806,"lat":51.94833}},{"displayName":"Lienen, DE","country":"DE","name":"Lienen","_id":2877842,"coord":{"lon":8.46667,"lat":53.25}},{"displayName":"Lienen, DE","country":"DE","name":"Lienen","_id":6553104,"coord":{"lon":7.98333,"lat":52.150002}},{"displayName":"Lienen, DE","country":"DE","name":"Lienen","_id":2877843,"coord":{"lon":7.98333,"lat":52.150002}},{"displayName":"Liener, DE","country":"DE","name":"Liener","_id":2877841,"coord":{"lon":7.78333,"lat":52.849998}},{"displayName":"Lienz, AT","country":"AT","name":"Lienz","_id":7873678,"coord":{"lon":12.75184,"lat":46.82803}},{"displayName":"Lienz, AT","country":"AT","name":"Lienz","_id":2772505,"coord":{"lon":12.76903,"lat":46.828899}},{"displayName":"Liepaja, LV","country":"LV","name":"Liepaja","_id":457954,"coord":{"lon":21.01667,"lat":56.51667}},{"displayName":"Liepe, DE","country":"DE","name":"Liepe","_id":2877828,"coord":{"lon":13.36667,"lat":51.950001}},{"displayName":"Liepe, DE","country":"DE","name":"Liepe","_id":6547551,"coord":{"lon":13.9667,"lat":52.866699}},{"displayName":"Liepe, DE","country":"DE","name":"Liepe","_id":2877826,"coord":{"lon":13.96946,"lat":52.862129}},{"displayName":"Liepen, DE","country":"DE","name":"Liepen","_id":6548285,"coord":{"lon":13.4667,"lat":53.883301}},{"displayName":"Liepen, DE","country":"DE","name":"Liepen","_id":2877815,"coord":{"lon":13.46667,"lat":53.883331}},{"displayName":"Liepgarten, DE","country":"DE","name":"Liepgarten","_id":6548464,"coord":{"lon":14.0167,"lat":53.716702}},{"displayName":"Liepgarten, DE","country":"DE","name":"Liepgarten","_id":2877803,"coord":{"lon":14.01667,"lat":53.716671}},{"displayName":"Liepiai, LT","country":"LT","name":"Liepiai","_id":597484,"coord":{"lon":24.299999,"lat":55.183331}},{"displayName":"Liepvre, FR","country":"FR","name":"Liepvre","_id":2998474,"coord":{"lon":7.28414,"lat":48.270359}},{"displayName":"Liepāja, LV","country":"LV","name":"Liepāja","_id":457955,"coord":{"lon":21.036671,"lat":56.541939}},{"displayName":"Liepājas Rajons, LV","country":"LV","name":"Liepājas Rajons","_id":457951,"coord":{"lon":21.41667,"lat":56.5}},{"displayName":"Lieqiao, CN","country":"CN","name":"Lieqiao","_id":1803748,"coord":{"lon":117.522324,"lat":28.56377}},{"displayName":"Lier, BE","country":"BE","name":"Lier","_id":2792406,"coord":{"lon":4.56667,"lat":51.133331}},{"displayName":"Lier, BE","country":"BE","name":"Lier","_id":2792397,"coord":{"lon":4.57042,"lat":51.131279}},{"displayName":"Lier, NO","country":"NO","name":"Lier","_id":3147541,"coord":{"lon":10.2459,"lat":59.786629}},{"displayName":"Lierbyen, NO","country":"NO","name":"Lierbyen","_id":7626341,"coord":{"lon":10.24561,"lat":59.7873}},{"displayName":"Lierde, BE","country":"BE","name":"Lierde","_id":2786604,"coord":{"lon":3.85,"lat":50.816669}},{"displayName":"Lierfeld, DE","country":"DE","name":"Lierfeld","_id":6554566,"coord":{"lon":6.36667,"lat":50.133301}},{"displayName":"Lierfeld, DE","country":"DE","name":"Lierfeld","_id":2877792,"coord":{"lon":6.36667,"lat":50.133331}},{"displayName":"Liergues, FR","country":"FR","name":"Liergues","_id":2998469,"coord":{"lon":4.66231,"lat":45.971378}},{"displayName":"Lierna, IT","country":"IT","name":"Lierna","_id":3174737,"coord":{"lon":9.30564,"lat":45.95948}},{"displayName":"Lierneux, BE","country":"BE","name":"Lierneux","_id":2792401,"coord":{"lon":5.79065,"lat":50.28616}},{"displayName":"Lierneux, BE","country":"BE","name":"Lierneux","_id":2792400,"coord":{"lon":5.79236,"lat":50.284771}},{"displayName":"Liernolles, FR","country":"FR","name":"Liernolles","_id":6425378,"coord":{"lon":3.7529,"lat":46.395}},{"displayName":"Liernolles, FR","country":"FR","name":"Liernolles","_id":2998467,"coord":{"lon":3.75224,"lat":46.39476}},{"displayName":"Liers, DE","country":"DE","name":"Liers","_id":2877789,"coord":{"lon":6.94387,"lat":50.456741}},{"displayName":"Liers, FR","country":"FR","name":"Liers","_id":2998465,"coord":{"lon":2.34408,"lat":48.626869}},{"displayName":"Lierschied, DE","country":"DE","name":"Lierschied","_id":6554058,"coord":{"lon":7.75,"lat":50.166698}},{"displayName":"Lierschied, DE","country":"DE","name":"Lierschied","_id":2877787,"coord":{"lon":7.75,"lat":50.166672}},{"displayName":"Liesberg, CH","country":"CH","name":"Liesberg","_id":7286348,"coord":{"lon":7.42372,"lat":47.40041}},{"displayName":"Liesberg, CH","country":"CH","name":"Liesberg","_id":2659892,"coord":{"lon":7.42787,"lat":47.40398}},{"displayName":"Liesborn, DE","country":"DE","name":"Liesborn","_id":2877785,"coord":{"lon":8.26667,"lat":51.716671}},{"displayName":"Liesenfeld, DE","country":"DE","name":"Liesenfeld","_id":2877774,"coord":{"lon":7.55,"lat":50.150002}},{"displayName":"Liesenich, DE","country":"DE","name":"Liesenich","_id":6553703,"coord":{"lon":7.28333,"lat":50.083302}},{"displayName":"Liesenich, DE","country":"DE","name":"Liesenich","_id":2877773,"coord":{"lon":7.28333,"lat":50.083328}},{"displayName":"Lieser, DE","country":"DE","name":"Lieser","_id":6554345,"coord":{"lon":7.01667,"lat":49.916698}},{"displayName":"Lieser, DE","country":"DE","name":"Lieser","_id":2877771,"coord":{"lon":7.01667,"lat":49.916672}},{"displayName":"Liesing, AT","country":"AT","name":"Liesing","_id":2772487,"coord":{"lon":16.288349,"lat":48.135849}},{"displayName":"Lieskau, DE","country":"DE","name":"Lieskau","_id":2877767,"coord":{"lon":11.86667,"lat":51.5}},{"displayName":"Lieske, DE","country":"DE","name":"Lieske","_id":2877761,"coord":{"lon":14.13333,"lat":51.549999}},{"displayName":"Liesse-Notre-Dame, FR","country":"FR","name":"Liesse-Notre-Dame","_id":2998460,"coord":{"lon":3.8,"lat":49.616669}},{"displayName":"Liessem, DE","country":"DE","name":"Liessem","_id":2877759,"coord":{"lon":6.48333,"lat":50.033329}},{"displayName":"Liessow, DE","country":"DE","name":"Liessow","_id":2877755,"coord":{"lon":11.56667,"lat":53.716671}},{"displayName":"Liestal, CH","country":"CH","name":"Liestal","_id":7286349,"coord":{"lon":7.72569,"lat":47.485409}},{"displayName":"Liestal, CH","country":"CH","name":"Liestal","_id":2659891,"coord":{"lon":7.73446,"lat":47.48455}},{"displayName":"Liesten, DE","country":"DE","name":"Liesten","_id":2877753,"coord":{"lon":11.3,"lat":52.799999}},{"displayName":"Liesti, RO","country":"RO","name":"Liesti","_id":674796,"coord":{"lon":27.51667,"lat":45.616669}},{"displayName":"Liesveld, NL","country":"NL","name":"Liesveld","_id":2751621,"coord":{"lon":4.83194,"lat":51.932499}},{"displayName":"Liesville-sur-Douve, FR","country":"FR","name":"Liesville-sur-Douve","_id":6435466,"coord":{"lon":-1.33333,"lat":49.349998}},{"displayName":"Liesville-sur-Douve, FR","country":"FR","name":"Liesville-sur-Douve","_id":2998457,"coord":{"lon":-1.33738,"lat":49.356071}},{"displayName":"Lieth, DE","country":"DE","name":"Lieth","_id":2877748,"coord":{"lon":9.66667,"lat":53.716671}},{"displayName":"Lieth, DE","country":"DE","name":"Lieth","_id":6551347,"coord":{"lon":9.05,"lat":54.150002}},{"displayName":"Lieth, DE","country":"DE","name":"Lieth","_id":2877747,"coord":{"lon":9.05,"lat":54.150002}},{"displayName":"Lieto, FI","country":"FI","name":"Lieto","_id":648056,"coord":{"lon":22.46176,"lat":60.510319}},{"displayName":"Lieto, FI","country":"FI","name":"Lieto","_id":648057,"coord":{"lon":22.5,"lat":60.549999}},{"displayName":"Lietor, ES","country":"ES","name":"Lietor","_id":2515058,"coord":{"lon":-1.95367,"lat":38.542671}},{"displayName":"Lietzen, DE","country":"DE","name":"Lietzen","_id":6547609,"coord":{"lon":14.3455,"lat":52.467701}},{"displayName":"Lietzen, DE","country":"DE","name":"Lietzen","_id":2877732,"coord":{"lon":14.35,"lat":52.466671}},{"displayName":"Lietzow, DE","country":"DE","name":"Lietzow","_id":6548420,"coord":{"lon":13.5167,"lat":54.483299}},{"displayName":"Lietzow, DE","country":"DE","name":"Lietzow","_id":2877728,"coord":{"lon":13.50718,"lat":54.481709}},{"displayName":"Lieu-Saint-Amand, FR","country":"FR","name":"Lieu-Saint-Amand","_id":2998437,"coord":{"lon":3.34624,"lat":50.273178}},{"displayName":"Lieuran-les-Beziers, FR","country":"FR","name":"Lieuran-les-Beziers","_id":2998445,"coord":{"lon":3.23719,"lat":43.418598}},{"displayName":"Lieurey, FR","country":"FR","name":"Lieurey","_id":2998443,"coord":{"lon":0.49879,"lat":49.23019}},{"displayName":"Lieury, FR","country":"FR","name":"Lieury","_id":2998440,"coord":{"lon":-0.01835,"lat":48.989799}},{"displayName":"Lieusaint, FR","country":"FR","name":"Lieusaint","_id":2998439,"coord":{"lon":2.54806,"lat":48.634762}},{"displayName":"Lievin, FR","country":"FR","name":"Lievin","_id":2998431,"coord":{"lon":2.78068,"lat":50.4198}},{"displayName":"Lieyu, CN","country":"CN","name":"Lieyu","_id":1917876,"coord":{"lon":117.462379,"lat":23.82394}},{"displayName":"Liezen, AT","country":"AT","name":"Liezen","_id":7873501,"coord":{"lon":14.26445,"lat":47.586658}},{"displayName":"Liezen, AT","country":"AT","name":"Liezen","_id":2772480,"coord":{"lon":14.23333,"lat":47.566669}},{"displayName":"Ließem, DE","country":"DE","name":"Ließem","_id":6554459,"coord":{"lon":6.48333,"lat":50.033298}},{"displayName":"Ließen, DE","country":"DE","name":"Ließen","_id":2877758,"coord":{"lon":13.35,"lat":52.0}},{"displayName":"Lieģi, LV","country":"LV","name":"Lieģi","_id":458065,"coord":{"lon":21.33399,"lat":56.58173}},{"displayName":"Liffey, AU","country":"AU","name":"Liffey","_id":2160246,"coord":{"lon":146.899994,"lat":-41.666672}},{"displayName":"Liffol-le-Grand, FR","country":"FR","name":"Liffol-le-Grand","_id":2998425,"coord":{"lon":5.58125,"lat":48.317711}},{"displayName":"Liffre, FR","country":"FR","name":"Liffre","_id":2998423,"coord":{"lon":-1.50838,"lat":48.213242}},{"displayName":"Lifuta, CN","country":"CN","name":"Lifuta","_id":1803740,"coord":{"lon":110.074516,"lat":29.34376}},{"displayName":"Ligang, CN","country":"CN","name":"Ligang","_id":1803737,"coord":{"lon":120.078613,"lat":31.924721}},{"displayName":"Ligao, PH","country":"PH","name":"Ligao","_id":1706474,"coord":{"lon":123.532501,"lat":13.24028}},{"displayName":"Ligatne, LV","country":"LV","name":"Ligatne","_id":457912,"coord":{"lon":25.04059,"lat":57.234291}},{"displayName":"Ligaya, PH","country":"PH","name":"Ligaya","_id":1706467,"coord":{"lon":121.287201,"lat":15.5091}},{"displayName":"Ligaya, PH","country":"PH","name":"Ligaya","_id":1706468,"coord":{"lon":120.892319,"lat":12.65993}},{"displayName":"Ligayan, PH","country":"PH","name":"Ligayan","_id":1706466,"coord":{"lon":119.470558,"lat":4.65333}},{"displayName":"Ligerz, CH","country":"CH","name":"Ligerz","_id":7286350,"coord":{"lon":7.14026,"lat":47.09222}},{"displayName":"Ligerz, CH","country":"CH","name":"Ligerz","_id":2659890,"coord":{"lon":7.13476,"lat":47.083679}},{"displayName":"Light Street, US","country":"US","name":"Light Street","_id":5197978,"coord":{"lon":-76.423561,"lat":41.036201}},{"displayName":"Light, AU","country":"AU","name":"Light","_id":7839431,"coord":{"lon":138.843674,"lat":-34.409809}},{"displayName":"Lighthouse Point, US","country":"US","name":"Lighthouse Point","_id":4161957,"coord":{"lon":-80.087273,"lat":26.27564}},{"displayName":"Lightning Ridge, AU","country":"AU","name":"Lightning Ridge","_id":2160232,"coord":{"lon":147.983337,"lat":-29.433331}},{"displayName":"Ligist, AT","country":"AT","name":"Ligist","_id":7873546,"coord":{"lon":15.18393,"lat":46.978569}},{"displayName":"Ligist, AT","country":"AT","name":"Ligist","_id":2772476,"coord":{"lon":15.21083,"lat":46.993889}},{"displayName":"Lignan-de-Bazas, FR","country":"FR","name":"Lignan-de-Bazas","_id":6432278,"coord":{"lon":-0.28333,"lat":44.433331}},{"displayName":"Lignan-de-Bazas, FR","country":"FR","name":"Lignan-de-Bazas","_id":2998411,"coord":{"lon":-0.27791,"lat":44.433231}},{"displayName":"Lignan-de-Bordeaux, FR","country":"FR","name":"Lignan-de-Bordeaux","_id":6432279,"coord":{"lon":-0.4267,"lat":44.7957}},{"displayName":"Lignan-de-Bordeaux, FR","country":"FR","name":"Lignan-de-Bordeaux","_id":2998410,"coord":{"lon":-0.42774,"lat":44.796661}},{"displayName":"Lignan-sur-Orb, FR","country":"FR","name":"Lignan-sur-Orb","_id":2998409,"coord":{"lon":3.16891,"lat":43.384621}},{"displayName":"Lignana, IT","country":"IT","name":"Lignana","_id":3174732,"coord":{"lon":8.34393,"lat":45.28606}},{"displayName":"Lignano Sabbiadoro, IT","country":"IT","name":"Lignano Sabbiadoro","_id":3174729,"coord":{"lon":13.14806,"lat":45.692219}},{"displayName":"Lignat, FR","country":"FR","name":"Lignat","_id":2998406,"coord":{"lon":3.24536,"lat":45.8414}},{"displayName":"Lignat, FR","country":"FR","name":"Lignat","_id":2998407,"coord":{"lon":3.26059,"lat":45.713879}},{"displayName":"Ligne, FR","country":"FR","name":"Ligne","_id":2998404,"coord":{"lon":-1.37726,"lat":47.410961}},{"displayName":"Ligni, FR","country":"FR","name":"Ligni","_id":2998387,"coord":{"lon":0.5455,"lat":48.552029}},{"displayName":"Lignieres, FR","country":"FR","name":"Lignieres","_id":2998386,"coord":{"lon":2.1738,"lat":46.751518}},{"displayName":"Lignières, CH","country":"CH","name":"Lignières","_id":7286352,"coord":{"lon":7.05063,"lat":47.091228}},{"displayName":"Lignières, CH","country":"CH","name":"Lignières","_id":2659889,"coord":{"lon":7.06592,"lat":47.083309}},{"displayName":"Ligny-en-Barrois, FR","country":"FR","name":"Ligny-en-Barrois","_id":6437075,"coord":{"lon":5.33333,"lat":48.683331}},{"displayName":"Ligny-en-Barrois, FR","country":"FR","name":"Ligny-en-Barrois","_id":2998362,"coord":{"lon":5.32543,"lat":48.68861}},{"displayName":"Ligny-en-Cambresis, FR","country":"FR","name":"Ligny-en-Cambresis","_id":2998360,"coord":{"lon":3.37841,"lat":50.101231}},{"displayName":"Ligny-le-Chatel, FR","country":"FR","name":"Ligny-le-Chatel","_id":2998359,"coord":{"lon":3.7576,"lat":47.900219}},{"displayName":"Ligny-le-Ribault, FR","country":"FR","name":"Ligny-le-Ribault","_id":2998358,"coord":{"lon":1.78152,"lat":47.684189}},{"displayName":"Ligny-Thilloy, FR","country":"FR","name":"Ligny-Thilloy","_id":6439676,"coord":{"lon":2.82528,"lat":50.084438}},{"displayName":"Ligny-Thilloy, FR","country":"FR","name":"Ligny-Thilloy","_id":2998354,"coord":{"lon":2.82232,"lat":50.084999}},{"displayName":"Ligolambi, RU","country":"RU","name":"Ligolambi","_id":6268358,"coord":{"lon":30.68133,"lat":59.95089}},{"displayName":"Ligonchio, IT","country":"IT","name":"Ligonchio","_id":3174728,"coord":{"lon":10.34139,"lat":44.31625}},{"displayName":"Ligonggang, CN","country":"CN","name":"Ligonggang","_id":1803726,"coord":{"lon":111.201492,"lat":29.094959}},{"displayName":"Ligonier, US","country":"US","name":"Ligonier","_id":4922776,"coord":{"lon":-85.587479,"lat":41.465881}},{"displayName":"Ligonier, US","country":"US","name":"Ligonier","_id":5197989,"coord":{"lon":-79.237534,"lat":40.24313}},{"displayName":"Ligornetto, CH","country":"CH","name":"Ligornetto","_id":7286353,"coord":{"lon":8.95464,"lat":45.863121}},{"displayName":"Ligornetto, CH","country":"CH","name":"Ligornetto","_id":2659888,"coord":{"lon":8.95446,"lat":45.861481}},{"displayName":"Ligosullo, IT","country":"IT","name":"Ligosullo","_id":3174727,"coord":{"lon":13.08028,"lat":46.542782}},{"displayName":"Ligota, PL","country":"PL","name":"Ligota","_id":3093433,"coord":{"lon":18.950899,"lat":49.89856}},{"displayName":"Ligourion, GR","country":"GR","name":"Ligourion","_id":258377,"coord":{"lon":23.033331,"lat":37.616669}},{"displayName":"Ligovo, RU","country":"RU","name":"Ligovo","_id":535296,"coord":{"lon":30.198334,"lat":59.831944}},{"displayName":"Ligre, FR","country":"FR","name":"Ligre","_id":2998347,"coord":{"lon":0.27562,"lat":47.111851}},{"displayName":"Liguanea, JM","country":"JM","name":"Liguanea","_id":3489781,"coord":{"lon":-76.764351,"lat":18.017611}},{"displayName":"Ligueil, FR","country":"FR","name":"Ligueil","_id":2998343,"coord":{"lon":0.81893,"lat":47.042099}},{"displayName":"Ligueux, FR","country":"FR","name":"Ligueux","_id":6616556,"coord":{"lon":0.2699,"lat":44.785801}},{"displayName":"Ligueux, FR","country":"FR","name":"Ligueux","_id":2998342,"coord":{"lon":0.26877,"lat":44.78656}},{"displayName":"Liguge, FR","country":"FR","name":"Liguge","_id":2998340,"coord":{"lon":0.32617,"lat":46.520351}},{"displayName":"Lihai, CN","country":"CN","name":"Lihai","_id":1803720,"coord":{"lon":120.758018,"lat":30.12006}},{"displayName":"Lihen, CN","country":"CN","name":"Lihen","_id":1803711,"coord":{"lon":116.992241,"lat":29.75416}},{"displayName":"Liheng, CN","country":"CN","name":"Liheng","_id":1803710,"coord":{"lon":119.050003,"lat":34.133331}},{"displayName":"Lihou, CN","country":"CN","name":"Lihou","_id":1803787,"coord":{"lon":113.369453,"lat":36.502892}},{"displayName":"Lihue, US","country":"US","name":"Lihue","_id":5850248,"coord":{"lon":-159.367188,"lat":21.978861}},{"displayName":"Lihula vald, EE","country":"EE","name":"Lihula vald","_id":7522331,"coord":{"lon":23.84532,"lat":58.67688}},{"displayName":"Lihula, EE","country":"EE","name":"Lihula","_id":590657,"coord":{"lon":23.84528,"lat":58.681389}},{"displayName":"Lija, MT","country":"MT","name":"Lija","_id":2562801,"coord":{"lon":14.44639,"lat":35.900558}},{"displayName":"Lijesnica, BA","country":"BA","name":"Lijesnica","_id":3258022,"coord":{"lon":18.074169,"lat":44.494171}},{"displayName":"Liji, CN","country":"CN","name":"Liji","_id":1803697,"coord":{"lon":119.252777,"lat":34.105}},{"displayName":"Liji, CN","country":"CN","name":"Liji","_id":1803702,"coord":{"lon":114.665771,"lat":30.872471}},{"displayName":"Liji, CN","country":"CN","name":"Liji","_id":1909797,"coord":{"lon":110.315063,"lat":18.751841}},{"displayName":"Lijia, CN","country":"CN","name":"Lijia","_id":1921622,"coord":{"lon":116.786461,"lat":25.827761}},{"displayName":"Lijia, CN","country":"CN","name":"Lijia","_id":6912525,"coord":{"lon":106.205688,"lat":32.560379}},{"displayName":"Lijiabao, CN","country":"CN","name":"Lijiabao","_id":2053427,"coord":{"lon":119.805763,"lat":40.108749}},{"displayName":"Lijiahe, CN","country":"CN","name":"Lijiahe","_id":1803679,"coord":{"lon":109.456589,"lat":29.589121}},{"displayName":"Lijiang, CN","country":"CN","name":"Lijiang","_id":1803670,"coord":{"lon":102.004173,"lat":23.5711}},{"displayName":"Lijiang, CN","country":"CN","name":"Lijiang","_id":1803668,"coord":{"lon":115.465714,"lat":27.83812}},{"displayName":"Lijiaping, CN","country":"CN","name":"Lijiaping","_id":6422362,"coord":{"lon":111.633614,"lat":25.65361}},{"displayName":"Lijiaping, CN","country":"CN","name":"Lijiaping","_id":7405532,"coord":{"lon":102.766083,"lat":35.981361}},{"displayName":"Lijiapu, CN","country":"CN","name":"Lijiapu","_id":1928112,"coord":{"lon":111.919296,"lat":29.497009}},{"displayName":"Lijiashan, CN","country":"CN","name":"Lijiashan","_id":1918996,"coord":{"lon":120.523872,"lat":29.95047}},{"displayName":"Lijiaxiang, CN","country":"CN","name":"Lijiaxiang","_id":1803644,"coord":{"lon":119.97583,"lat":30.95083}},{"displayName":"Lijie, CN","country":"CN","name":"Lijie","_id":7330599,"coord":{"lon":104.071564,"lat":33.90213}},{"displayName":"Lijó, PT","country":"PT","name":"Lijó","_id":8010991,"coord":{"lon":-8.6106,"lat":41.57029}},{"displayName":"Likasi, CD","country":"CD","name":"Likasi","_id":922741,"coord":{"lon":26.73333,"lat":-10.98139}},{"displayName":"Likavka, SK","country":"SK","name":"Likavka","_id":3059080,"coord":{"lon":19.311621,"lat":49.09256}},{"displayName":"Likhachi, RU","country":"RU","name":"Likhachi","_id":6268604,"coord":{"lon":50.17556,"lat":58.715}},{"displayName":"Likhachëvo, RU","country":"RU","name":"Likhachëvo","_id":535286,"coord":{"lon":37.491112,"lat":55.923611}},{"displayName":"Likhni, GE","country":"GE","name":"Likhni","_id":613159,"coord":{"lon":40.614723,"lat":43.145557}},{"displayName":"Likhobory, RU","country":"RU","name":"Likhobory","_id":535270,"coord":{"lon":37.566666,"lat":55.849998}},{"displayName":"Likhoslavl, RU","country":"RU","name":"Likhoslavl","_id":535261,"coord":{"lon":35.464039,"lat":57.127468}},{"displayName":"Likhovskoy, RU","country":"RU","name":"Likhovskoy","_id":535254,"coord":{"lon":40.179249,"lat":48.151878}},{"displayName":"Likhoy, RU","country":"RU","name":"Likhoy","_id":535253,"coord":{"lon":40.205559,"lat":48.126621}},{"displayName":"Likiep, MH","country":"MH","name":"Likiep","_id":2080115,"coord":{"lon":169.310654,"lat":9.82511}},{"displayName":"Likino, RU","country":"RU","name":"Likino","_id":535246,"coord":{"lon":38.950001,"lat":55.733334}},{"displayName":"Likino-Dulevo, RU","country":"RU","name":"Likino-Dulevo","_id":535243,"coord":{"lon":38.954445,"lat":55.711666}},{"displayName":"Likion, GR","country":"GR","name":"Likion","_id":735430,"coord":{"lon":25.683331,"lat":41.049999}},{"displayName":"Liknes, NO","country":"NO","name":"Liknes","_id":3147498,"coord":{"lon":6.95837,"lat":58.319191}},{"displayName":"Likou, CN","country":"CN","name":"Likou","_id":1803625,"coord":{"lon":117.50782,"lat":29.900909}},{"displayName":"Likusy, PL","country":"PL","name":"Likusy","_id":766303,"coord":{"lon":20.4345,"lat":53.795681}},{"displayName":"Lila, PH","country":"PH","name":"Lila","_id":1706422,"coord":{"lon":124.095802,"lat":9.5918}},{"displayName":"Lilbourn, US","country":"US","name":"Lilbourn","_id":4395275,"coord":{"lon":-89.615356,"lat":36.592281}},{"displayName":"Lilburn, US","country":"US","name":"Lilburn","_id":4205724,"coord":{"lon":-84.142967,"lat":33.890099}},{"displayName":"LIle-Perrot, CA","country":"CA","name":"LIle-Perrot","_id":6053877,"coord":{"lon":-73.949203,"lat":45.383381}},{"displayName":"LIle-Rousse, FR","country":"FR","name":"LIle-Rousse","_id":2998330,"coord":{"lon":8.93764,"lat":42.633709}},{"displayName":"Lileah, AU","country":"AU","name":"Lileah","_id":2160216,"coord":{"lon":145.166672,"lat":-40.950001}},{"displayName":"Lilholt, DK","country":"DK","name":"Lilholt","_id":2617743,"coord":{"lon":9.29281,"lat":55.221642}},{"displayName":"Lili, CN","country":"CN","name":"Lili","_id":1803618,"coord":{"lon":120.706863,"lat":30.994089}},{"displayName":"Liliangzi, CN","country":"CN","name":"Liliangzi","_id":7518429,"coord":{"lon":107.818176,"lat":36.381081}},{"displayName":"Liliani, PK","country":"PK","name":"Liliani","_id":1171991,"coord":{"lon":72.95372,"lat":32.206509}},{"displayName":"Lilienfeld, AT","country":"AT","name":"Lilienfeld","_id":7872932,"coord":{"lon":15.58722,"lat":47.9939}},{"displayName":"Lilienfeld, AT","country":"AT","name":"Lilienfeld","_id":2772470,"coord":{"lon":15.59664,"lat":48.013119}},{"displayName":"Lilienthal, DE","country":"DE","name":"Lilienthal","_id":2877709,"coord":{"lon":8.91667,"lat":53.133331}},{"displayName":"Lilienthal, DE","country":"DE","name":"Lilienthal","_id":6552706,"coord":{"lon":8.92932,"lat":53.165699}},{"displayName":"Lilin Satu, ID","country":"ID","name":"Lilin Satu","_id":7339728,"coord":{"lon":116.364502,"lat":-8.6193}},{"displayName":"Lilin, CN","country":"CN","name":"Lilin","_id":1924418,"coord":{"lon":117.165047,"lat":28.86338}},{"displayName":"Liling, CN","country":"CN","name":"Liling","_id":1803616,"coord":{"lon":113.5,"lat":27.66667}},{"displayName":"Lilio, PH","country":"PH","name":"Lilio","_id":1706402,"coord":{"lon":121.436203,"lat":14.1313}},{"displayName":"Liliongan, PH","country":"PH","name":"Liliongan","_id":1706410,"coord":{"lon":124.792778,"lat":7.36278}},{"displayName":"Liljendal, FI","country":"FI","name":"Liljendal","_id":647978,"coord":{"lon":26.049999,"lat":60.566669}},{"displayName":"Lilla Edet, SE","country":"SE","name":"Lilla Edet","_id":2696059,"coord":{"lon":12.13333,"lat":58.133331}},{"displayName":"Lilla Edets Kommun, SE","country":"SE","name":"Lilla Edets Kommun","_id":2696058,"coord":{"lon":12.16667,"lat":58.133331}},{"displayName":"Lillard Park, US","country":"US","name":"Lillard Park","_id":4541040,"coord":{"lon":-97.594208,"lat":35.428669}},{"displayName":"Lille, BE","country":"BE","name":"Lille","_id":2792361,"coord":{"lon":4.8,"lat":51.23333}},{"displayName":"Lille, BE","country":"BE","name":"Lille","_id":2792360,"coord":{"lon":4.82312,"lat":51.24197}},{"displayName":"Lille, FR","country":"FR","name":"Lille","_id":6454414,"coord":{"lon":3.06667,"lat":50.633331}},{"displayName":"Lille, FR","country":"FR","name":"Lille","_id":2998324,"coord":{"lon":3.05858,"lat":50.632969}},{"displayName":"Lillebonne, FR","country":"FR","name":"Lillebonne","_id":2998322,"coord":{"lon":0.53617,"lat":49.520302}},{"displayName":"Lillehammer, NO","country":"NO","name":"Lillehammer","_id":6453350,"coord":{"lon":10.46743,"lat":61.114639}},{"displayName":"Lillehammer, NO","country":"NO","name":"Lillehammer","_id":3147474,"coord":{"lon":10.46628,"lat":61.115139}},{"displayName":"Lillerod, DK","country":"DK","name":"Lillerod","_id":2617658,"coord":{"lon":12.34579,"lat":55.874962}},{"displayName":"Lillers, FR","country":"FR","name":"Lillers","_id":2998320,"coord":{"lon":2.48042,"lat":50.56345}},{"displayName":"Lillesand, NO","country":"NO","name":"Lillesand","_id":3147467,"coord":{"lon":8.3778,"lat":58.248791}},{"displayName":"Lillestrom, NO","country":"NO","name":"Lillestrom","_id":3147465,"coord":{"lon":11.04918,"lat":59.955971}},{"displayName":"Lilli Pilli, AU","country":"AU","name":"Lilli Pilli","_id":2205974,"coord":{"lon":151.116669,"lat":-34.066669}},{"displayName":"Lillian Rock, AU","country":"AU","name":"Lillian Rock","_id":2160211,"coord":{"lon":153.166672,"lat":-28.533331}},{"displayName":"Lillianes, IT","country":"IT","name":"Lillianes","_id":3174723,"coord":{"lon":7.84082,"lat":45.63036}},{"displayName":"Lillico, AU","country":"AU","name":"Lillico","_id":2160210,"coord":{"lon":145.949997,"lat":-38.133331}},{"displayName":"Lilliesleaf, GB","country":"GB","name":"Lilliesleaf","_id":2644507,"coord":{"lon":-2.73719,"lat":55.518242}},{"displayName":"Lillington, US","country":"US","name":"Lillington","_id":4475942,"coord":{"lon":-78.815849,"lat":35.39933}},{"displayName":"Lillo del Bierzo, ES","country":"ES","name":"Lillo del Bierzo","_id":3118427,"coord":{"lon":-6.61251,"lat":42.785259}},{"displayName":"Lillo, ES","country":"ES","name":"Lillo","_id":3118428,"coord":{"lon":-5.86667,"lat":43.383331}},{"displayName":"Lillo, ES","country":"ES","name":"Lillo","_id":6361744,"coord":{"lon":-3.34683,"lat":39.708851}},{"displayName":"Lillo, ES","country":"ES","name":"Lillo","_id":2515055,"coord":{"lon":-3.30618,"lat":39.723309}},{"displayName":"Lillooet, CA","country":"CA","name":"Lillooet","_id":6945979,"coord":{"lon":-121.942001,"lat":50.6856}},{"displayName":"Lillsjönäs, SE","country":"SE","name":"Lillsjönäs","_id":2695079,"coord":{"lon":17.950001,"lat":59.333328}},{"displayName":"Lilo, GE","country":"GE","name":"Lilo","_id":865851,"coord":{"lon":44.9799,"lat":41.68095}},{"displayName":"Liloan, PH","country":"PH","name":"Liloan","_id":1706400,"coord":{"lon":123.966667,"lat":10.41667}},{"displayName":"Liloan, PH","country":"PH","name":"Liloan","_id":1706393,"coord":{"lon":123.999199,"lat":10.3991}},{"displayName":"Liloan, PH","country":"PH","name":"Liloan","_id":1706392,"coord":{"lon":124.55056,"lat":11.04417}},{"displayName":"Liloan, PH","country":"PH","name":"Liloan","_id":1706394,"coord":{"lon":125.13028,"lat":10.16139}},{"displayName":"Lilongwe District, MW","country":"MW","name":"Lilongwe District","_id":927964,"coord":{"lon":33.684071,"lat":-14.01962}},{"displayName":"Lilongwe, MW","country":"MW","name":"Lilongwe","_id":927967,"coord":{"lon":33.787251,"lat":-13.96692}},{"displayName":"Liloy, PH","country":"PH","name":"Liloy","_id":1706383,"coord":{"lon":122.659439,"lat":8.11444}},{"displayName":"Lily Lake, CA","country":"CA","name":"Lily Lake","_id":6054016,"coord":{"lon":-124.553162,"lat":53.91655}},{"displayName":"Lilydale, AU","country":"AU","name":"Lilydale","_id":2160188,"coord":{"lon":145.350006,"lat":-37.75}},{"displayName":"Lilyfield, AU","country":"AU","name":"Lilyfield","_id":2207762,"coord":{"lon":151.165558,"lat":-33.87611}},{"displayName":"Lim-oo, PH","country":"PH","name":"Lim-oo","_id":1966352,"coord":{"lon":124.630829,"lat":11.15083}},{"displayName":"Lima Duarte, BR","country":"BR","name":"Lima Duarte","_id":3458591,"coord":{"lon":-43.79306,"lat":-21.842501}},{"displayName":"Lima Pampa, PE","country":"PE","name":"Lima Pampa","_id":3953687,"coord":{"lon":-71.337219,"lat":-14.08861}},{"displayName":"Lima, PE","country":"PE","name":"Lima","_id":3936456,"coord":{"lon":-77.028236,"lat":-12.04318}},{"displayName":"Lima, US","country":"US","name":"Lima","_id":5160783,"coord":{"lon":-84.105232,"lat":40.74255}},{"displayName":"Lima, US","country":"US","name":"Lima","_id":4559210,"coord":{"lon":-75.440468,"lat":39.917332}},{"displayName":"Lima, US","country":"US","name":"Lima","_id":5124411,"coord":{"lon":-77.611389,"lat":42.904789}},{"displayName":"Limache, CL","country":"CL","name":"Limache","_id":3883214,"coord":{"lon":-71.26667,"lat":-33.01667}},{"displayName":"Liman, RU","country":"RU","name":"Liman","_id":535229,"coord":{"lon":47.224049,"lat":45.784569}},{"displayName":"Limana, IT","country":"IT","name":"Limana","_id":3219568,"coord":{"lon":12.14333,"lat":46.091942}},{"displayName":"Limanancong, PH","country":"PH","name":"Limanancong","_id":1706332,"coord":{"lon":119.359299,"lat":10.9893}},{"displayName":"Limanes, ES","country":"ES","name":"Limanes","_id":3118425,"coord":{"lon":-5.78333,"lat":43.366669}},{"displayName":"Limanowa, PL","country":"PL","name":"Limanowa","_id":7532380,"coord":{"lon":20.4107,"lat":49.714901}},{"displayName":"Limanowa, PL","country":"PL","name":"Limanowa","_id":766301,"coord":{"lon":20.422041,"lat":49.70594}},{"displayName":"Limanu, RO","country":"RO","name":"Limanu","_id":674782,"coord":{"lon":28.533331,"lat":43.799999}},{"displayName":"Limao, PH","country":"PH","name":"Limao","_id":1706377,"coord":{"lon":125.673607,"lat":7.07917}},{"displayName":"Limaong, PH","country":"PH","name":"Limaong","_id":1706374,"coord":{"lon":122.366386,"lat":7.36056}},{"displayName":"Limas, FR","country":"FR","name":"Limas","_id":2998312,"coord":{"lon":4.70292,"lat":45.978958}},{"displayName":"Limassol District, CY","country":"CY","name":"Limassol District","_id":146383,"coord":{"lon":32.916672,"lat":34.783329}},{"displayName":"Limassol, CY","country":"CY","name":"Limassol","_id":146384,"coord":{"lon":33.033329,"lat":34.674999}},{"displayName":"Limatambo, PE","country":"PE","name":"Limatambo","_id":3936438,"coord":{"lon":-77.033333,"lat":-12.1}},{"displayName":"Limatola, IT","country":"IT","name":"Limatola","_id":3174721,"coord":{"lon":14.39293,"lat":41.14082}},{"displayName":"Limavady, GB","country":"GB","name":"Limavady","_id":2644501,"coord":{"lon":-6.95074,"lat":55.050449}},{"displayName":"Limay, FR","country":"FR","name":"Limay","_id":6444000,"coord":{"lon":1.73333,"lat":48.98333}},{"displayName":"Limay, FR","country":"FR","name":"Limay","_id":2998311,"coord":{"lon":1.74081,"lat":48.995529}},{"displayName":"Limay, PH","country":"PH","name":"Limay","_id":1706362,"coord":{"lon":120.550003,"lat":14.53333}},{"displayName":"Limay, PH","country":"PH","name":"Limay","_id":1706361,"coord":{"lon":120.598328,"lat":14.56194}},{"displayName":"Limbaan, PH","country":"PH","name":"Limbaan","_id":1706356,"coord":{"lon":125.833328,"lat":7.63333}},{"displayName":"Limbach, DE","country":"DE","name":"Limbach","_id":6554237,"coord":{"lon":7.8,"lat":50.700001}},{"displayName":"Limbach, DE","country":"DE","name":"Limbach","_id":2877681,"coord":{"lon":7.8,"lat":50.700001}},{"displayName":"Limbach, DE","country":"DE","name":"Limbach","_id":6548536,"coord":{"lon":12.25,"lat":50.583302}},{"displayName":"Limbach, DE","country":"DE","name":"Limbach","_id":2877683,"coord":{"lon":12.25,"lat":50.583328}},{"displayName":"Limbach, DE","country":"DE","name":"Limbach","_id":6553510,"coord":{"lon":7.54263,"lat":49.741459}},{"displayName":"Limbach, DE","country":"DE","name":"Limbach","_id":2877690,"coord":{"lon":7.55,"lat":49.73333}},{"displayName":"Limbach, DE","country":"DE","name":"Limbach","_id":6555647,"coord":{"lon":9.21111,"lat":49.461899}},{"displayName":"Limbach, DE","country":"DE","name":"Limbach","_id":2877693,"coord":{"lon":9.21111,"lat":49.461941}},{"displayName":"Limbach-Oberfrohna, DE","country":"DE","name":"Limbach-Oberfrohna","_id":2877673,"coord":{"lon":12.75,"lat":50.866669}},{"displayName":"Limbadi, IT","country":"IT","name":"Limbadi","_id":2524388,"coord":{"lon":15.9659,"lat":38.55748}},{"displayName":"Limbalod, PH","country":"PH","name":"Limbalod","_id":1706354,"coord":{"lon":124.798889,"lat":7.13278}},{"displayName":"Limbang, MY","country":"MY","name":"Limbang","_id":1737714,"coord":{"lon":115.0,"lat":4.75}},{"displayName":"Limbangan, ID","country":"ID","name":"Limbangan","_id":8072392,"coord":{"lon":108.710197,"lat":-7.3025}},{"displayName":"Limbazi, LV","country":"LV","name":"Limbazi","_id":457890,"coord":{"lon":24.71941,"lat":57.512871}},{"displayName":"Limbažu Rajons, LV","country":"LV","name":"Limbažu Rajons","_id":457889,"coord":{"lon":24.66667,"lat":57.583328}},{"displayName":"Limbdi, IN","country":"IN","name":"Limbdi","_id":1264912,"coord":{"lon":71.800003,"lat":22.566669}},{"displayName":"Limbe, CM","country":"CM","name":"Limbe","_id":2229411,"coord":{"lon":9.2149,"lat":4.0242}},{"displayName":"Limbe, HT","country":"HT","name":"Limbe","_id":3722124,"coord":{"lon":-72.400002,"lat":19.700001}},{"displayName":"Limbenga, GA","country":"GA","name":"Limbenga","_id":2399672,"coord":{"lon":12.74007,"lat":-0.82716}},{"displayName":"Limbi, KM","country":"KM","name":"Limbi","_id":1091159,"coord":{"lon":44.50528,"lat":-12.23944}},{"displayName":"Limbiate, IT","country":"IT","name":"Limbiate","_id":6540337,"coord":{"lon":9.12904,"lat":45.596771}},{"displayName":"Limbiate, IT","country":"IT","name":"Limbiate","_id":3174719,"coord":{"lon":9.12904,"lat":45.596771}},{"displayName":"Limbo, PH","country":"PH","name":"Limbo","_id":1706349,"coord":{"lon":124.243889,"lat":7.25167}},{"displayName":"Limboto, ID","country":"ID","name":"Limboto","_id":1637651,"coord":{"lon":122.977798,"lat":0.627}},{"displayName":"Limbourg, BE","country":"BE","name":"Limbourg","_id":2792349,"coord":{"lon":5.94069,"lat":50.615269}},{"displayName":"Limbourg, BE","country":"BE","name":"Limbourg","_id":2792348,"coord":{"lon":5.9412,"lat":50.612221}},{"displayName":"Limbri, AU","country":"AU","name":"Limbri","_id":2160164,"coord":{"lon":151.149994,"lat":-31.049999}},{"displayName":"Limbricht, NL","country":"NL","name":"Limbricht","_id":2751599,"coord":{"lon":5.8375,"lat":51.011669}},{"displayName":"Limbuhan, PH","country":"PH","name":"Limbuhan","_id":1693394,"coord":{"lon":124.05011,"lat":11.88376}},{"displayName":"Limbung, ID","country":"ID","name":"Limbung","_id":1637646,"coord":{"lon":109.416672,"lat":-0.13333}},{"displayName":"Limburg an der Lahn, DE","country":"DE","name":"Limburg an der Lahn","_id":2877648,"coord":{"lon":8.05,"lat":50.383331}},{"displayName":"Limburgerhof, DE","country":"DE","name":"Limburgerhof","_id":6555248,"coord":{"lon":8.39194,"lat":49.4244}},{"displayName":"Limburgerhof, DE","country":"DE","name":"Limburgerhof","_id":2877647,"coord":{"lon":8.39194,"lat":49.424438}},{"displayName":"Limbus, SI","country":"SI","name":"Limbus","_id":3196560,"coord":{"lon":15.58361,"lat":46.553612}},{"displayName":"Lime Acres, ZA","country":"ZA","name":"Lime Acres","_id":982771,"coord":{"lon":23.469919,"lat":-28.361959}},{"displayName":"Limeil-Brevannes, FR","country":"FR","name":"Limeil-Brevannes","_id":2998305,"coord":{"lon":2.48705,"lat":48.744801}},{"displayName":"Limeil-Brévannes, FR","country":"FR","name":"Limeil-Brévannes","_id":6452023,"coord":{"lon":2.4893,"lat":48.7467}},{"displayName":"Limeira, BR","country":"BR","name":"Limeira","_id":3458575,"coord":{"lon":-47.401669,"lat":-22.56472}},{"displayName":"Limekilns, GB","country":"GB","name":"Limekilns","_id":2644495,"coord":{"lon":-3.47713,"lat":56.03336}},{"displayName":"Limena, IT","country":"IT","name":"Limena","_id":3174718,"coord":{"lon":11.84371,"lat":45.472301}},{"displayName":"Limenaria, GR","country":"GR","name":"Limenaria","_id":735418,"coord":{"lon":24.57856,"lat":40.626068}},{"displayName":"Limendous, FR","country":"FR","name":"Limendous","_id":6440475,"coord":{"lon":-0.18333,"lat":43.283329}},{"displayName":"Limendous, FR","country":"FR","name":"Limendous","_id":2998302,"coord":{"lon":-0.18333,"lat":43.283329}},{"displayName":"Limerick, CA","country":"CA","name":"Limerick","_id":6054138,"coord":{"lon":-106.267883,"lat":49.650059}},{"displayName":"Limerick, US","country":"US","name":"Limerick","_id":5198034,"coord":{"lon":-75.522118,"lat":40.23093}},{"displayName":"Limerick, US","country":"US","name":"Limerick","_id":4969529,"coord":{"lon":-70.793671,"lat":43.688412}},{"displayName":"Limerzel, FR","country":"FR","name":"Limerzel","_id":6437291,"coord":{"lon":-2.36667,"lat":47.633331}},{"displayName":"Limerzel, FR","country":"FR","name":"Limerzel","_id":2998298,"coord":{"lon":-2.35448,"lat":47.636189}},{"displayName":"Limestone County, US","country":"US","name":"Limestone County","_id":4072707,"coord":{"lon":-86.983337,"lat":34.800091}},{"displayName":"Limestone County, US","country":"US","name":"Limestone County","_id":4706335,"coord":{"lon":-96.566933,"lat":31.550171}},{"displayName":"Limestone Creek, US","country":"US","name":"Limestone Creek","_id":4162004,"coord":{"lon":-80.141151,"lat":26.942841}},{"displayName":"Limestone, AU","country":"AU","name":"Limestone","_id":2160155,"coord":{"lon":145.5,"lat":-37.25}},{"displayName":"Limestone, US","country":"US","name":"Limestone","_id":4969532,"coord":{"lon":-67.825851,"lat":46.908661}},{"displayName":"Limesy, FR","country":"FR","name":"Limesy","_id":2998296,"coord":{"lon":0.92483,"lat":49.612709}},{"displayName":"Limetz-Villez, FR","country":"FR","name":"Limetz-Villez","_id":2998294,"coord":{"lon":1.55,"lat":49.066669}},{"displayName":"Limeuil, FR","country":"FR","name":"Limeuil","_id":2998293,"coord":{"lon":1.2681,"lat":44.7966}},{"displayName":"Limevale, AU","country":"AU","name":"Limevale","_id":2160132,"coord":{"lon":151.199997,"lat":-28.73333}},{"displayName":"Limewell, ZA","country":"ZA","name":"Limewell","_id":982758,"coord":{"lon":22.50614,"lat":-28.840731}},{"displayName":"Limiao, CN","country":"CN","name":"Limiao","_id":7047845,"coord":{"lon":109.898659,"lat":34.05254}},{"displayName":"Limido Comasco, IT","country":"IT","name":"Limido Comasco","_id":6535127,"coord":{"lon":8.97984,"lat":45.689171}},{"displayName":"Limin Khersonisou, GR","country":"GR","name":"Limin Khersonisou","_id":258315,"coord":{"lon":25.39279,"lat":35.316212}},{"displayName":"Limin, CN","country":"CN","name":"Limin","_id":1803608,"coord":{"lon":112.120354,"lat":39.30777}},{"displayName":"Limina, IT","country":"IT","name":"Limina","_id":6535666,"coord":{"lon":15.27119,"lat":37.940762}},{"displayName":"Limington, US","country":"US","name":"Limington","_id":4969542,"coord":{"lon":-70.710892,"lat":43.731739}},{"displayName":"Liminka, FI","country":"FI","name":"Liminka","_id":647931,"coord":{"lon":25.41667,"lat":64.75}},{"displayName":"Liminka, FI","country":"FI","name":"Liminka","_id":647930,"coord":{"lon":25.415449,"lat":64.809853}},{"displayName":"Limit, JM","country":"JM","name":"Limit","_id":8062858,"coord":{"lon":-77.471207,"lat":18.15287}},{"displayName":"Limmared, SE","country":"SE","name":"Limmared","_id":2695016,"coord":{"lon":13.35,"lat":57.533329}},{"displayName":"Limmer, DE","country":"DE","name":"Limmer","_id":2877642,"coord":{"lon":9.6908,"lat":52.375278}},{"displayName":"Limni, GR","country":"GR","name":"Limni","_id":258306,"coord":{"lon":23.316669,"lat":38.76667}},{"displayName":"Limoeiro de Anadia, BR","country":"BR","name":"Limoeiro de Anadia","_id":3396270,"coord":{"lon":-36.502781,"lat":-9.74056}},{"displayName":"Limoeiro do Ajuru, BR","country":"BR","name":"Limoeiro do Ajuru","_id":3396268,"coord":{"lon":-49.380562,"lat":-1.89528}},{"displayName":"Limoeiro do Norte, BR","country":"BR","name":"Limoeiro do Norte","_id":3396266,"coord":{"lon":-38.098061,"lat":-5.14556}},{"displayName":"Limoeiro, BR","country":"BR","name":"Limoeiro","_id":3396277,"coord":{"lon":-35.450279,"lat":-7.87472}},{"displayName":"Limoges, CA","country":"CA","name":"Limoges","_id":6054238,"coord":{"lon":-75.249313,"lat":45.333401}},{"displayName":"Limoges, FR","country":"FR","name":"Limoges","_id":6451740,"coord":{"lon":1.2626,"lat":45.834301}},{"displayName":"Limoges, FR","country":"FR","name":"Limoges","_id":2998286,"coord":{"lon":1.2578,"lat":45.831532}},{"displayName":"Limon, PH","country":"PH","name":"Limon","_id":1706325,"coord":{"lon":122.01667,"lat":12.3}},{"displayName":"Limon, PH","country":"PH","name":"Limon","_id":1706326,"coord":{"lon":124.567101,"lat":11.2889}},{"displayName":"Limon, US","country":"US","name":"Limon","_id":5428504,"coord":{"lon":-103.692169,"lat":39.263882}},{"displayName":"Limonade, HT","country":"HT","name":"Limonade","_id":3722110,"coord":{"lon":-72.125282,"lat":19.66972}},{"displayName":"Limoncito, BO","country":"BO","name":"Limoncito","_id":3911512,"coord":{"lon":-63.400002,"lat":-18.01667}},{"displayName":"Limone Piemonte, IT","country":"IT","name":"Limone Piemonte","_id":3174711,"coord":{"lon":7.57634,"lat":44.202728}},{"displayName":"Limone sul Garda, IT","country":"IT","name":"Limone sul Garda","_id":3174710,"coord":{"lon":10.79278,"lat":45.814499}},{"displayName":"Limonest, FR","country":"FR","name":"Limonest","_id":2998277,"coord":{"lon":4.7718,"lat":45.83744}},{"displayName":"Limons, FR","country":"FR","name":"Limons","_id":6440067,"coord":{"lon":3.43333,"lat":45.966671}},{"displayName":"Limons, FR","country":"FR","name":"Limons","_id":2998276,"coord":{"lon":3.44379,"lat":45.973701}},{"displayName":"Limosano, IT","country":"IT","name":"Limosano","_id":3174709,"coord":{"lon":14.62243,"lat":41.676331}},{"displayName":"Limot, PH","country":"PH","name":"Limot","_id":1706319,"coord":{"lon":126.272682,"lat":7.0405}},{"displayName":"Limours, FR","country":"FR","name":"Limours","_id":2998269,"coord":{"lon":2.07688,"lat":48.646252}},{"displayName":"Limoux, FR","country":"FR","name":"Limoux","_id":2998264,"coord":{"lon":2.22173,"lat":43.054871}},{"displayName":"Limpach, LU","country":"LU","name":"Limpach","_id":2960331,"coord":{"lon":5.98056,"lat":49.558891}},{"displayName":"Limpapa, PH","country":"PH","name":"Limpapa","_id":1706317,"coord":{"lon":121.910561,"lat":7.11972}},{"displayName":"Limperich, DE","country":"DE","name":"Limperich","_id":2877635,"coord":{"lon":7.13333,"lat":50.73333}},{"displayName":"Limpias, ES","country":"ES","name":"Limpias","_id":6360684,"coord":{"lon":-3.42092,"lat":43.37476}},{"displayName":"Limpias, ES","country":"ES","name":"Limpias","_id":3118415,"coord":{"lon":-3.41778,"lat":43.364021}},{"displayName":"Limpinwood, AU","country":"AU","name":"Limpinwood","_id":2160130,"coord":{"lon":153.216675,"lat":-28.299999}},{"displayName":"Limpio, PY","country":"PY","name":"Limpio","_id":3437842,"coord":{"lon":-57.533329,"lat":-25.183331}},{"displayName":"Limpopo Province, ZA","country":"ZA","name":"Limpopo Province","_id":1085597,"coord":{"lon":29.5,"lat":-24.0}},{"displayName":"Limulan, PH","country":"PH","name":"Limulan","_id":1706313,"coord":{"lon":124.06189,"lat":6.58528}},{"displayName":"Limulunga, ZM","country":"ZM","name":"Limulunga","_id":910361,"coord":{"lon":23.137581,"lat":-15.09691}},{"displayName":"Limuru, KE","country":"KE","name":"Limuru","_id":189386,"coord":{"lon":36.650002,"lat":-1.1}},{"displayName":"Limushan, CN","country":"CN","name":"Limushan","_id":1914730,"coord":{"lon":109.782982,"lat":19.267521}},{"displayName":"Limusnunggal, ID","country":"ID","name":"Limusnunggal","_id":8052810,"coord":{"lon":108.402199,"lat":-7.5039}},{"displayName":"Limón, PE","country":"PE","name":"Limón","_id":7543962,"coord":{"lon":-76.545113,"lat":-7.05513}},{"displayName":"Limón, PE","country":"PE","name":"Limón","_id":3695370,"coord":{"lon":-76.150002,"lat":-5.88333}},{"displayName":"Lin Calel, AR","country":"AR","name":"Lin Calel","_id":3846869,"coord":{"lon":-60.245029,"lat":-38.7062}},{"displayName":"Linabo, PH","country":"PH","name":"Linabo","_id":1706303,"coord":{"lon":125.154999,"lat":8.05417}},{"displayName":"Linabuan Sur, PH","country":"PH","name":"Linabuan Sur","_id":1706298,"coord":{"lon":122.345001,"lat":11.65111}},{"displayName":"Linabuan, PH","country":"PH","name":"Linabuan","_id":1706299,"coord":{"lon":122.357498,"lat":11.651}},{"displayName":"Linamon, PH","country":"PH","name":"Linamon","_id":1706287,"coord":{"lon":124.162758,"lat":8.18603}},{"displayName":"Linan, CN","country":"CN","name":"Linan","_id":1803594,"coord":{"lon":119.718063,"lat":30.23583}},{"displayName":"Linan, CN","country":"CN","name":"Linan","_id":1806146,"coord":{"lon":102.830917,"lat":23.602551}},{"displayName":"Linan, CN","country":"CN","name":"Linan","_id":1928118,"coord":{"lon":111.756111,"lat":29.617491}},{"displayName":"Linan, PH","country":"PH","name":"Linan","_id":1706282,"coord":{"lon":124.975563,"lat":6.43}},{"displayName":"Linao, PH","country":"PH","name":"Linao","_id":1706272,"coord":{"lon":124.967499,"lat":7.16778}},{"displayName":"Linao, PH","country":"PH","name":"Linao","_id":1706273,"coord":{"lon":125.991997,"lat":7.0172}},{"displayName":"Linaon, PH","country":"PH","name":"Linaon","_id":1706250,"coord":{"lon":122.448303,"lat":9.9499}},{"displayName":"Linards, FR","country":"FR","name":"Linards","_id":2998253,"coord":{"lon":1.53259,"lat":45.700821}},{"displayName":"Linares de la Sierra, ES","country":"ES","name":"Linares de la Sierra","_id":6358221,"coord":{"lon":-6.60984,"lat":37.850521}},{"displayName":"Linares de la Sierra, ES","country":"ES","name":"Linares de la Sierra","_id":2515041,"coord":{"lon":-6.62321,"lat":37.879631}},{"displayName":"Linares de Mora, ES","country":"ES","name":"Linares de Mora","_id":6361547,"coord":{"lon":-0.55175,"lat":40.309029}},{"displayName":"Linares de Mora, ES","country":"ES","name":"Linares de Mora","_id":3118389,"coord":{"lon":-0.57468,"lat":40.32159}},{"displayName":"Linares de Riofrio, ES","country":"ES","name":"Linares de Riofrio","_id":3118388,"coord":{"lon":-5.92091,"lat":40.583382}},{"displayName":"Linares de Riofrío, ES","country":"ES","name":"Linares de Riofrío","_id":6360414,"coord":{"lon":-5.91713,"lat":40.583858}},{"displayName":"Linares, CL","country":"CL","name":"Linares","_id":3883167,"coord":{"lon":-71.599998,"lat":-35.849998}},{"displayName":"Linares, CO","country":"CO","name":"Linares","_id":3676540,"coord":{"lon":-77.527252,"lat":1.35783}},{"displayName":"Linares, ES","country":"ES","name":"Linares","_id":6358505,"coord":{"lon":-3.64455,"lat":38.09734}},{"displayName":"Linares, ES","country":"ES","name":"Linares","_id":2515045,"coord":{"lon":-3.63602,"lat":38.095188}},{"displayName":"Linares, MX","country":"MX","name":"Linares","_id":3524348,"coord":{"lon":-99.56778,"lat":24.85778}},{"displayName":"Linarolo, IT","country":"IT","name":"Linarolo","_id":6535212,"coord":{"lon":9.26996,"lat":45.162361}},{"displayName":"Linars, FR","country":"FR","name":"Linars","_id":2998252,"coord":{"lon":0.08333,"lat":45.650002}},{"displayName":"Linas, FR","country":"FR","name":"Linas","_id":2998251,"coord":{"lon":2.26266,"lat":48.630409}},{"displayName":"Linate, IT","country":"IT","name":"Linate","_id":3174704,"coord":{"lon":9.27229,"lat":45.44701}},{"displayName":"Linau, DE","country":"DE","name":"Linau","_id":6551478,"coord":{"lon":10.4667,"lat":53.650002}},{"displayName":"Linau, DE","country":"DE","name":"Linau","_id":2877624,"coord":{"lon":10.46667,"lat":53.650002}},{"displayName":"Linay, PH","country":"PH","name":"Linay","_id":1706229,"coord":{"lon":123.133331,"lat":8.51667}},{"displayName":"Linbro Park, ZA","country":"ZA","name":"Linbro Park","_id":7870444,"coord":{"lon":28.122601,"lat":-26.087469}},{"displayName":"Linburn, AU","country":"AU","name":"Linburn","_id":2160126,"coord":{"lon":149.716675,"lat":-32.416672}},{"displayName":"Lincang, CN","country":"CN","name":"Lincang","_id":1803590,"coord":{"lon":100.033333,"lat":23.9}},{"displayName":"Lince, PE","country":"PE","name":"Lince","_id":3936428,"coord":{"lon":-77.050003,"lat":-12.1}},{"displayName":"Lincent, BE","country":"BE","name":"Lincent","_id":2792333,"coord":{"lon":5.03878,"lat":50.71233}},{"displayName":"Lincent, BE","country":"BE","name":"Lincent","_id":2792332,"coord":{"lon":5.03654,"lat":50.712219}},{"displayName":"Lincheng, CN","country":"CN","name":"Lincheng","_id":1803560,"coord":{"lon":109.685829,"lat":19.90778}},{"displayName":"Lincheng, CN","country":"CN","name":"Lincheng","_id":1803583,"coord":{"lon":119.786819,"lat":30.933741}},{"displayName":"Lincheng, CN","country":"CN","name":"Lincheng","_id":1803584,"coord":{"lon":109.663361,"lat":26.86932}},{"displayName":"Lincheng, CN","country":"CN","name":"Lincheng","_id":1892640,"coord":{"lon":122.200409,"lat":29.99646}},{"displayName":"Lincheng, CN","country":"CN","name":"Lincheng","_id":1921722,"coord":{"lon":116.408081,"lat":25.05938}},{"displayName":"Lincoln Beach, US","country":"US","name":"Lincoln Beach","_id":5736634,"coord":{"lon":-124.046783,"lat":44.850391}},{"displayName":"Lincoln City, US","country":"US","name":"Lincoln City","_id":5736645,"coord":{"lon":-124.017891,"lat":44.95816}},{"displayName":"Lincoln County, US","country":"US","name":"Lincoln County","_id":5736643,"coord":{"lon":-123.834557,"lat":44.666512}},{"displayName":"Lincoln County, US","country":"US","name":"Lincoln County","_id":5475934,"coord":{"lon":-105.251106,"lat":34.250629}},{"displayName":"Lincoln County, US","country":"US","name":"Lincoln County","_id":5507189,"coord":{"lon":-114.876122,"lat":38.00024}},{"displayName":"Lincoln County, US","country":"US","name":"Lincoln County","_id":5034652,"coord":{"lon":-96.266991,"lat":44.41663}},{"displayName":"Lincoln County, US","country":"US","name":"Lincoln County","_id":4475969,"coord":{"lon":-81.249802,"lat":35.483471}},{"displayName":"Lincoln County, US","country":"US","name":"Lincoln County","_id":5697026,"coord":{"lon":-100.76709,"lat":41.049999}},{"displayName":"Lincoln County, US","country":"US","name":"Lincoln County","_id":4969555,"coord":{"lon":-69.75782,"lat":44.133411}},{"displayName":"Lincoln County, US","country":"US","name":"Lincoln County","_id":5662406,"coord":{"lon":-115.384331,"lat":48.549961}},{"displayName":"Lincoln County, US","country":"US","name":"Lincoln County","_id":5428518,"coord":{"lon":-103.4505,"lat":39.049992}},{"displayName":"Lincoln District, GB","country":"GB","name":"Lincoln District","_id":7290590,"coord":{"lon":-0.55664,"lat":53.220119}},{"displayName":"Lincoln Heights, US","country":"US","name":"Lincoln Heights","_id":4475980,"coord":{"lon":-77.904709,"lat":35.69405}},{"displayName":"Lincoln Heights, US","country":"US","name":"Lincoln Heights","_id":4516677,"coord":{"lon":-84.455498,"lat":39.238949}},{"displayName":"Lincoln Heights, US","country":"US","name":"Lincoln Heights","_id":5160854,"coord":{"lon":-82.484329,"lat":40.77145}},{"displayName":"Lincoln Parish, US","country":"US","name":"Lincoln Parish","_id":4330983,"coord":{"lon":-92.650146,"lat":32.61681}},{"displayName":"Lincoln Park, US","country":"US","name":"Lincoln Park","_id":4999311,"coord":{"lon":-83.178543,"lat":42.250591}},{"displayName":"Lincoln Park, US","country":"US","name":"Lincoln Park","_id":5100477,"coord":{"lon":-74.302094,"lat":40.924271}},{"displayName":"Lincoln Park, US","country":"US","name":"Lincoln Park","_id":5124463,"coord":{"lon":-73.994034,"lat":41.950649}},{"displayName":"Lincoln Park, US","country":"US","name":"Lincoln Park","_id":5198089,"coord":{"lon":-75.985489,"lat":40.314812}},{"displayName":"Lincoln Park, US","country":"US","name":"Lincoln Park","_id":5428534,"coord":{"lon":-105.219994,"lat":38.429161}},{"displayName":"Lincoln Place, US","country":"US","name":"Lincoln Place","_id":5198094,"coord":{"lon":-79.917267,"lat":40.367851}},{"displayName":"Lincoln Village, US","country":"US","name":"Lincoln Village","_id":4516701,"coord":{"lon":-83.130737,"lat":39.954788}},{"displayName":"Lincoln Village, US","country":"US","name":"Lincoln Village","_id":5366524,"coord":{"lon":-121.328278,"lat":38.005199}},{"displayName":"Lincoln, AR","country":"AR","name":"Lincoln","_id":3846864,"coord":{"lon":-61.530201,"lat":-34.866489}},{"displayName":"Lincoln, GB","country":"GB","name":"Lincoln","_id":2644487,"coord":{"lon":-0.53792,"lat":53.22683}},{"displayName":"Lincoln, NZ","country":"NZ","name":"Lincoln","_id":2188371,"coord":{"lon":172.483337,"lat":-43.650002}},{"displayName":"Lincoln, US","country":"US","name":"Lincoln","_id":5072006,"coord":{"lon":-96.666962,"lat":40.799999}},{"displayName":"Lincoln, US","country":"US","name":"Lincoln","_id":5366375,"coord":{"lon":-121.293007,"lat":38.89156}},{"displayName":"Lincoln, US","country":"US","name":"Lincoln","_id":4072767,"coord":{"lon":-86.118309,"lat":33.613159}},{"displayName":"Lincoln, US","country":"US","name":"Lincoln","_id":4118981,"coord":{"lon":-94.423553,"lat":35.949532}},{"displayName":"Lincoln, US","country":"US","name":"Lincoln","_id":4274450,"coord":{"lon":-98.144768,"lat":39.04084}},{"displayName":"Lincoln, US","country":"US","name":"Lincoln","_id":4395324,"coord":{"lon":-93.334648,"lat":38.390862}},{"displayName":"Lincoln, US","country":"US","name":"Lincoln","_id":4899822,"coord":{"lon":-89.364822,"lat":40.14838}},{"displayName":"Lincoln, US","country":"US","name":"Lincoln","_id":4942021,"coord":{"lon":-71.303947,"lat":42.42593}},{"displayName":"Lincoln, US","country":"US","name":"Lincoln","_id":4969547,"coord":{"lon":-68.50502,"lat":45.362282}},{"displayName":"Lincoln, US","country":"US","name":"Lincoln","_id":5198062,"coord":{"lon":-79.854767,"lat":40.318958}},{"displayName":"Lincoln, US","country":"US","name":"Lincoln","_id":5598674,"coord":{"lon":-111.964409,"lat":43.51297}},{"displayName":"Lincoln, US","country":"US","name":"Lincoln","_id":5662396,"coord":{"lon":-112.681709,"lat":46.954941}},{"displayName":"Lincoln, US","country":"US","name":"Lincoln","_id":5690162,"coord":{"lon":-100.700401,"lat":46.762489}},{"displayName":"Lincolndale, US","country":"US","name":"Lincolndale","_id":5124482,"coord":{"lon":-73.718193,"lat":41.322868}},{"displayName":"Lincolnia, US","country":"US","name":"Lincolnia","_id":4769608,"coord":{"lon":-77.143311,"lat":38.818451}},{"displayName":"Lincolnshire, GB","country":"GB","name":"Lincolnshire","_id":2644486,"coord":{"lon":-0.25,"lat":53.166672}},{"displayName":"Lincolnshire, US","country":"US","name":"Lincolnshire","_id":4899983,"coord":{"lon":-87.908401,"lat":42.190022}},{"displayName":"Lincolnton, US","country":"US","name":"Lincolnton","_id":4205797,"coord":{"lon":-82.479019,"lat":33.792351}},{"displayName":"Lincolnton, US","country":"US","name":"Lincolnton","_id":4475995,"coord":{"lon":-81.254532,"lat":35.47374}},{"displayName":"Lincolnville, US","country":"US","name":"Lincolnville","_id":4585198,"coord":{"lon":-80.155373,"lat":33.00684}},{"displayName":"Lincolnville, US","country":"US","name":"Lincolnville","_id":4969592,"coord":{"lon":-69.008652,"lat":44.281189}},{"displayName":"Lincolnwood, US","country":"US","name":"Lincolnwood","_id":4899988,"coord":{"lon":-87.730057,"lat":42.004478}},{"displayName":"Lincroft, US","country":"US","name":"Lincroft","_id":5100498,"coord":{"lon":-74.120972,"lat":40.330669}},{"displayName":"Lincuo, CN","country":"CN","name":"Lincuo","_id":1917861,"coord":{"lon":117.25946,"lat":23.66062}},