[{"displayName":"Lées-Athas, FR","country":"FR","name":"Lées-Athas","_id":3004312,"coord":{"lon":-0.61667,"lat":42.966671}},{"displayName":"Léglise, BE","country":"BE","name":"Léglise","_id":2792986,"coord":{"lon":5.55,"lat":49.816669}},{"displayName":"Léguillac-de-l\u0027Auche, FR","country":"FR","name":"Léguillac-de-l\u0027Auche","_id":6616165,"coord":{"lon":0.557,"lat":45.184502}},{"displayName":"Léguillac-de-l\u0027Auche, FR","country":"FR","name":"Léguillac-de-l\u0027Auche","_id":3003866,"coord":{"lon":0.55,"lat":45.183331}},{"displayName":"Léogeats, FR","country":"FR","name":"Léogeats","_id":6432273,"coord":{"lon":-0.36667,"lat":44.51667}},{"displayName":"Léogeats, FR","country":"FR","name":"Léogeats","_id":3003068,"coord":{"lon":-0.36619,"lat":44.512379}},{"displayName":"Léognan, FR","country":"FR","name":"Léognan","_id":6432274,"coord":{"lon":-0.6,"lat":44.73333}},{"displayName":"Léon, FR","country":"FR","name":"Léon","_id":6454120,"coord":{"lon":-1.3,"lat":43.883331}},{"displayName":"Léona, SN","country":"SN","name":"Léona","_id":2595998,"coord":{"lon":-16.497499,"lat":16.01722}},{"displayName":"Léotoing, FR","country":"FR","name":"Léotoing","_id":6434369,"coord":{"lon":3.23333,"lat":45.366669}},{"displayName":"Léotoing, FR","country":"FR","name":"Léotoing","_id":3003058,"coord":{"lon":3.22242,"lat":45.36208}},{"displayName":"Lérable, FR","country":"FR","name":"Lérable","_id":3002405,"coord":{"lon":0.38333,"lat":48.416672}},{"displayName":"Léren, FR","country":"FR","name":"Léren","_id":6454506,"coord":{"lon":-1.03333,"lat":43.5}},{"displayName":"Léren, FR","country":"FR","name":"Léren","_id":3002370,"coord":{"lon":-1.0418,"lat":43.502708}},{"displayName":"Lérida, ES","country":"ES","name":"Lérida","_id":7874189,"coord":{"lon":0.62556,"lat":41.613892}},{"displayName":"Lévignac-de-Guyenne, FR","country":"FR","name":"Lévignac-de-Guyenne","_id":6434987,"coord":{"lon":0.2,"lat":44.633331}},{"displayName":"Lévignac-de-Guyenne, FR","country":"FR","name":"Lévignac-de-Guyenne","_id":2998805,"coord":{"lon":0.19986,"lat":44.62846}},{"displayName":"Lévignacq, FR","country":"FR","name":"Lévignacq","_id":6433865,"coord":{"lon":-1.16667,"lat":44.0}},{"displayName":"Lévignacq, FR","country":"FR","name":"Lévignacq","_id":2998804,"coord":{"lon":-1.1673,"lat":44.005161}},{"displayName":"Lézan, FR","country":"FR","name":"Lézan","_id":6613353,"coord":{"lon":4.05,"lat":44.01667}},{"displayName":"Lézignan-Corbières, FR","country":"FR","name":"Lézignan-Corbières","_id":6426723,"coord":{"lon":2.76667,"lat":43.200001}},{"displayName":"Lëdovo, RU","country":"RU","name":"Lëdovo","_id":536408,"coord":{"lon":38.399441,"lat":54.748058}},{"displayName":"Límnai, GR","country":"GR","name":"Límnai","_id":258312,"coord":{"lon":22.883329,"lat":37.716671}},{"displayName":"Líndos, GR","country":"GR","name":"Líndos","_id":408687,"coord":{"lon":28.085711,"lat":36.091019}},{"displayName":"Línea de la Concepción (La), ES","country":"ES","name":"Línea de la Concepción (La)","_id":6356937,"coord":{"lon":-5.3467,"lat":36.182991}},{"displayName":"Lónguida/Longida, ES","country":"ES","name":"Lónguida/Longida","_id":6359706,"coord":{"lon":-1.36043,"lat":42.786831}},{"displayName":"Lórántffykert, HU","country":"HU","name":"Lórántffykert","_id":718045,"coord":{"lon":21.51667,"lat":47.666672}},{"displayName":"Lõo, EE","country":"EE","name":"Lõo","_id":590540,"coord":{"lon":23.693609,"lat":58.593891}},{"displayName":"Löberschütz, DE","country":"DE","name":"Löberschütz","_id":6550379,"coord":{"lon":11.7,"lat":50.966702}},{"displayName":"Löbersdorf, DE","country":"DE","name":"Löbersdorf","_id":2876711,"coord":{"lon":12.08333,"lat":51.633331}},{"displayName":"Löbichau, DE","country":"DE","name":"Löbichau","_id":6550547,"coord":{"lon":12.309,"lat":50.894299}},{"displayName":"Löbitz, DE","country":"DE","name":"Löbitz","_id":2876705,"coord":{"lon":11.88333,"lat":51.083328}},{"displayName":"Löbnitz an der Linde, DE","country":"DE","name":"Löbnitz an der Linde","_id":2876696,"coord":{"lon":11.88333,"lat":51.73333}},{"displayName":"Löbnitz, DE","country":"DE","name":"Löbnitz","_id":7602440,"coord":{"lon":12.71929,"lat":54.295368}},{"displayName":"Löbnitz, DE","country":"DE","name":"Löbnitz","_id":6548743,"coord":{"lon":12.4667,"lat":51.599998}},{"displayName":"Löbtau, DE","country":"DE","name":"Löbtau","_id":2876683,"coord":{"lon":13.7,"lat":51.049999}},{"displayName":"Löchgau, DE","country":"DE","name":"Löchgau","_id":6555484,"coord":{"lon":9.1044,"lat":49.004299}},{"displayName":"Löcknitz, DE","country":"DE","name":"Löcknitz","_id":6548465,"coord":{"lon":14.2239,"lat":53.4856}},{"displayName":"Lödderitz, DE","country":"DE","name":"Lödderitz","_id":2876513,"coord":{"lon":11.95,"lat":51.883331}},{"displayName":"Lödersdorf, AT","country":"AT","name":"Lödersdorf","_id":7873379,"coord":{"lon":15.95838,"lat":46.964439}},{"displayName":"Lödingsen, DE","country":"DE","name":"Lödingsen","_id":2876491,"coord":{"lon":9.78333,"lat":51.599998}},{"displayName":"Lödla, DE","country":"DE","name":"Lödla","_id":6547401,"coord":{"lon":12.3891,"lat":50.997601}},{"displayName":"Löf, DE","country":"DE","name":"Löf","_id":6553802,"coord":{"lon":7.43333,"lat":50.233299}},{"displayName":"Löffelscheid, DE","country":"DE","name":"Löffelscheid","_id":2876468,"coord":{"lon":7.31667,"lat":50.01667}},{"displayName":"Löffler, CH","country":"CH","name":"Löffler","_id":6295288,"coord":{"lon":8.43063,"lat":47.350361}},{"displayName":"Löhlbach, DE","country":"DE","name":"Löhlbach","_id":2876241,"coord":{"lon":8.98333,"lat":51.066669}},{"displayName":"Löhma, DE","country":"DE","name":"Löhma","_id":6550451,"coord":{"lon":11.85,"lat":50.616699}},{"displayName":"Löhnberg, DE","country":"DE","name":"Löhnberg","_id":6553226,"coord":{"lon":8.26667,"lat":50.516701}},{"displayName":"Löhningen, CH","country":"CH","name":"Löhningen","_id":7286365,"coord":{"lon":8.54659,"lat":47.703339}},{"displayName":"Löknäs, SE","country":"SE","name":"Löknäs","_id":2694283,"coord":{"lon":18.66667,"lat":59.366669}},{"displayName":"Lökösihatár, HU","country":"HU","name":"Lökösihatár","_id":718058,"coord":{"lon":21.25,"lat":46.533329}},{"displayName":"Löllbach, DE","country":"DE","name":"Löllbach","_id":6553511,"coord":{"lon":7.58333,"lat":49.6833}},{"displayName":"Löpsingen, DE","country":"DE","name":"Löpsingen","_id":2875922,"coord":{"lon":10.53333,"lat":48.883331}},{"displayName":"Löpten, DE","country":"DE","name":"Löpten","_id":2875920,"coord":{"lon":13.68333,"lat":52.150002}},{"displayName":"Löptin, DE","country":"DE","name":"Löptin","_id":6551752,"coord":{"lon":10.2167,"lat":54.1833}},{"displayName":"Lörzenbach, DE","country":"DE","name":"Lörzenbach","_id":2875869,"coord":{"lon":8.76,"lat":49.640282}},{"displayName":"Lörzweiler, DE","country":"DE","name":"Lörzweiler","_id":6555282,"coord":{"lon":8.29472,"lat":49.8983}},{"displayName":"Lösau, DE","country":"DE","name":"Lösau","_id":2875862,"coord":{"lon":12.03333,"lat":51.23333}},{"displayName":"Löschenrod, DE","country":"DE","name":"Löschenrod","_id":2875851,"coord":{"lon":9.6787,"lat":50.499229}},{"displayName":"Lösnich, DE","country":"DE","name":"Lösnich","_id":6554346,"coord":{"lon":7.03333,"lat":49.966702}},{"displayName":"Lössnig, DE","country":"DE","name":"Lössnig","_id":2875801,"coord":{"lon":12.4,"lat":51.299999}},{"displayName":"Lötzbeuren, DE","country":"DE","name":"Lötzbeuren","_id":6554387,"coord":{"lon":7.21667,"lat":49.9333}},{"displayName":"Lötzschen, DE","country":"DE","name":"Lötzschen","_id":2875728,"coord":{"lon":13.74304,"lat":51.27969}},{"displayName":"Lövenich, DE","country":"DE","name":"Lövenich","_id":2875696,"coord":{"lon":6.66667,"lat":50.683331}},{"displayName":"Lövön, SE","country":"SE","name":"Lövön","_id":604496,"coord":{"lon":20.383329,"lat":63.716671}},{"displayName":"Löwenberg, DE","country":"DE","name":"Löwenberg","_id":2875680,"coord":{"lon":13.15441,"lat":52.89756}},{"displayName":"Löwenstedt, DE","country":"DE","name":"Löwenstedt","_id":6551574,"coord":{"lon":9.16667,"lat":54.616699}},{"displayName":"Löwitz, DE","country":"DE","name":"Löwitz","_id":2875650,"coord":{"lon":13.73333,"lat":53.716671}},{"displayName":"Lößnitztal, DE","country":"DE","name":"Lößnitztal","_id":2875792,"coord":{"lon":13.18333,"lat":50.816669}},{"displayName":"Lú, IE","country":"IE","name":"Lú","_id":2962793,"coord":{"lon":-6.5,"lat":53.833328}},{"displayName":"Lúcar, ES","country":"ES","name":"Lúcar","_id":6355573,"coord":{"lon":-2.43463,"lat":37.437}},{"displayName":"Lújar, ES","country":"ES","name":"Lújar","_id":6357738,"coord":{"lon":-3.37406,"lat":36.778461}},{"displayName":"Lübberstedt, DE","country":"DE","name":"Lübberstedt","_id":6552707,"coord":{"lon":8.8,"lat":53.333302}},{"displayName":"Lübberstorf, DE","country":"DE","name":"Lübberstorf","_id":6548197,"coord":{"lon":11.7333,"lat":53.866699}},{"displayName":"Lübbow, DE","country":"DE","name":"Lübbow","_id":6552661,"coord":{"lon":11.1833,"lat":52.916698}},{"displayName":"Lübbrechtsen, DE","country":"DE","name":"Lübbrechtsen","_id":2875602,"coord":{"lon":9.72831,"lat":52.033539}},{"displayName":"Lübesse, DE","country":"DE","name":"Lübesse","_id":6547955,"coord":{"lon":11.4667,"lat":53.483299}},{"displayName":"Lüblow, DE","country":"DE","name":"Lüblow","_id":6547956,"coord":{"lon":11.4667,"lat":53.416698}},{"displayName":"Lübow, DE","country":"DE","name":"Lübow","_id":6548198,"coord":{"lon":11.5167,"lat":53.849998}},{"displayName":"Lübrassen, DE","country":"DE","name":"Lübrassen","_id":2875573,"coord":{"lon":8.61667,"lat":52.033329}},{"displayName":"Lübs, DE","country":"DE","name":"Lübs","_id":6548486,"coord":{"lon":13.8833,"lat":53.733299}},{"displayName":"Lübstorf, DE","country":"DE","name":"Lübstorf","_id":6559264,"coord":{"lon":11.41471,"lat":53.725609}},{"displayName":"Lübzin, DE","country":"DE","name":"Lübzin","_id":2875556,"coord":{"lon":11.93333,"lat":53.75}},{"displayName":"Lüchow, DE","country":"DE","name":"Lüchow","_id":6551479,"coord":{"lon":10.5333,"lat":53.6833}},{"displayName":"Lückenbach, DE","country":"DE","name":"Lückenbach","_id":2875498,"coord":{"lon":6.91349,"lat":50.424919}},{"displayName":"Lückenburg, DE","country":"DE","name":"Lückenburg","_id":6554348,"coord":{"lon":6.96667,"lat":49.733299}},{"displayName":"Lüdelsen, DE","country":"DE","name":"Lüdelsen","_id":2875464,"coord":{"lon":10.93333,"lat":52.683331}},{"displayName":"Lüder, DE","country":"DE","name":"Lüder","_id":6552824,"coord":{"lon":10.6667,"lat":52.8167}},{"displayName":"Lüdersburg, DE","country":"DE","name":"Lüdersburg","_id":6552681,"coord":{"lon":10.5667,"lat":53.3167}},{"displayName":"Lüdersbüttel, DE","country":"DE","name":"Lüdersbüttel","_id":2875437,"coord":{"lon":9.35,"lat":54.216671}},{"displayName":"Lüdersdorf, DE","country":"DE","name":"Lüdersdorf","_id":6548199,"coord":{"lon":10.8167,"lat":53.833302}},{"displayName":"Lüdersen, DE","country":"DE","name":"Lüdersen","_id":2875428,"coord":{"lon":9.67003,"lat":52.25481}},{"displayName":"Lüdersfeld, DE","country":"DE","name":"Lüdersfeld","_id":6558451,"coord":{"lon":9.25057,"lat":52.349701}},{"displayName":"Lüdershagen, DE","country":"DE","name":"Lüdershagen","_id":2875426,"coord":{"lon":12.26315,"lat":53.719261}},{"displayName":"Lüdershagen, DE","country":"DE","name":"Lüdershagen","_id":6548128,"coord":{"lon":12.6167,"lat":54.299999}},{"displayName":"Lüdingworth, DE","country":"DE","name":"Lüdingworth","_id":2875415,"coord":{"lon":8.76667,"lat":53.799999}},{"displayName":"Lüerdissen, DE","country":"DE","name":"Lüerdissen","_id":6552515,"coord":{"lon":9.61667,"lat":51.950001}},{"displayName":"Lüganuse vald, EE","country":"EE","name":"Lüganuse vald","_id":7522335,"coord":{"lon":27.07641,"lat":59.39262}},{"displayName":"Lüganuse, EE","country":"EE","name":"Lüganuse","_id":590497,"coord":{"lon":27.030279,"lat":59.380562}},{"displayName":"Lüge, DE","country":"DE","name":"Lüge","_id":2875281,"coord":{"lon":11.35,"lat":52.76667}},{"displayName":"Lühburg, DE","country":"DE","name":"Lühburg","_id":6547897,"coord":{"lon":12.6,"lat":53.983299}},{"displayName":"Lühmannsdorf, DE","country":"DE","name":"Lühmannsdorf","_id":6548290,"coord":{"lon":13.6333,"lat":54.0}},{"displayName":"Lühnde, DE","country":"DE","name":"Lühnde","_id":2875229,"coord":{"lon":9.9507,"lat":52.273621}},{"displayName":"Lüllau, DE","country":"DE","name":"Lüllau","_id":2875159,"coord":{"lon":9.91453,"lat":53.288139}},{"displayName":"Lülsdorf, DE","country":"DE","name":"Lülsdorf","_id":2875155,"coord":{"lon":7.0,"lat":50.833328}},{"displayName":"Lülsfeld, DE","country":"DE","name":"Lülsfeld","_id":6557063,"coord":{"lon":10.3333,"lat":49.866699}},{"displayName":"Lünebach, DE","country":"DE","name":"Lünebach","_id":6554567,"coord":{"lon":6.35,"lat":50.133301}},{"displayName":"Lünne, DE","country":"DE","name":"Lünne","_id":6552908,"coord":{"lon":7.43333,"lat":52.4333}},{"displayName":"Lünow, DE","country":"DE","name":"Lünow","_id":2875080,"coord":{"lon":12.66667,"lat":52.48333}},{"displayName":"Lünsfeld, DE","country":"DE","name":"Lünsfeld","_id":2875075,"coord":{"lon":7.55,"lat":52.48333}},{"displayName":"Lüptitz, DE","country":"DE","name":"Lüptitz","_id":2875037,"coord":{"lon":12.76989,"lat":51.391708}},{"displayName":"Lürschau, DE","country":"DE","name":"Lürschau","_id":6551977,"coord":{"lon":9.5,"lat":54.549999}},{"displayName":"Lüsse, DE","country":"DE","name":"Lüsse","_id":2874993,"coord":{"lon":12.66667,"lat":52.150002}},{"displayName":"Lüssow, DE","country":"DE","name":"Lüssow","_id":6547898,"coord":{"lon":12.15,"lat":53.833302}},{"displayName":"Lüssow, DE","country":"DE","name":"Lüssow","_id":6548129,"coord":{"lon":13.0333,"lat":54.283298}},{"displayName":"Lütau, DE","country":"DE","name":"Lütau","_id":6551480,"coord":{"lon":10.55,"lat":53.4333}},{"displayName":"Lütetsburg, DE","country":"DE","name":"Lütetsburg","_id":6552864,"coord":{"lon":7.24816,"lat":53.600201}},{"displayName":"Lüthorst, DE","country":"DE","name":"Lüthorst","_id":2874928,"coord":{"lon":9.71667,"lat":51.849998}},{"displayName":"Lütisburg, CH","country":"CH","name":"Lütisburg","_id":7286402,"coord":{"lon":9.10455,"lat":47.396259}},{"displayName":"Lütjenbornholt, DE","country":"DE","name":"Lütjenbornholt","_id":2874923,"coord":{"lon":9.33333,"lat":54.083328}},{"displayName":"Lütjenholm, DE","country":"DE","name":"Lütjenholm","_id":6551575,"coord":{"lon":9.01667,"lat":54.6833}},{"displayName":"Lütjensee, DE","country":"DE","name":"Lütjensee","_id":6552279,"coord":{"lon":10.3667,"lat":53.650002}},{"displayName":"Lütjenwestedt, DE","country":"DE","name":"Lütjenwestedt","_id":6551878,"coord":{"lon":9.48333,"lat":54.133301}},{"displayName":"Lütow, DE","country":"DE","name":"Lütow","_id":6548292,"coord":{"lon":13.8833,"lat":54.016701}},{"displayName":"Lüttchendorf, DE","country":"DE","name":"Lüttchendorf","_id":2874867,"coord":{"lon":11.63333,"lat":51.5}},{"displayName":"Lüttchenseyda, DE","country":"DE","name":"Lüttchenseyda","_id":2874866,"coord":{"lon":12.9,"lat":51.866669}},{"displayName":"Lüttelbracht, DE","country":"DE","name":"Lüttelbracht","_id":2874859,"coord":{"lon":6.2,"lat":51.25}},{"displayName":"Lüttenmark, DE","country":"DE","name":"Lüttenmark","_id":2874848,"coord":{"lon":10.76667,"lat":53.450001}},{"displayName":"Lütz, DE","country":"DE","name":"Lütz","_id":6553704,"coord":{"lon":7.35,"lat":50.166698}},{"displayName":"Lützel, DE","country":"DE","name":"Lützel","_id":2874772,"coord":{"lon":7.6,"lat":50.366669}},{"displayName":"Lützelbach, DE","country":"DE","name":"Lützelbach","_id":6553197,"coord":{"lon":9.07528,"lat":49.7883}},{"displayName":"Lützelburg, DE","country":"DE","name":"Lützelburg","_id":2874762,"coord":{"lon":10.8,"lat":48.466671}},{"displayName":"Lützelflüh, CH","country":"CH","name":"Lützelflüh","_id":7286405,"coord":{"lon":7.69807,"lat":47.004539}},{"displayName":"Lützelhausen, DE","country":"DE","name":"Lützelhausen","_id":2874759,"coord":{"lon":9.17427,"lat":50.164799}},{"displayName":"Lützellinden, DE","country":"DE","name":"Lützellinden","_id":2874757,"coord":{"lon":8.62247,"lat":50.537331}},{"displayName":"Lützenkirchen, DE","country":"DE","name":"Lützenkirchen","_id":2874731,"coord":{"lon":7.05,"lat":51.066669}},{"displayName":"Lützensömmern, DE","country":"DE","name":"Lützensömmern","_id":2874729,"coord":{"lon":10.88333,"lat":51.183331}},{"displayName":"Lützerath, DE","country":"DE","name":"Lützerath","_id":2874727,"coord":{"lon":6.43333,"lat":51.049999}},{"displayName":"Lützkampen, DE","country":"DE","name":"Lützkampen","_id":6554568,"coord":{"lon":6.18333,"lat":50.150002}},{"displayName":"Lützkendorf, DE","country":"DE","name":"Lützkendorf","_id":2874714,"coord":{"lon":11.85,"lat":51.299999}},{"displayName":"Lützow, DE","country":"DE","name":"Lützow","_id":6548200,"coord":{"lon":11.1833,"lat":53.650002}},{"displayName":"Lüxheim, DE","country":"DE","name":"Lüxheim","_id":2874698,"coord":{"lon":6.63333,"lat":50.76667}},{"displayName":"Lālbāgkhāmār, BD","country":"BD","name":"Lālbāgkhāmār","_id":7488262,"coord":{"lon":88.627602,"lat":25.636}},{"displayName":"Lāvān, IR","country":"IR","name":"Lāvān","_id":125794,"coord":{"lon":53.369999,"lat":26.809719}},{"displayName":"Lăpuşna, MD","country":"MD","name":"Lăpuşna","_id":617922,"coord":{"lon":28.41194,"lat":46.884171}},{"displayName":"Lăstuni, RO","country":"RO","name":"Lăstuni","_id":675000,"coord":{"lon":28.700001,"lat":45.033329}},{"displayName":"Lądek-Zdrój, PL","country":"PL","name":"Lądek-Zdrój","_id":7533046,"coord":{"lon":16.883301,"lat":50.348202}},{"displayName":"Lębork, PL","country":"PL","name":"Lębork","_id":7532621,"coord":{"lon":17.757799,"lat":54.5355}},{"displayName":"Lędziny, PL","country":"PL","name":"Lędziny","_id":7531733,"coord":{"lon":19.123501,"lat":50.129799}},{"displayName":"Lŭdzhene, BG","country":"BG","name":"Lŭdzhene","_id":729519,"coord":{"lon":24.0,"lat":42.01667}},{"displayName":"Lənkəran Şəhəri, AZ","country":"AZ","name":"Lənkəran Şəhəri","_id":409418,"coord":{"lon":48.833328,"lat":38.73333}},{"displayName":"Lộc Ninh, VN","country":"VN","name":"Lộc Ninh","_id":1575864,"coord":{"lon":106.599998,"lat":11.85}},{"displayName":"L’Agha, DZ","country":"DZ","name":"L’Agha","_id":2491195,"coord":{"lon":3.05,"lat":36.76667}},{"displayName":"L’Escalier, MU","country":"MU","name":"L’Escalier","_id":934343,"coord":{"lon":57.612221,"lat":-20.469999}},{"displayName":"L’Etage, GD","country":"GD","name":"L’Etage","_id":3580164,"coord":{"lon":-61.633331,"lat":12.18333}},{"displayName":"L’gov, RU","country":"RU","name":"L’gov","_id":535347,"coord":{"lon":35.284302,"lat":51.688801}},{"displayName":"L’Islet, GG","country":"GG","name":"L’Islet","_id":6420923,"coord":{"lon":-2.545,"lat":49.487782}},{"displayName":"L’nozavod, RU","country":"RU","name":"L’nozavod","_id":7601267,"coord":{"lon":36.006599,"lat":56.4939}},{"displayName":"L’vivs’ka Oblast’, UA","country":"UA","name":"L’vivs’ka Oblast’","_id":702549,"coord":{"lon":24.0,"lat":50.0}},{"displayName":"Ma Nam Wat, HK","country":"HK","name":"Ma Nam Wat","_id":1819414,"coord":{"lon":114.26667,"lat":22.35}},{"displayName":"Ma\u0027rib, YE","country":"YE","name":"Ma\u0027rib","_id":72968,"coord":{"lon":45.325809,"lat":15.46253}},{"displayName":"Ma-kung, TW","country":"TW","name":"Ma-kung","_id":1672228,"coord":{"lon":119.586273,"lat":23.565399}},{"displayName":"Maagnas, PH","country":"PH","name":"Maagnas","_id":1704816,"coord":{"lon":123.667503,"lat":13.7192}},{"displayName":"Maale, MV","country":"MV","name":"Maale","_id":1337624,"coord":{"lon":73.508331,"lat":4.175}},{"displayName":"maalot Tarshiha, IL","country":"IL","name":"maalot Tarshiha","_id":293420,"coord":{"lon":35.26667,"lat":33.01667}},{"displayName":"Maamba, ZM","country":"ZM","name":"Maamba","_id":908718,"coord":{"lon":27.15,"lat":-17.366671}},{"displayName":"Maan, CN","country":"CN","name":"Maan","_id":1801617,"coord":{"lon":110.721107,"lat":26.977501}},{"displayName":"Maan, CN","country":"CN","name":"Maan","_id":1801632,"coord":{"lon":120.581741,"lat":30.147301}},{"displayName":"Maan, CN","country":"CN","name":"Maan","_id":1925033,"coord":{"lon":115.904381,"lat":27.741261}},{"displayName":"Maan, CN","country":"CN","name":"Maan","_id":7466658,"coord":{"lon":115.547684,"lat":26.20883}},{"displayName":"Maan, PH","country":"PH","name":"Maan","_id":1704800,"coord":{"lon":124.735558,"lat":5.93389}},{"displayName":"Maanas, PH","country":"PH","name":"Maanas","_id":1704793,"coord":{"lon":125.03083,"lat":8.89389}},{"displayName":"Maaninka, FI","country":"FI","name":"Maaninka","_id":647195,"coord":{"lon":27.25,"lat":63.166672}},{"displayName":"Maaninka, FI","country":"FI","name":"Maaninka","_id":647202,"coord":{"lon":27.299999,"lat":63.150002}},{"displayName":"Maanit, MN","country":"MN","name":"Maanit","_id":2030078,"coord":{"lon":103.42556,"lat":48.296669}},{"displayName":"Maanit, MN","country":"MN","name":"Maanit","_id":2030079,"coord":{"lon":107.533333,"lat":47.25}},{"displayName":"Maanshan, CN","country":"CN","name":"Maanshan","_id":1801620,"coord":{"lon":118.498253,"lat":31.695681}},{"displayName":"Maao, CN","country":"CN","name":"Maao","_id":1801616,"coord":{"lon":114.32695,"lat":29.05537}},{"displayName":"Maao, CN","country":"CN","name":"Maao","_id":1881544,"coord":{"lon":122.0867,"lat":30.11377}},{"displayName":"Maao, PH","country":"PH","name":"Maao","_id":1704781,"coord":{"lon":122.98333,"lat":10.48333}},{"displayName":"Maapi, BW","country":"BW","name":"Maapi","_id":933498,"coord":{"lon":27.35001,"lat":-22.757851}},{"displayName":"Maardu linn, EE","country":"EE","name":"Maardu linn","_id":7522337,"coord":{"lon":24.973499,"lat":59.463848}},{"displayName":"Maardu, EE","country":"EE","name":"Maardu","_id":590448,"coord":{"lon":25.025,"lat":59.428059}},{"displayName":"Maardu, EE","country":"EE","name":"Maardu","_id":590447,"coord":{"lon":25.025,"lat":59.476669}},{"displayName":"Maarn, NL","country":"NL","name":"Maarn","_id":2751320,"coord":{"lon":5.37083,"lat":52.064171}},{"displayName":"Maarrat an Numan, SY","country":"SY","name":"Maarrat an Numan","_id":167611,"coord":{"lon":36.676929,"lat":35.6483}},{"displayName":"Maarrat Misrin, SY","country":"SY","name":"Maarrat Misrin","_id":167605,"coord":{"lon":36.672539,"lat":36.013371}},{"displayName":"Maarsbergen, NL","country":"NL","name":"Maarsbergen","_id":2751318,"coord":{"lon":5.40556,"lat":52.058331}},{"displayName":"Maarssen, NL","country":"NL","name":"Maarssen","_id":2751316,"coord":{"lon":5.04167,"lat":52.139172}},{"displayName":"Maasbracht, NL","country":"NL","name":"Maasbracht","_id":2751303,"coord":{"lon":5.88627,"lat":51.13929}},{"displayName":"Maasbree, NL","country":"NL","name":"Maasbree","_id":2751301,"coord":{"lon":6.04861,"lat":51.357498}},{"displayName":"Maasbull, DE","country":"DE","name":"Maasbull","_id":2874674,"coord":{"lon":9.51667,"lat":54.783329}},{"displayName":"Maasbüll, DE","country":"DE","name":"Maasbüll","_id":2874675,"coord":{"lon":8.81667,"lat":54.75}},{"displayName":"Maasbüll, DE","country":"DE","name":"Maasbüll","_id":6552036,"coord":{"lon":9.51667,"lat":54.783298}},{"displayName":"Maasdijk, NL","country":"NL","name":"Maasdijk","_id":2751296,"coord":{"lon":4.21389,"lat":51.959171}},{"displayName":"Maaseik, BE","country":"BE","name":"Maaseik","_id":2791965,"coord":{"lon":5.78333,"lat":51.099998}},{"displayName":"Maaseik, BE","country":"BE","name":"Maaseik","_id":2791964,"coord":{"lon":5.78379,"lat":51.098019}},{"displayName":"Maasen, DE","country":"DE","name":"Maasen","_id":6552450,"coord":{"lon":8.88333,"lat":52.700001}},{"displayName":"Maasen, DE","country":"DE","name":"Maasen","_id":2874665,"coord":{"lon":8.88451,"lat":52.6922}},{"displayName":"Maasholm, DE","country":"DE","name":"Maasholm","_id":6552037,"coord":{"lon":9.98333,"lat":54.6833}},{"displayName":"Maasholm, DE","country":"DE","name":"Maasholm","_id":2874663,"coord":{"lon":9.98333,"lat":54.683331}},{"displayName":"Maasin, PH","country":"PH","name":"Maasin","_id":1704758,"coord":{"lon":124.844719,"lat":10.13361}},{"displayName":"Maasin, PH","country":"PH","name":"Maasin","_id":1704764,"coord":{"lon":124.849998,"lat":10.2}},{"displayName":"Maasin, PH","country":"PH","name":"Maasin","_id":1704755,"coord":{"lon":122.434723,"lat":10.8925}},{"displayName":"Maasin, PH","country":"PH","name":"Maasin","_id":1704770,"coord":{"lon":121.0289,"lat":14.9958}},{"displayName":"Maasin, PH","country":"PH","name":"Maasin","_id":1704772,"coord":{"lon":125.006111,"lat":5.8575}},{"displayName":"Maasmechelen, BE","country":"BE","name":"Maasmechelen","_id":2791535,"coord":{"lon":5.7,"lat":50.966671}},{"displayName":"Maasmechelen, BE","country":"BE","name":"Maasmechelen","_id":2791961,"coord":{"lon":5.69452,"lat":50.96545}},{"displayName":"Maassluis, NL","country":"NL","name":"Maassluis","_id":2751285,"coord":{"lon":4.25,"lat":51.923328}},{"displayName":"Maastricht, NL","country":"NL","name":"Maastricht","_id":2751283,"coord":{"lon":5.68889,"lat":50.848331}},{"displayName":"Maayon, PH","country":"PH","name":"Maayon","_id":1704730,"coord":{"lon":122.785896,"lat":11.3867}},{"displayName":"Maayong Tubig, PH","country":"PH","name":"Maayong Tubig","_id":1704729,"coord":{"lon":123.246902,"lat":9.1672}},{"displayName":"Maba, CN","country":"CN","name":"Maba","_id":1801615,"coord":{"lon":113.598389,"lat":24.68412}},{"displayName":"Maba, CN","country":"CN","name":"Maba","_id":1801613,"coord":{"lon":118.785004,"lat":32.976109}},{"displayName":"Mababanaba, PH","country":"PH","name":"Mababanaba","_id":1704725,"coord":{"lon":120.460533,"lat":15.49715}},{"displayName":"Mabahin, PH","country":"PH","name":"Mabahin","_id":1702351,"coord":{"lon":126.170563,"lat":9.18556}},{"displayName":"Mabai, CN","country":"CN","name":"Mabai","_id":1818004,"coord":{"lon":104.450813,"lat":23.012791}},{"displayName":"Mabalacat, PH","country":"PH","name":"Mabalacat","_id":1704704,"coord":{"lon":120.550003,"lat":15.21667}},{"displayName":"Mabalacat, PH","country":"PH","name":"Mabalacat","_id":1704703,"coord":{"lon":120.573601,"lat":15.2216}},{"displayName":"Mabama, TZ","country":"TZ","name":"Mabama","_id":155515,"coord":{"lon":32.533329,"lat":-5.13333}},{"displayName":"Mabamba, TZ","country":"TZ","name":"Mabamba","_id":155514,"coord":{"lon":30.50194,"lat":-3.59833}},{"displayName":"Mabank, US","country":"US","name":"Mabank","_id":4708535,"coord":{"lon":-96.100807,"lat":32.366531}},{"displayName":"Mabar, YE","country":"YE","name":"Mabar","_id":73409,"coord":{"lon":44.293541,"lat":14.79395}},{"displayName":"Mabaruma, GY","country":"GY","name":"Mabaruma","_id":3377301,"coord":{"lon":-59.783329,"lat":8.2}},{"displayName":"Mabasa, PH","country":"PH","name":"Mabasa","_id":1704664,"coord":{"lon":121.126198,"lat":16.320999}},{"displayName":"Mabay, PH","country":"PH","name":"Mabay","_id":1704644,"coord":{"lon":124.466614,"lat":6.05772}},{"displayName":"Mabayo, PH","country":"PH","name":"Mabayo","_id":1704638,"coord":{"lon":120.278099,"lat":14.7318}},{"displayName":"Mabei, CN","country":"CN","name":"Mabei","_id":1936431,"coord":{"lon":114.528259,"lat":23.491501}},{"displayName":"Mabele-a-podi, ZA","country":"ZA","name":"Mabele-a-podi","_id":980984,"coord":{"lon":27.204651,"lat":-25.280531}},{"displayName":"Mabibe, TZ","country":"TZ","name":"Mabibe","_id":155503,"coord":{"lon":39.216671,"lat":-6.8}},{"displayName":"Mabiga, PH","country":"PH","name":"Mabiga","_id":1704628,"coord":{"lon":120.585098,"lat":15.1917}},{"displayName":"Mabilang, PH","country":"PH","name":"Mabilang","_id":1704623,"coord":{"lon":120.4879,"lat":15.6752}},{"displayName":"Mabilao, PH","country":"PH","name":"Mabilao","_id":1704620,"coord":{"lon":120.424797,"lat":16.154301}},{"displayName":"Mabilbila Sur, PH","country":"PH","name":"Mabilbila Sur","_id":1704618,"coord":{"lon":120.433327,"lat":17.5}},{"displayName":"Mabilog, PH","country":"PH","name":"Mabilog","_id":1704611,"coord":{"lon":120.665733,"lat":15.39485}},{"displayName":"Mabinay, PH","country":"PH","name":"Mabinay","_id":1704606,"coord":{"lon":122.901672,"lat":9.72722}},{"displayName":"Mabini, PH","country":"PH","name":"Mabini","_id":1704567,"coord":{"lon":124.633331,"lat":12.5}},{"displayName":"Mabini, PH","country":"PH","name":"Mabini","_id":1704544,"coord":{"lon":121.737244,"lat":17.096939}},{"displayName":"Mabini, PH","country":"PH","name":"Mabini","_id":1704545,"coord":{"lon":119.939102,"lat":16.069901}},{"displayName":"Mabini, PH","country":"PH","name":"Mabini","_id":1704552,"coord":{"lon":120.98333,"lat":15.6}},{"displayName":"Mabini, PH","country":"PH","name":"Mabini","_id":1704560,"coord":{"lon":120.940491,"lat":13.75324}},{"displayName":"Mabini, PH","country":"PH","name":"Mabini","_id":1704575,"coord":{"lon":125.166672,"lat":11.41667}},{"displayName":"Mabini, PH","country":"PH","name":"Mabini","_id":1704579,"coord":{"lon":123.485558,"lat":10.79583}},{"displayName":"Mabini, PH","country":"PH","name":"Mabini","_id":1704591,"coord":{"lon":124.5215,"lat":9.8649}},{"displayName":"Mabini, PH","country":"PH","name":"Mabini","_id":1704597,"coord":{"lon":125.852783,"lat":7.31139}},{"displayName":"Mabini, PH","country":"PH","name":"Mabini","_id":1704598,"coord":{"lon":124.900002,"lat":6.53889}},{"displayName":"Mabitac, PH","country":"PH","name":"Mabitac","_id":1704537,"coord":{"lon":121.429001,"lat":14.4259}},{"displayName":"Mabiton, PH","country":"PH","name":"Mabiton","_id":1704533,"coord":{"lon":123.2612,"lat":12.8334}},{"displayName":"Mableton, US","country":"US","name":"Mableton","_id":4207226,"coord":{"lon":-84.561943,"lat":33.815739}},{"displayName":"Mably, FR","country":"FR","name":"Mably","_id":6434192,"coord":{"lon":4.06667,"lat":46.083328}},{"displayName":"Mably, FR","country":"FR","name":"Mably","_id":2996921,"coord":{"lon":4.06607,"lat":46.086231}},{"displayName":"Mabobo, CO","country":"CO","name":"Mabobo","_id":3675808,"coord":{"lon":-75.170479,"lat":8.43372}},{"displayName":"Mabopane, ZA","country":"ZA","name":"Mabopane","_id":980921,"coord":{"lon":28.100651,"lat":-25.497681}},{"displayName":"Mabou, CA","country":"CA","name":"Mabou","_id":6062534,"coord":{"lon":-61.381828,"lat":46.066841}},{"displayName":"Mabscott, US","country":"US","name":"Mabscott","_id":4813512,"coord":{"lon":-81.208427,"lat":37.77095}},{"displayName":"Mabton, US","country":"US","name":"Mabton","_id":5802087,"coord":{"lon":-119.996712,"lat":46.214851}},{"displayName":"Mabu, CN","country":"CN","name":"Mabu","_id":1801604,"coord":{"lon":115.392441,"lat":27.559999}},{"displayName":"Mabu, CN","country":"CN","name":"Mabu","_id":7690191,"coord":{"lon":114.437599,"lat":28.10037}},{"displayName":"Mabua, PH","country":"PH","name":"Mabua","_id":1704515,"coord":{"lon":125.442223,"lat":9.80889}},{"displayName":"Mabugang, CN","country":"CN","name":"Mabugang","_id":1801601,"coord":{"lon":115.411697,"lat":24.5891}},{"displayName":"Mabuhay, PH","country":"PH","name":"Mabuhay","_id":1704503,"coord":{"lon":122.83667,"lat":7.41778}},{"displayName":"Mabuhay, PH","country":"PH","name":"Mabuhay","_id":1704504,"coord":{"lon":125.547501,"lat":7.33306}},{"displayName":"Mabuli, BW","country":"BW","name":"Mabuli","_id":933491,"coord":{"lon":24.6,"lat":-25.783331}},{"displayName":"Mabunga, PH","country":"PH","name":"Mabunga","_id":1704484,"coord":{"lon":122.068329,"lat":13.8625}},{"displayName":"Mabusag, PH","country":"PH","name":"Mabusag","_id":1704476,"coord":{"lon":120.497597,"lat":17.9261}},{"displayName":"Mabuttal East, PH","country":"PH","name":"Mabuttal East","_id":1704472,"coord":{"lon":121.514702,"lat":18.3762}},{"displayName":"Mabyan, YE","country":"YE","name":"Mabyan","_id":403316,"coord":{"lon":43.557011,"lat":15.73773}},{"displayName":"Mabí, PR","country":"PR","name":"Mabí","_id":4566112,"coord":{"lon":-65.684608,"lat":18.310511}},{"displayName":"Macaas, PH","country":"PH","name":"Macaas","_id":1704466,"coord":{"lon":124.008614,"lat":10.69889}},{"displayName":"Macabebe, PH","country":"PH","name":"Macabebe","_id":1704449,"coord":{"lon":120.7155,"lat":14.9089}},{"displayName":"Macabuboni, PH","country":"PH","name":"Macabuboni","_id":1704442,"coord":{"lon":119.780197,"lat":16.190901}},{"displayName":"Macabugos, PH","country":"PH","name":"Macabugos","_id":1704434,"coord":{"lon":123.305298,"lat":13.2362}},{"displayName":"Macachin, AR","country":"AR","name":"Macachin","_id":3845344,"coord":{"lon":-63.6665,"lat":-37.135979}},{"displayName":"Macae, BR","country":"BR","name":"Macae","_id":3458266,"coord":{"lon":-41.786942,"lat":-22.370831}},{"displayName":"Macael, ES","country":"ES","name":"Macael","_id":6355574,"coord":{"lon":-2.30119,"lat":37.309738}},{"displayName":"Macael, ES","country":"ES","name":"Macael","_id":2514360,"coord":{"lon":-2.30087,"lat":37.333179}},{"displayName":"Macaiba, BR","country":"BR","name":"Macaiba","_id":3396048,"coord":{"lon":-35.353889,"lat":-5.85833}},{"displayName":"Macalamcam A, PH","country":"PH","name":"Macalamcam A","_id":1704413,"coord":{"lon":121.32814,"lat":13.8566}},{"displayName":"Macalaya, PH","country":"PH","name":"Macalaya","_id":1704403,"coord":{"lon":123.771111,"lat":12.88944}},{"displayName":"Macalelon, PH","country":"PH","name":"Macalelon","_id":1704394,"coord":{"lon":122.138611,"lat":13.74694}},{"displayName":"Macalister, AU","country":"AU","name":"Macalister","_id":2159272,"coord":{"lon":151.083328,"lat":-27.049999}},{"displayName":"Macalong, PH","country":"PH","name":"Macalong","_id":1704386,"coord":{"lon":120.6586,"lat":16.0137}},{"displayName":"Macalva Norte, PH","country":"PH","name":"Macalva Norte","_id":1704381,"coord":{"lon":120.386597,"lat":16.348499}},{"displayName":"Macambira, BR","country":"BR","name":"Macambira","_id":3458257,"coord":{"lon":-37.540829,"lat":-10.66639}},{"displayName":"Macamic, CA","country":"CA","name":"Macamic","_id":6062563,"coord":{"lon":-78.999619,"lat":48.750179}},{"displayName":"Macanal, CO","country":"CO","name":"Macanal","_id":3675791,"coord":{"lon":-73.319588,"lat":4.97214}},{"displayName":"Macanet de Cabrenys, ES","country":"ES","name":"Macanet de Cabrenys","_id":3117219,"coord":{"lon":2.74806,"lat":42.385971}},{"displayName":"Macanet de la Selva, ES","country":"ES","name":"Macanet de la Selva","_id":3117218,"coord":{"lon":2.73333,"lat":41.783329}},{"displayName":"Macaomiao, CN","country":"CN","name":"Macaomiao","_id":7757658,"coord":{"lon":115.017639,"lat":30.657391}},{"displayName":"Macapa, BR","country":"BR","name":"Macapa","_id":3396016,"coord":{"lon":-51.066391,"lat":0.03889}},{"displayName":"Macaparana, BR","country":"BR","name":"Macaparana","_id":3396009,"coord":{"lon":-35.45306,"lat":-7.55472}},{"displayName":"Macapo, VE","country":"VE","name":"Macapo","_id":3799319,"coord":{"lon":-68.438988,"lat":9.82602}},{"displayName":"Macapsing, PH","country":"PH","name":"Macapsing","_id":1704357,"coord":{"lon":121.131897,"lat":15.6783}},{"displayName":"Macara, EC","country":"EC","name":"Macara","_id":3654545,"coord":{"lon":-79.949997,"lat":-4.38333}},{"displayName":"Macaracas, PA","country":"PA","name":"Macaracas","_id":3704874,"coord":{"lon":-80.550003,"lat":7.73333}},{"displayName":"Macarani, BR","country":"BR","name":"Macarani","_id":3458249,"coord":{"lon":-40.423061,"lat":-15.56833}},{"displayName":"Macaravita, CO","country":"CO","name":"Macaravita","_id":3675780,"coord":{"lon":-72.592987,"lat":6.50567}},{"displayName":"Macarse, PH","country":"PH","name":"Macarse","_id":1704335,"coord":{"lon":120.778099,"lat":15.4243}},{"displayName":"Macarthur, AU","country":"AU","name":"Macarthur","_id":2159266,"coord":{"lon":142.0,"lat":-38.033329}},{"displayName":"Macarthur, AU","country":"AU","name":"Macarthur","_id":7302189,"coord":{"lon":149.131958,"lat":-35.408562}},{"displayName":"MacArthur, PH","country":"PH","name":"MacArthur","_id":1704333,"coord":{"lon":124.995277,"lat":10.83472}},{"displayName":"MacArthur, US","country":"US","name":"MacArthur","_id":4813519,"coord":{"lon":-81.212601,"lat":37.75845}},{"displayName":"Macas, EC","country":"EC","name":"Macas","_id":3654541,"coord":{"lon":-78.116669,"lat":-2.31667}},{"displayName":"Macastre, ES","country":"ES","name":"Macastre","_id":6362023,"coord":{"lon":-0.80081,"lat":39.353168}},{"displayName":"Macastre, ES","country":"ES","name":"Macastre","_id":2514359,"coord":{"lon":-0.78333,"lat":39.383331}},{"displayName":"Macatbong, PH","country":"PH","name":"Macatbong","_id":1704321,"coord":{"lon":121.080833,"lat":15.50556}},{"displayName":"Macatuba, BR","country":"BR","name":"Macatuba","_id":3458245,"coord":{"lon":-48.711391,"lat":-22.50222}},{"displayName":"Macau Special Administrative Region, MO","country":"MO","name":"Macau Special Administrative Region","_id":1821275,"coord":{"lon":113.559723,"lat":22.15778}},{"displayName":"Macau, BR","country":"BR","name":"Macau","_id":3395998,"coord":{"lon":-36.634441,"lat":-5.115}},{"displayName":"Macau, FR","country":"FR","name":"Macau","_id":2996918,"coord":{"lon":-0.61821,"lat":45.00679}},{"displayName":"Macau, MO","country":"MO","name":"Macau","_id":1821274,"coord":{"lon":113.546112,"lat":22.20056}},{"displayName":"Macaubal, BR","country":"BR","name":"Macaubal","_id":3458238,"coord":{"lon":-49.96389,"lat":-20.80583}},{"displayName":"Macaubas, BR","country":"BR","name":"Macaubas","_id":3458237,"coord":{"lon":-42.698608,"lat":-13.01944}},{"displayName":"Macaye, FR","country":"FR","name":"Macaye","_id":6440496,"coord":{"lon":-1.31667,"lat":43.333328}},{"displayName":"Macaye, FR","country":"FR","name":"Macaye","_id":2996917,"coord":{"lon":-1.32025,"lat":43.331139}},{"displayName":"Macayug, PH","country":"PH","name":"Macayug","_id":1704286,"coord":{"lon":120.431702,"lat":16.0924}},{"displayName":"Macaíba, BR","country":"BR","name":"Macaíba","_id":3396049,"coord":{"lon":-35.549999,"lat":-5.71667}},{"displayName":"Macbride, BS","country":"BS","name":"Macbride","_id":3571964,"coord":{"lon":-77.466667,"lat":25.066669}},{"displayName":"Maccagno, IT","country":"IT","name":"Maccagno","_id":3174411,"coord":{"lon":8.73413,"lat":46.043571}},{"displayName":"Maccan, CA","country":"CA","name":"Maccan","_id":6062631,"coord":{"lon":-64.248741,"lat":45.71685}},{"displayName":"Maccastorna, IT","country":"IT","name":"Maccastorna","_id":6535713,"coord":{"lon":9.85457,"lat":45.146671}},{"displayName":"Macchia dIsernia, IT","country":"IT","name":"Macchia dIsernia","_id":3174406,"coord":{"lon":14.16712,"lat":41.561619}},{"displayName":"Macchia Valfortore, IT","country":"IT","name":"Macchia Valfortore","_id":3174397,"coord":{"lon":14.91174,"lat":41.595032}},{"displayName":"Macchiagodena, IT","country":"IT","name":"Macchiagodena","_id":3174404,"coord":{"lon":14.40782,"lat":41.55983}},{"displayName":"Macchie, IT","country":"IT","name":"Macchie","_id":3174394,"coord":{"lon":16.76667,"lat":41.133331}},{"displayName":"Macclenny, US","country":"US","name":"Macclenny","_id":4163083,"coord":{"lon":-82.122063,"lat":30.282181}},{"displayName":"Macclesfield, AU","country":"AU","name":"Macclesfield","_id":2067307,"coord":{"lon":138.833328,"lat":-35.183331}},{"displayName":"Macclesfield, GB","country":"GB","name":"Macclesfield","_id":2643266,"coord":{"lon":-2.12564,"lat":53.260231}},{"displayName":"Macdiarmid, CA","country":"CA","name":"Macdiarmid","_id":6062670,"coord":{"lon":-88.133324,"lat":49.433411}},{"displayName":"Macdonald, CA","country":"CA","name":"Macdonald","_id":6062677,"coord":{"lon":-98.46714,"lat":50.057522}},{"displayName":"Macdowall, CA","country":"CA","name":"Macdowall","_id":6062881,"coord":{"lon":-106.017769,"lat":53.016781}},{"displayName":"Macduff, GB","country":"GB","name":"Macduff","_id":2643262,"coord":{"lon":-2.49686,"lat":57.67012}},{"displayName":"Macea, RO","country":"RO","name":"Macea","_id":674244,"coord":{"lon":21.299999,"lat":46.383331}},{"displayName":"Maceda, ES","country":"ES","name":"Maceda","_id":6359861,"coord":{"lon":-7.59617,"lat":42.25449}},{"displayName":"Maceda, ES","country":"ES","name":"Maceda","_id":3117771,"coord":{"lon":-7.65052,"lat":42.269718}},{"displayName":"Maceda, PT","country":"PT","name":"Maceda","_id":8010832,"coord":{"lon":-8.63074,"lat":40.920681}},{"displayName":"Maceda, PT","country":"PT","name":"Maceda","_id":2738087,"coord":{"lon":-8.61721,"lat":40.936371}},{"displayName":"Macedo de Cavaleiros, PT","country":"PT","name":"Macedo de Cavaleiros","_id":8010464,"coord":{"lon":-6.93355,"lat":41.551319}},{"displayName":"Macedo de Cavaleiros, PT","country":"PT","name":"Macedo de Cavaleiros","_id":8014739,"coord":{"lon":-6.96251,"lat":41.540668}},{"displayName":"Macedo de Cavaleiros, PT","country":"PT","name":"Macedo de Cavaleiros","_id":2738082,"coord":{"lon":-6.9611,"lat":41.538158}},{"displayName":"Macedon Ranges, AU","country":"AU","name":"Macedon Ranges","_id":7839800,"coord":{"lon":144.615814,"lat":-37.333431}},{"displayName":"Macedon, AU","country":"AU","name":"Macedon","_id":2159231,"coord":{"lon":144.566666,"lat":-37.416672}},{"displayName":"Macedon, US","country":"US","name":"Macedon","_id":5125591,"coord":{"lon":-77.298866,"lat":43.069229}},{"displayName":"Macedonia, US","country":"US","name":"Macedonia","_id":5161539,"coord":{"lon":-81.508453,"lat":41.313671}},{"displayName":"Maceio, BR","country":"BR","name":"Maceio","_id":3395981,"coord":{"lon":-35.735279,"lat":-9.66583}},{"displayName":"Maceira, PT","country":"PT","name":"Maceira","_id":8012367,"coord":{"lon":-8.89784,"lat":39.688728}},{"displayName":"Maceira, PT","country":"PT","name":"Maceira","_id":2266914,"coord":{"lon":-8.89423,"lat":39.68853}},{"displayName":"Maceió, BR","country":"BR","name":"Maceió","_id":6320645,"coord":{"lon":-35.689941,"lat":-9.57135}},{"displayName":"Macello, IT","country":"IT","name":"Macello","_id":6535403,"coord":{"lon":7.39802,"lat":44.851139}},{"displayName":"Macenta, GN","country":"GN","name":"Macenta","_id":2417988,"coord":{"lon":-9.47099,"lat":8.54351}},{"displayName":"Maceo, CO","country":"CO","name":"Maceo","_id":3675768,"coord":{"lon":-74.787422,"lat":6.55196}},{"displayName":"Macerata Campania, IT","country":"IT","name":"Macerata Campania","_id":3174378,"coord":{"lon":14.27373,"lat":41.063309}},{"displayName":"Macerata Feltria, IT","country":"IT","name":"Macerata Feltria","_id":3174377,"coord":{"lon":12.44025,"lat":43.802959}},{"displayName":"Macerata, IT","country":"IT","name":"Macerata","_id":6540106,"coord":{"lon":13.44108,"lat":43.298161}},{"displayName":"Macerata, IT","country":"IT","name":"Macerata","_id":3174380,"coord":{"lon":13.44108,"lat":43.298161}},{"displayName":"Macesu de Jos, RO","country":"RO","name":"Macesu de Jos","_id":674237,"coord":{"lon":23.716669,"lat":43.883331}},{"displayName":"Macesu de Sus, RO","country":"RO","name":"Macesu de Sus","_id":674235,"coord":{"lon":23.700001,"lat":43.916672}},{"displayName":"Macey, FR","country":"FR","name":"Macey","_id":6435472,"coord":{"lon":-1.43333,"lat":48.566669}},{"displayName":"Macey, FR","country":"FR","name":"Macey","_id":2996912,"coord":{"lon":-1.43539,"lat":48.561939}},{"displayName":"MacGregor, CA","country":"CA","name":"MacGregor","_id":6062964,"coord":{"lon":-98.779373,"lat":49.966129}},{"displayName":"Mach, PK","country":"PK","name":"Mach","_id":1171757,"coord":{"lon":67.329781,"lat":29.86371}},{"displayName":"Macha, CN","country":"CN","name":"Macha","_id":1941100,"coord":{"lon":110.046692,"lat":29.042641}},{"displayName":"Machacamarca, BO","country":"BO","name":"Machacamarca","_id":3910971,"coord":{"lon":-67.033333,"lat":-18.16667}},{"displayName":"Machachi, EC","country":"EC","name":"Machachi","_id":3654536,"coord":{"lon":-78.566673,"lat":-0.5}},{"displayName":"Machacon, ES","country":"ES","name":"Machacon","_id":3117759,"coord":{"lon":-5.5243,"lat":40.926231}},{"displayName":"Machacón, ES","country":"ES","name":"Machacón","_id":6360417,"coord":{"lon":-5.51611,"lat":40.92416}},{"displayName":"Machadinho, BR","country":"BR","name":"Machadinho","_id":3458217,"coord":{"lon":-51.667782,"lat":-27.56694}},{"displayName":"Machado, BR","country":"BR","name":"Machado","_id":3458211,"coord":{"lon":-45.91972,"lat":-21.674721}},{"displayName":"Machagai, AR","country":"AR","name":"Machagai","_id":3845330,"coord":{"lon":-60.049561,"lat":-26.92614}},{"displayName":"Machakos, KE","country":"KE","name":"Machakos","_id":188492,"coord":{"lon":37.26667,"lat":-1.51667}},{"displayName":"Machala, EC","country":"EC","name":"Machala","_id":3654533,"coord":{"lon":-79.966667,"lat":-3.26667}},{"displayName":"Machali, CL","country":"CL","name":"Machali","_id":3881102,"coord":{"lon":-70.666672,"lat":-34.183331}},{"displayName":"Machalpur, IN","country":"IN","name":"Machalpur","_id":1264653,"coord":{"lon":76.300003,"lat":24.133329}},{"displayName":"Machaneng, BW","country":"BW","name":"Machaneng","_id":933488,"coord":{"lon":27.48856,"lat":-23.186211}},{"displayName":"Machang, CN","country":"CN","name":"Machang","_id":1280653,"coord":{"lon":97.01667,"lat":32.833328}},{"displayName":"Machang, CN","country":"CN","name":"Machang","_id":1801590,"coord":{"lon":119.01667,"lat":34.083328}},{"displayName":"Macharetí, BO","country":"BO","name":"Macharetí","_id":6621203,"coord":{"lon":-63.2328,"lat":-20.75485}},{"displayName":"Mache, FR","country":"FR","name":"Mache","_id":2996906,"coord":{"lon":-1.68692,"lat":46.754051}},{"displayName":"Machecoul, FR","country":"FR","name":"Machecoul","_id":6449113,"coord":{"lon":-1.81667,"lat":47.0}},{"displayName":"Machecoul, FR","country":"FR","name":"Machecoul","_id":2996905,"coord":{"lon":-1.82352,"lat":46.99358}},{"displayName":"Macheke, ZW","country":"ZW","name":"Macheke","_id":888089,"coord":{"lon":31.849331,"lat":-18.139009}},{"displayName":"Machekoaneng, LS","country":"LS","name":"Machekoaneng","_id":932618,"coord":{"lon":27.545,"lat":-29.43532}},{"displayName":"Machelen, BE","country":"BE","name":"Machelen","_id":2791953,"coord":{"lon":4.43745,"lat":50.908661}},{"displayName":"Machelen, BE","country":"BE","name":"Machelen","_id":2791951,"coord":{"lon":4.44174,"lat":50.91061}},{"displayName":"Machen, GB","country":"GB","name":"Machen","_id":2643259,"coord":{"lon":-3.1419,"lat":51.595989}},{"displayName":"Macheng, CN","country":"CN","name":"Macheng","_id":1801582,"coord":{"lon":115.031937,"lat":31.178329}},{"displayName":"Macheng, CN","country":"CN","name":"Macheng","_id":1801579,"coord":{"lon":112.289841,"lat":30.908739}},{"displayName":"Macheren, FR","country":"FR","name":"Macheren","_id":2996901,"coord":{"lon":6.7738,"lat":49.100449}},{"displayName":"Macherio, IT","country":"IT","name":"Macherio","_id":6534944,"coord":{"lon":9.25484,"lat":45.633579}},{"displayName":"Macherla, IN","country":"IN","name":"Macherla","_id":1264647,"coord":{"lon":79.433327,"lat":16.48333}},{"displayName":"Machern, DE","country":"DE","name":"Machern","_id":6548776,"coord":{"lon":12.6099,"lat":51.362801}},{"displayName":"Machern, DE","country":"DE","name":"Machern","_id":2874642,"coord":{"lon":12.63333,"lat":51.366669}},{"displayName":"Machesney Park, US","country":"US","name":"Machesney Park","_id":4900801,"coord":{"lon":-89.039001,"lat":42.34724}},{"displayName":"Macheta, CO","country":"CO","name":"Macheta","_id":3675757,"coord":{"lon":-73.607613,"lat":5.08154}},{"displayName":"Machhiwara, IN","country":"IN","name":"Machhiwara","_id":1264644,"coord":{"lon":76.198334,"lat":30.914721}},{"displayName":"Machhlishahr, IN","country":"IN","name":"Machhlishahr","_id":1264643,"coord":{"lon":82.416672,"lat":25.683331}},{"displayName":"Machias, US","country":"US","name":"Machias","_id":4970888,"coord":{"lon":-67.46138,"lat":44.71508}},{"displayName":"Machias, US","country":"US","name":"Machias","_id":5802098,"coord":{"lon":-122.045959,"lat":47.981491}},{"displayName":"Machiasport, US","country":"US","name":"Machiasport","_id":4970903,"coord":{"lon":-67.394707,"lat":44.698689}},{"displayName":"Machico, PT","country":"PT","name":"Machico","_id":8010676,"coord":{"lon":-16.70772,"lat":32.74472}},{"displayName":"Machico, PT","country":"PT","name":"Machico","_id":2266895,"coord":{"lon":-16.76667,"lat":32.700001}},{"displayName":"Machida, JP","country":"JP","name":"Machida","_id":1857871,"coord":{"lon":139.450836,"lat":35.540279}},{"displayName":"Machilipatnam, IN","country":"IN","name":"Machilipatnam","_id":1264637,"coord":{"lon":81.133331,"lat":16.16667}},{"displayName":"Machinda, GQ","country":"GQ","name":"Machinda","_id":2308626,"coord":{"lon":9.95133,"lat":1.88262}},{"displayName":"Machinga, MW","country":"MW","name":"Machinga","_id":927643,"coord":{"lon":35.300018,"lat":-15.16849}},{"displayName":"Machiques, VE","country":"VE","name":"Machiques","_id":3633444,"coord":{"lon":-72.544998,"lat":10.06444}},{"displayName":"Machov, CZ","country":"CZ","name":"Machov","_id":3071289,"coord":{"lon":16.276899,"lat":50.499271}},{"displayName":"Machtenstein, DE","country":"DE","name":"Machtenstein","_id":2874634,"coord":{"lon":11.31515,"lat":48.289478}},{"displayName":"Machtlfing, DE","country":"DE","name":"Machtlfing","_id":2874631,"coord":{"lon":11.2215,"lat":47.947971}},{"displayName":"Machtolsheim, DE","country":"DE","name":"Machtolsheim","_id":2874626,"coord":{"lon":9.73955,"lat":48.494308}},{"displayName":"Machtum, LU","country":"LU","name":"Machtum","_id":2960312,"coord":{"lon":6.43444,"lat":49.65556}},{"displayName":"Machulishchy, BY","country":"BY","name":"Machulishchy","_id":625671,"coord":{"lon":27.594801,"lat":53.778801}},{"displayName":"Machynlleth, GB","country":"GB","name":"Machynlleth","_id":2643251,"coord":{"lon":-3.85051,"lat":52.590969}},{"displayName":"Macia, AR","country":"AR","name":"Macia","_id":3430968,"coord":{"lon":-59.399471,"lat":-32.172199}},{"displayName":"Macia, MZ","country":"MZ","name":"Macia","_id":1024701,"coord":{"lon":33.098888,"lat":-25.026939}},{"displayName":"Macieira da Lixa, PT","country":"PT","name":"Macieira da Lixa","_id":8014552,"coord":{"lon":-8.14526,"lat":41.34758}},{"displayName":"Macieira da Lixa, PT","country":"PT","name":"Macieira da Lixa","_id":2738055,"coord":{"lon":-8.15194,"lat":41.352261}},{"displayName":"Macieira da Maia, PT","country":"PT","name":"Macieira da Maia","_id":8014553,"coord":{"lon":-8.67101,"lat":41.343941}},{"displayName":"Macieira da Maia, PT","country":"PT","name":"Macieira da Maia","_id":2738054,"coord":{"lon":-8.66516,"lat":41.34161}},{"displayName":"Macieira de Cambra, PT","country":"PT","name":"Macieira de Cambra","_id":8014439,"coord":{"lon":-8.36451,"lat":40.868259}},{"displayName":"Macieira de Cambra, PT","country":"PT","name":"Macieira de Cambra","_id":2738052,"coord":{"lon":-8.37338,"lat":40.85939}},{"displayName":"Macieira de Rates, PT","country":"PT","name":"Macieira de Rates","_id":8014073,"coord":{"lon":-8.63723,"lat":41.43383}},{"displayName":"Macieira de Rates, PT","country":"PT","name":"Macieira de Rates","_id":2738050,"coord":{"lon":-8.63426,"lat":41.440922}},{"displayName":"Macieira de Sarnes, PT","country":"PT","name":"Macieira de Sarnes","_id":8014493,"coord":{"lon":-8.46086,"lat":40.902729}},{"displayName":"Macieira de Sarnes, PT","country":"PT","name":"Macieira de Sarnes","_id":2738049,"coord":{"lon":-8.4616,"lat":40.907028}},{"displayName":"Macieira, BR","country":"BR","name":"Macieira","_id":3458193,"coord":{"lon":-51.378059,"lat":-26.85556}},{"displayName":"Macieira, PT","country":"PT","name":"Macieira","_id":2738064,"coord":{"lon":-8.55282,"lat":40.91106}},{"displayName":"Macieira, PT","country":"PT","name":"Macieira","_id":2738065,"coord":{"lon":-8.05648,"lat":40.867939}},{"displayName":"Macieira, PT","country":"PT","name":"Macieira","_id":2738061,"coord":{"lon":-8.51942,"lat":40.996319}},{"displayName":"Maciejowice, PL","country":"PL","name":"Maciejowice","_id":765600,"coord":{"lon":21.553419,"lat":51.692219}},{"displayName":"Maciel, AR","country":"AR","name":"Maciel","_id":3845310,"coord":{"lon":-60.88736,"lat":-32.455742}},{"displayName":"Macin, RO","country":"RO","name":"Macin","_id":674230,"coord":{"lon":28.135639,"lat":45.24371}},{"displayName":"Macinhata da Seixa, PT","country":"PT","name":"Macinhata da Seixa","_id":8014414,"coord":{"lon":-8.46629,"lat":40.820332}},{"displayName":"Macinhata da Seixa, PT","country":"PT","name":"Macinhata da Seixa","_id":2738047,"coord":{"lon":-8.46729,"lat":40.820389}},{"displayName":"Macinhata do Vouga, PT","country":"PT","name":"Macinhata do Vouga","_id":8014364,"coord":{"lon":-8.42706,"lat":40.664719}},{"displayName":"Mack, US","country":"US","name":"Mack","_id":4517323,"coord":{"lon":-84.649673,"lat":39.158112}},{"displayName":"Macka, TR","country":"TR","name":"Macka","_id":741850,"coord":{"lon":39.613609,"lat":40.818611}},{"displayName":"Mackay, AU","country":"AU","name":"Mackay","_id":7839593,"coord":{"lon":149.042648,"lat":-21.08189}},{"displayName":"Mackay, AU","country":"AU","name":"Mackay","_id":2159220,"coord":{"lon":149.199997,"lat":-21.15}},{"displayName":"MacKay, CA","country":"CA","name":"MacKay","_id":6063111,"coord":{"lon":-115.585487,"lat":53.650139}},{"displayName":"Macken, DE","country":"DE","name":"Macken","_id":6553803,"coord":{"lon":7.4,"lat":50.1833}},{"displayName":"Macken, DE","country":"DE","name":"Macken","_id":2874622,"coord":{"lon":7.4,"lat":50.183331}},{"displayName":"Mackenbach, DE","country":"DE","name":"Mackenbach","_id":6555046,"coord":{"lon":7.58333,"lat":49.466702}},{"displayName":"Mackenbach, DE","country":"DE","name":"Mackenbach","_id":2874621,"coord":{"lon":7.58333,"lat":49.466671}},{"displayName":"Mackenrode, DE","country":"DE","name":"Mackenrode","_id":6549801,"coord":{"lon":10.0667,"lat":51.299999}},{"displayName":"Mackenrode, DE","country":"DE","name":"Mackenrode","_id":2874615,"coord":{"lon":10.06667,"lat":51.299999}},{"displayName":"Mackenrodt, DE","country":"DE","name":"Mackenrodt","_id":6553612,"coord":{"lon":7.25,"lat":49.716702}},{"displayName":"Mackenrodt, DE","country":"DE","name":"Mackenrodt","_id":2874611,"coord":{"lon":7.25,"lat":49.716671}},{"displayName":"Mackensen, DE","country":"DE","name":"Mackensen","_id":2874609,"coord":{"lon":9.66376,"lat":51.82209}},{"displayName":"Mackenzie District, NZ","country":"NZ","name":"Mackenzie District","_id":7910050,"coord":{"lon":170.519135,"lat":-43.939869}},{"displayName":"Mackenzie, CA","country":"CA","name":"Mackenzie","_id":6063191,"coord":{"lon":-123.1698,"lat":55.29985}},{"displayName":"Mackies, CA","country":"CA","name":"Mackies","_id":6063363,"coord":{"lon":-90.066879,"lat":48.233379}},{"displayName":"Mackinac County, US","country":"US","name":"Mackinac County","_id":5000447,"coord":{"lon":-85.000618,"lat":46.08334}},{"displayName":"Mackinaw, US","country":"US","name":"Mackinaw","_id":4900808,"coord":{"lon":-89.35759,"lat":40.53698}},{"displayName":"Macklin, CA","country":"CA","name":"Macklin","_id":6063429,"coord":{"lon":-109.934837,"lat":52.333439}},{"displayName":"Macknade, AU","country":"AU","name":"Macknade","_id":2159198,"coord":{"lon":146.266663,"lat":-18.58333}},{"displayName":"Mackovec, HR","country":"HR","name":"Mackovec","_id":3195971,"coord":{"lon":16.433611,"lat":46.424171}},{"displayName":"Macks Creek, AU","country":"AU","name":"Macks Creek","_id":2159197,"coord":{"lon":146.633331,"lat":-38.466671}},{"displayName":"Macksville, AU","country":"AU","name":"Macksville","_id":2159194,"coord":{"lon":152.899994,"lat":-30.716669}},{"displayName":"Maclagan, AU","country":"AU","name":"Maclagan","_id":2159191,"coord":{"lon":151.633331,"lat":-27.08333}},{"displayName":"Maclas, FR","country":"FR","name":"Maclas","_id":2996885,"coord":{"lon":4.68912,"lat":45.365292}},{"displayName":"Maclean, AU","country":"AU","name":"Maclean","_id":2159185,"coord":{"lon":153.216675,"lat":-29.466669}},{"displayName":"Maclodio, IT","country":"IT","name":"Maclodio","_id":6535197,"coord":{"lon":10.04217,"lat":45.477779}},{"displayName":"Macmerry, GB","country":"GB","name":"Macmerry","_id":2643247,"coord":{"lon":-2.90503,"lat":55.940449}},{"displayName":"MacNab Park, CA","country":"CA","name":"MacNab Park","_id":6063667,"coord":{"lon":-106.684517,"lat":52.16679}},{"displayName":"Maco, PH","country":"PH","name":"Maco","_id":1704271,"coord":{"lon":125.855278,"lat":7.36194}},{"displayName":"Macomb County, US","country":"US","name":"Macomb County","_id":5000477,"coord":{"lon":-82.949928,"lat":42.700031}},{"displayName":"Macomb, US","country":"US","name":"Macomb","_id":4900817,"coord":{"lon":-90.671799,"lat":40.459209}},{"displayName":"Macomer, IT","country":"IT","name":"Macomer","_id":3174367,"coord":{"lon":8.76992,"lat":40.261951}},{"displayName":"Macon County, US","country":"US","name":"Macon County","_id":4074246,"coord":{"lon":-85.81662,"lat":32.400139}},{"displayName":"Macon County, US","country":"US","name":"Macon County","_id":4243719,"coord":{"lon":-88.966751,"lat":39.866699}},{"displayName":"Macon, FR","country":"FR","name":"Macon","_id":2996882,"coord":{"lon":4.83333,"lat":46.299999}},{"displayName":"Macon, US","country":"US","name":"Macon","_id":4163123,"coord":{"lon":-84.279068,"lat":30.49464}},{"displayName":"Macon, US","country":"US","name":"Macon","_id":4120256,"coord":{"lon":-92.16848,"lat":34.920368}},{"displayName":"Macon, US","country":"US","name":"Macon","_id":4207400,"coord":{"lon":-83.632401,"lat":32.840691}},{"displayName":"Macon, US","country":"US","name":"Macon","_id":4243717,"coord":{"lon":-88.997017,"lat":39.712818}},{"displayName":"Macon, US","country":"US","name":"Macon","_id":4396767,"coord":{"lon":-92.472687,"lat":39.74226}},{"displayName":"Macon, US","country":"US","name":"Macon","_id":4434645,"coord":{"lon":-88.560883,"lat":33.1054}},{"displayName":"Macorna, AU","country":"AU","name":"Macorna","_id":2159169,"coord":{"lon":144.016663,"lat":-35.900002}},{"displayName":"Macot-la-Plagne, FR","country":"FR","name":"Macot-la-Plagne","_id":2996874,"coord":{"lon":6.66667,"lat":45.549999}},{"displayName":"Macotera, ES","country":"ES","name":"Macotera","_id":6360416,"coord":{"lon":-5.29,"lat":40.835739}},{"displayName":"Macotera, ES","country":"ES","name":"Macotera","_id":3117755,"coord":{"lon":-5.28526,"lat":40.831039}},{"displayName":"Macouba, MQ","country":"MQ","name":"Macouba","_id":6690666,"coord":{"lon":-61.145,"lat":14.8761}},{"displayName":"Macouba, MQ","country":"MQ","name":"Macouba","_id":3570363,"coord":{"lon":-61.156929,"lat":14.86885}},{"displayName":"Macoun, CA","country":"CA","name":"Macoun","_id":6063718,"coord":{"lon":-103.26767,"lat":49.316761}},{"displayName":"Macouria, GF","country":"GF","name":"Macouria","_id":3381117,"coord":{"lon":-52.366669,"lat":4.91667}},{"displayName":"Macquarie, AU","country":"AU","name":"Macquarie","_id":7281844,"coord":{"lon":149.063614,"lat":-35.251259}},{"displayName":"Macra, IT","country":"IT","name":"Macra","_id":6535468,"coord":{"lon":7.17952,"lat":44.50013}},{"displayName":"MacRae, CA","country":"CA","name":"MacRae","_id":6063790,"coord":{"lon":-135.000931,"lat":60.636909}},{"displayName":"Macrohon, PH","country":"PH","name":"Macrohon","_id":1704252,"coord":{"lon":124.943062,"lat":10.07972}},{"displayName":"Macroom, IE","country":"IE","name":"Macroom","_id":2962745,"coord":{"lon":-8.95,"lat":51.900002}},{"displayName":"Macs Corner, US","country":"US","name":"Macs Corner","_id":5229524,"coord":{"lon":-99.441498,"lat":44.25193}},{"displayName":"Macson, CA","country":"CA","name":"Macson","_id":6063836,"coord":{"lon":-110.601631,"lat":49.966759}},{"displayName":"MacTier, CA","country":"CA","name":"MacTier","_id":6063848,"coord":{"lon":-79.770363,"lat":45.135071}},{"displayName":"Macuco, BR","country":"BR","name":"Macuco","_id":3458185,"coord":{"lon":-42.252781,"lat":-21.983891}},{"displayName":"Macugnaga, IT","country":"IT","name":"Macugnaga","_id":3174366,"coord":{"lon":7.96783,"lat":45.969292}},{"displayName":"Macul, CL","country":"CL","name":"Macul","_id":3881068,"coord":{"lon":-70.566673,"lat":-33.5}},{"displayName":"Macultepec, MX","country":"MX","name":"Macultepec","_id":3523794,"coord":{"lon":-92.833328,"lat":18.16667}},{"displayName":"Macun, CN","country":"CN","name":"Macun","_id":1910138,"coord":{"lon":113.645538,"lat":33.566799}},{"displayName":"Macungie, US","country":"US","name":"Macungie","_id":5199439,"coord":{"lon":-75.555191,"lat":40.51593}},{"displayName":"Macusani, PE","country":"PE","name":"Macusani","_id":3935624,"coord":{"lon":-70.433327,"lat":-14.08333}},{"displayName":"Macuspana, MX","country":"MX","name":"Macuspana","_id":3523791,"coord":{"lon":-92.599998,"lat":17.76667}},{"displayName":"Macvanska Mitrovica, RS","country":"RS","name":"Macvanska Mitrovica","_id":3195962,"coord":{"lon":19.598061,"lat":44.965561}},{"displayName":"Macville (historical), US","country":"US","name":"Macville (historical)","_id":4207424,"coord":{"lon":-83.28376,"lat":30.79159}},{"displayName":"Macy, US","country":"US","name":"Macy","_id":5072528,"coord":{"lon":-96.356422,"lat":42.113049}},{"displayName":"Macé, FR","country":"FR","name":"Macé","_id":6454470,"coord":{"lon":0.15,"lat":48.633331}},{"displayName":"Macé, FR","country":"FR","name":"Macé","_id":2996915,"coord":{"lon":0.14206,"lat":48.636162}},{"displayName":"Mad, HU","country":"HU","name":"Mad","_id":717980,"coord":{"lon":21.283331,"lat":48.200001}},{"displayName":"Madaba, JO","country":"JO","name":"Madaba","_id":248370,"coord":{"lon":35.799999,"lat":31.716669}},{"displayName":"Madagali, NG","country":"NG","name":"Madagali","_id":2331715,"coord":{"lon":13.63121,"lat":10.89018}},{"displayName":"Madagh, MA","country":"MA","name":"Madagh","_id":2543231,"coord":{"lon":-2.33701,"lat":35.010319}},{"displayName":"Madail, PT","country":"PT","name":"Madail","_id":8010817,"coord":{"lon":-8.50628,"lat":40.836262}},{"displayName":"Madail, PT","country":"PT","name":"Madail","_id":2738041,"coord":{"lon":-8.50204,"lat":40.83791}},{"displayName":"Madala, NG","country":"NG","name":"Madala","_id":2331694,"coord":{"lon":7.21333,"lat":9.10444}},{"displayName":"Madalag, PH","country":"PH","name":"Madalag","_id":1704216,"coord":{"lon":122.307297,"lat":11.5272}},{"displayName":"Madalag, PH","country":"PH","name":"Madalag","_id":1704217,"coord":{"lon":122.982803,"lat":10.89944}},{"displayName":"Madalena, PT","country":"PT","name":"Madalena","_id":8012809,"coord":{"lon":-8.3356,"lat":41.216648}},{"displayName":"Madalena, PT","country":"PT","name":"Madalena","_id":2738038,"coord":{"lon":-8.33451,"lat":41.21616}},{"displayName":"Madalena, PT","country":"PT","name":"Madalena","_id":8013066,"coord":{"lon":-8.43412,"lat":39.57222}},{"displayName":"Madalena, PT","country":"PT","name":"Madalena","_id":8010697,"coord":{"lon":-28.52343,"lat":38.535591}},{"displayName":"Madalena, PT","country":"PT","name":"Madalena","_id":3372908,"coord":{"lon":-28.5266,"lat":38.536419}},{"displayName":"Madalum, PH","country":"PH","name":"Madalum","_id":1704200,"coord":{"lon":124.120483,"lat":7.8542}},{"displayName":"Madama, PS","country":"PS","name":"Madama","_id":282980,"coord":{"lon":35.23114,"lat":32.185879}},{"displayName":"Madamba, PH","country":"PH","name":"Madamba","_id":1704196,"coord":{"lon":124.110291,"lat":7.83889}},{"displayName":"Madamba, PH","country":"PH","name":"Madamba","_id":1978781,"coord":{"lon":124.047119,"lat":7.82733}},{"displayName":"Madambakkam, IN","country":"IN","name":"Madambakkam","_id":1465910,"coord":{"lon":80.046669,"lat":12.8525}},{"displayName":"Madan, BG","country":"BG","name":"Madan","_id":729439,"coord":{"lon":24.950001,"lat":41.5}},{"displayName":"Madanapalle, IN","country":"IN","name":"Madanapalle","_id":1264621,"coord":{"lon":78.5,"lat":13.55}},{"displayName":"Madang Province, PG","country":"PG","name":"Madang Province","_id":2091993,"coord":{"lon":145.5,"lat":-5.0}},{"displayName":"Madang, CN","country":"CN","name":"Madang","_id":1801564,"coord":{"lon":116.652077,"lat":29.98807}},{"displayName":"Madang, CN","country":"CN","name":"Madang","_id":7413703,"coord":{"lon":102.7854,"lat":35.324421}},{"displayName":"Madang, PG","country":"PG","name":"Madang","_id":2091996,"coord":{"lon":145.796555,"lat":-5.22465}},{"displayName":"Madanpur, IN","country":"IN","name":"Madanpur","_id":1264614,"coord":{"lon":88.48333,"lat":23.01667}},{"displayName":"Madao, CN","country":"CN","name":"Madao","_id":1801561,"coord":{"lon":107.000137,"lat":33.424179}},{"displayName":"Madaotou, CN","country":"CN","name":"Madaotou","_id":1801558,"coord":{"lon":112.768608,"lat":39.87611}},{"displayName":"Madaoua, NE","country":"NE","name":"Madaoua","_id":2441530,"coord":{"lon":5.96,"lat":14.073}},{"displayName":"Madara, NG","country":"NG","name":"Madara","_id":2331686,"coord":{"lon":10.4479,"lat":11.7798}},{"displayName":"Madaras, HU","country":"HU","name":"Madaras","_id":3048657,"coord":{"lon":19.261209,"lat":46.058701}},{"displayName":"Madaras, RO","country":"RO","name":"Madaras","_id":674214,"coord":{"lon":21.683331,"lat":46.833328}},{"displayName":"Madariaga, AR","country":"AR","name":"Madariaga","_id":3845293,"coord":{"lon":-64.666672,"lat":-25.91667}},{"displayName":"Madaripur, BD","country":"BD","name":"Madaripur","_id":1337245,"coord":{"lon":90.207222,"lat":23.17528}},{"displayName":"Madarounfa, NE","country":"NE","name":"Madarounfa","_id":2441526,"coord":{"lon":7.15602,"lat":13.30867}},{"displayName":"Madawaska, CA","country":"CA","name":"Madawaska","_id":6063885,"coord":{"lon":-77.982819,"lat":45.500118}},{"displayName":"Madawaska, US","country":"US","name":"Madawaska","_id":4970938,"coord":{"lon":-68.328819,"lat":47.356121}},{"displayName":"Madawaska, US","country":"US","name":"Madawaska","_id":4970940,"coord":{"lon":-67.94725,"lat":46.884209}},{"displayName":"Madawat, ID","country":"ID","name":"Madawat","_id":7429756,"coord":{"lon":122.2117,"lat":-8.6274}},{"displayName":"Madbury, US","country":"US","name":"Madbury","_id":5089140,"coord":{"lon":-70.92395,"lat":43.16925}},{"displayName":"Maddaloni, IT","country":"IT","name":"Maddaloni","_id":6539987,"coord":{"lon":14.37683,"lat":41.040009}},{"displayName":"Maddaloni, IT","country":"IT","name":"Maddaloni","_id":3174358,"coord":{"lon":14.37683,"lat":41.040009}},{"displayName":"Maddarulog, PH","country":"PH","name":"Maddarulog","_id":1704156,"coord":{"lon":121.679199,"lat":17.6047}},{"displayName":"Maddela, PH","country":"PH","name":"Maddela","_id":1704154,"coord":{"lon":121.684898,"lat":16.3414}},{"displayName":"Maddingley, AU","country":"AU","name":"Maddingley","_id":2159141,"coord":{"lon":144.432449,"lat":-37.685181}},{"displayName":"Maddington, AU","country":"AU","name":"Maddington","_id":2067260,"coord":{"lon":115.98333,"lat":-32.049999}},{"displayName":"Maddur, IN","country":"IN","name":"Maddur","_id":1264592,"coord":{"lon":77.066673,"lat":12.6}},{"displayName":"Made, ID","country":"ID","name":"Made","_id":7036665,"coord":{"lon":112.391502,"lat":-7.1174}},{"displayName":"Madeira Beach, US","country":"US","name":"Madeira Beach","_id":4163129,"coord":{"lon":-82.797318,"lat":27.79808}},{"displayName":"Madeira, US","country":"US","name":"Madeira","_id":4517353,"coord":{"lon":-84.363548,"lat":39.190891}},{"displayName":"Madeji, PK","country":"PK","name":"Madeji","_id":1171677,"coord":{"lon":68.45256,"lat":27.754431}},{"displayName":"Madeley, GB","country":"GB","name":"Madeley","_id":2643235,"coord":{"lon":-2.43333,"lat":52.633331}},{"displayName":"Madelia, US","country":"US","name":"Madelia","_id":5036191,"coord":{"lon":-94.418297,"lat":44.050789}},{"displayName":"Mademühlen, DE","country":"DE","name":"Mademühlen","_id":2874590,"coord":{"lon":8.16667,"lat":50.616669}},{"displayName":"Maden, TR","country":"TR","name":"Maden","_id":305041,"coord":{"lon":39.67363,"lat":38.39352}},{"displayName":"Madenhausen, DE","country":"DE","name":"Madenhausen","_id":2874586,"coord":{"lon":10.29951,"lat":50.136421}},{"displayName":"Madeniyet, KZ","country":"KZ","name":"Madeniyet","_id":1539965,"coord":{"lon":76.815834,"lat":43.340557}},{"displayName":"Mader, AT","country":"AT","name":"Mader","_id":2772154,"coord":{"lon":9.61667,"lat":47.349998}},{"displayName":"Madera Acres, US","country":"US","name":"Madera Acres","_id":5369569,"coord":{"lon":-120.066833,"lat":37.019112}},{"displayName":"Madera County, US","country":"US","name":"Madera County","_id":5369578,"coord":{"lon":-119.83432,"lat":37.166611}},{"displayName":"Madera, MX","country":"MX","name":"Madera","_id":3996956,"coord":{"lon":-108.116669,"lat":29.200001}},{"displayName":"Madera, US","country":"US","name":"Madera","_id":5369568,"coord":{"lon":-120.060722,"lat":36.961342}},{"displayName":"Maderhalm, DE","country":"DE","name":"Maderhalm","_id":2874582,"coord":{"lon":10.26667,"lat":47.450001}},{"displayName":"Madero, MX","country":"MX","name":"Madero","_id":3972248,"coord":{"lon":-102.0,"lat":22.433331}},{"displayName":"Maderuelo, ES","country":"ES","name":"Maderuelo","_id":6360846,"coord":{"lon":-3.52019,"lat":41.51334}},{"displayName":"Maderuelo, ES","country":"ES","name":"Maderuelo","_id":3117747,"coord":{"lon":-3.52218,"lat":41.486439}},{"displayName":"Madesimo, IT","country":"IT","name":"Madesimo","_id":3174356,"coord":{"lon":9.35953,"lat":46.4394}},{"displayName":"Madette, ID","country":"ID","name":"Madette","_id":1969601,"coord":{"lon":119.307701,"lat":-3.4097}},{"displayName":"Madgaon, IN","country":"IN","name":"Madgaon","_id":1264588,"coord":{"lon":73.949997,"lat":15.3}},{"displayName":"Madhipura, IN","country":"IN","name":"Madhipura","_id":1264570,"coord":{"lon":86.783333,"lat":25.91667}},{"displayName":"Madhoganj, IN","country":"IN","name":"Madhoganj","_id":1264569,"coord":{"lon":80.150002,"lat":27.116671}},{"displayName":"Madhogarh, IN","country":"IN","name":"Madhogarh","_id":1264567,"coord":{"lon":79.186897,"lat":26.275999}},{"displayName":"Madhogarh, IN","country":"IN","name":"Madhogarh","_id":1264568,"coord":{"lon":80.900002,"lat":24.566669}},{"displayName":"Madhubani, IN","country":"IN","name":"Madhubani","_id":1264555,"coord":{"lon":86.083328,"lat":26.366671}},{"displayName":"Madhugiri, IN","country":"IN","name":"Madhugiri","_id":1264553,"coord":{"lon":77.209167,"lat":13.66056}},{"displayName":"Madhupur, IN","country":"IN","name":"Madhupur","_id":1264551,"coord":{"lon":86.650002,"lat":24.25}},{"displayName":"Madhuwaghat, NP","country":"NP","name":"Madhuwaghat","_id":7972960,"coord":{"lon":84.400383,"lat":27.70216}},{"displayName":"Madhya Pashchimanchal, NP","country":"NP","name":"Madhya Pashchimanchal","_id":7289706,"coord":{"lon":82.313347,"lat":29.059771}},{"displayName":"Madhyamanchal, NP","country":"NP","name":"Madhyamanchal","_id":7289707,"coord":{"lon":85.223007,"lat":27.454359}},{"displayName":"Madhyamgram, IN","country":"IN","name":"Madhyamgram","_id":1264543,"coord":{"lon":88.449997,"lat":22.700001}},{"displayName":"Madian, CN","country":"CN","name":"Madian","_id":1801554,"coord":{"lon":119.95639,"lat":32.24139}},{"displayName":"Madibeng, BW","country":"BW","name":"Madibeng","_id":1106249,"coord":{"lon":25.916109,"lat":-24.646111}},{"displayName":"Madic, FR","country":"FR","name":"Madic","_id":6427579,"coord":{"lon":2.46667,"lat":45.383331}},{"displayName":"Madic, FR","country":"FR","name":"Madic","_id":2996852,"coord":{"lon":2.46667,"lat":45.383331}},{"displayName":"Madiedo, ES","country":"ES","name":"Madiedo","_id":3117746,"coord":{"lon":-5.39309,"lat":43.415459}},{"displayName":"Madifushi, MV","country":"MV","name":"Madifushi","_id":7911024,"coord":{"lon":73.354729,"lat":2.35582}},{"displayName":"Madignano, IT","country":"IT","name":"Madignano","_id":3174354,"coord":{"lon":9.72326,"lat":45.345669}},{"displayName":"Madikeri, IN","country":"IN","name":"Madikeri","_id":1264540,"coord":{"lon":75.73333,"lat":12.41667}},{"displayName":"Madill, US","country":"US","name":"Madill","_id":4542052,"coord":{"lon":-96.771667,"lat":34.090382}},{"displayName":"Madimba, TZ","country":"TZ","name":"Madimba","_id":878141,"coord":{"lon":40.333328,"lat":-10.4}},{"displayName":"Madina, AM","country":"AM","name":"Madina","_id":616456,"coord":{"lon":45.25507,"lat":40.076382}},{"displayName":"Madina, GH","country":"GH","name":"Madina","_id":2298330,"coord":{"lon":-0.16413,"lat":5.68234}},{"displayName":"Madinat ash Shamal, QA","country":"QA","name":"Madinat ash Shamal","_id":289739,"coord":{"lon":51.200901,"lat":26.12933}},{"displayName":"Madinat Hamad, BH","country":"BH","name":"Madinat Hamad","_id":290247,"coord":{"lon":50.506939,"lat":26.11528}},{"displayName":"Madinat Isa, BH","country":"BH","name":"Madinat Isa","_id":290187,"coord":{"lon":50.547779,"lat":26.173611}},{"displayName":"Madinat Labus, YE","country":"YE","name":"Madinat Labus","_id":75357,"coord":{"lon":45.25,"lat":13.86667}},{"displayName":"Madinat Sittah Uktubar, EG","country":"EG","name":"Madinat Sittah Uktubar","_id":353219,"coord":{"lon":31.049999,"lat":29.816669}},{"displayName":"Madingley, GB","country":"GB","name":"Madingley","_id":2643231,"coord":{"lon":0.0427,"lat":52.227901}},{"displayName":"Madingou, CG","country":"CG","name":"Madingou","_id":2257990,"coord":{"lon":13.55,"lat":-4.15361}},{"displayName":"Madipakkam, IN","country":"IN","name":"Madipakkam","_id":1465825,"coord":{"lon":80.209167,"lat":12.9725}},{"displayName":"Madirac, FR","country":"FR","name":"Madirac","_id":6432292,"coord":{"lon":-0.41667,"lat":44.76667}},{"displayName":"Madirac, FR","country":"FR","name":"Madirac","_id":2996846,"coord":{"lon":-0.39834,"lat":44.759651}},{"displayName":"Madise, EE","country":"EE","name":"Madise","_id":794067,"coord":{"lon":26.73056,"lat":58.243328}},{"displayName":"Madison Center, US","country":"US","name":"Madison Center","_id":7257377,"coord":{"lon":-72.600479,"lat":41.279251}},{"displayName":"Madison County, US","country":"US","name":"Madison County","_id":4434666,"coord":{"lon":-90.064529,"lat":32.56514}},{"displayName":"Madison County, US","country":"US","name":"Madison County","_id":5664295,"coord":{"lon":-111.867477,"lat":45.28326}},{"displayName":"Madison County, US","country":"US","name":"Madison County","_id":4923124,"coord":{"lon":-85.681641,"lat":40.193649}},{"displayName":"Madison County, US","country":"US","name":"Madison County","_id":4299665,"coord":{"lon":-84.299927,"lat":37.73341}},{"displayName":"Madison County, US","country":"US","name":"Madison County","_id":4243743,"coord":{"lon":-89.900101,"lat":38.833382}},{"displayName":"Madison County, US","country":"US","name":"Madison County","_id":5599930,"coord":{"lon":-111.876083,"lat":43.91658}},{"displayName":"Madison County, US","country":"US","name":"Madison County","_id":4639045,"coord":{"lon":-88.85006,"lat":35.616741}},{"displayName":"Madison County, US","country":"US","name":"Madison County","_id":5072535,"coord":{"lon":-97.600327,"lat":41.916672}},{"displayName":"Madison County, US","country":"US","name":"Madison County","_id":4074277,"coord":{"lon":-86.566658,"lat":34.733421}},{"displayName":"Madison Heights, US","country":"US","name":"Madison Heights","_id":5000500,"coord":{"lon":-83.105202,"lat":42.48587}},{"displayName":"Madison Heights, US","country":"US","name":"Madison Heights","_id":4771247,"coord":{"lon":-79.123077,"lat":37.430981}},{"displayName":"Madison Lake, US","country":"US","name":"Madison Lake","_id":5036223,"coord":{"lon":-93.815514,"lat":44.204411}},{"displayName":"Madison Parish, US","country":"US","name":"Madison Parish","_id":4332258,"coord":{"lon":-91.251503,"lat":32.36681}},{"displayName":"Madison Park, US","country":"US","name":"Madison Park","_id":5100764,"coord":{"lon":-74.307922,"lat":40.4515}},{"displayName":"Madison, CA","country":"CA","name":"Madison","_id":6063964,"coord":{"lon":-109.018158,"lat":51.216801}},{"displayName":"Madison, US","country":"US","name":"Madison","_id":4434663,"coord":{"lon":-90.115356,"lat":32.461811}},{"displayName":"Madison, US","country":"US","name":"Madison","_id":5229526,"coord":{"lon":-97.113953,"lat":44.006081}},{"displayName":"Madison, US","country":"US","name":"Madison","_id":4074267,"coord":{"lon":-86.748329,"lat":34.699261}},{"displayName":"Madison, US","country":"US","name":"Madison","_id":4838116,"coord":{"lon":-72.598427,"lat":41.279541}},{"displayName":"Madison, US","country":"US","name":"Madison","_id":5100748,"coord":{"lon":-74.417099,"lat":40.759819}},{"displayName":"Madison, US","country":"US","name":"Madison","_id":5261457,"coord":{"lon":-89.40123,"lat":43.073051}},{"displayName":"Madison, US","country":"US","name":"Madison","_id":4163140,"coord":{"lon":-83.412933,"lat":30.469379}},{"displayName":"Madison, US","country":"US","name":"Madison","_id":4207447,"coord":{"lon":-83.467941,"lat":33.59568}},{"displayName":"Madison, US","country":"US","name":"Madison","_id":4243740,"coord":{"lon":-90.157051,"lat":38.682549}},{"displayName":"Madison, US","country":"US","name":"Madison","_id":4260853,"coord":{"lon":-85.379959,"lat":38.735889}},{"displayName":"Madison, US","country":"US","name":"Madison","_id":4477732,"coord":{"lon":-79.95948,"lat":36.385422}},{"displayName":"Madison, US","country":"US","name":"Madison","_id":4771235,"coord":{"lon":-78.2575,"lat":38.380409}},{"displayName":"Madison, US","country":"US","name":"Madison","_id":4813565,"coord":{"lon":-81.81929,"lat":38.067051}},{"displayName":"Madison, US","country":"US","name":"Madison","_id":4970954,"coord":{"lon":-69.879784,"lat":44.797562}},{"displayName":"Madison, US","country":"US","name":"Madison","_id":5036210,"coord":{"lon":-96.195877,"lat":45.009682}},{"displayName":"Madison, US","country":"US","name":"Madison","_id":5072532,"coord":{"lon":-97.455048,"lat":41.828339}},{"displayName":"Madison, US","country":"US","name":"Madison","_id":5089144,"coord":{"lon":-71.148399,"lat":43.899239}},{"displayName":"Madison, US","country":"US","name":"Madison","_id":5161567,"coord":{"lon":-81.04982,"lat":41.77116}},{"displayName":"Madisonville, US","country":"US","name":"Madisonville","_id":4299670,"coord":{"lon":-87.498894,"lat":37.328098}},{"displayName":"Madisonville, US","country":"US","name":"Madisonville","_id":4639072,"coord":{"lon":-84.363533,"lat":35.519798}},{"displayName":"Madisonville, US","country":"US","name":"Madisonville","_id":4708703,"coord":{"lon":-95.911621,"lat":30.949909}},{"displayName":"Madiswil, CH","country":"CH","name":"Madiswil","_id":7286412,"coord":{"lon":7.81057,"lat":47.162739}},{"displayName":"Madiswil, CH","country":"CH","name":"Madiswil","_id":2659805,"coord":{"lon":7.79858,"lat":47.164631}},{"displayName":"Madiun, ID","country":"ID","name":"Madiun","_id":1636930,"coord":{"lon":111.523903,"lat":-7.6298}},{"displayName":"Madjeoueni, KM","country":"KM","name":"Madjeoueni","_id":1092516,"coord":{"lon":43.278061,"lat":-11.82167}},{"displayName":"Madlow, DE","country":"DE","name":"Madlow","_id":2874563,"coord":{"lon":14.35,"lat":51.716671}},{"displayName":"Madoc, CA","country":"CA","name":"Madoc","_id":6063989,"coord":{"lon":-77.47448,"lat":44.508419}},{"displayName":"Madocsa, HU","country":"HU","name":"Madocsa","_id":3048647,"coord":{"lon":18.957911,"lat":46.687901}},{"displayName":"Madolenihm Municipality Government, FM","country":"FM","name":"Madolenihm Municipality Government","_id":7667608,"coord":{"lon":158.298706,"lat":6.83493}},{"displayName":"Madolenihm Municipality, FM","country":"FM","name":"Madolenihm Municipality","_id":7626923,"coord":{"lon":158.312775,"lat":6.86759}},{"displayName":"Madona, LV","country":"LV","name":"Madona","_id":457714,"coord":{"lon":26.21698,"lat":56.853291}},{"displayName":"Madonas Rajons, LV","country":"LV","name":"Madonas Rajons","_id":457712,"coord":{"lon":26.25,"lat":56.833328}},{"displayName":"Madone, IT","country":"IT","name":"Madone","_id":6534971,"coord":{"lon":9.55015,"lat":45.65028}},{"displayName":"Madonna del Sasso, IT","country":"IT","name":"Madonna del Sasso","_id":6534837,"coord":{"lon":8.36952,"lat":45.792171}},{"displayName":"Madonna della Quercia, IT","country":"IT","name":"Madonna della Quercia","_id":3174335,"coord":{"lon":12.1,"lat":42.416672}},{"displayName":"Madras, US","country":"US","name":"Madras","_id":5738690,"coord":{"lon":-121.129494,"lat":44.63345}},{"displayName":"Madre de Deus de Minas, BR","country":"BR","name":"Madre de Deus de Minas","_id":3458160,"coord":{"lon":-44.33028,"lat":-21.4825}},{"displayName":"Madre de Deus, BR","country":"BR","name":"Madre de Deus","_id":3458161,"coord":{"lon":-38.620831,"lat":-12.74083}},{"displayName":"Madremanya, ES","country":"ES","name":"Madremanya","_id":6534081,"coord":{"lon":2.94202,"lat":41.98362}},{"displayName":"Madremanya, ES","country":"ES","name":"Madremanya","_id":3117736,"coord":{"lon":2.96667,"lat":41.98333}},{"displayName":"Madriat, FR","country":"FR","name":"Madriat","_id":6440073,"coord":{"lon":3.2,"lat":45.433331}},{"displayName":"Madriat, FR","country":"FR","name":"Madriat","_id":2996834,"coord":{"lon":3.18672,"lat":45.432251}},{"displayName":"Madrid, CO","country":"CO","name":"Madrid","_id":3675707,"coord":{"lon":-74.264191,"lat":4.73244}},{"displayName":"Madrid, ES","country":"ES","name":"Madrid","_id":6359304,"coord":{"lon":-3.68275,"lat":40.489349}},{"displayName":"Madrid, ES","country":"ES","name":"Madrid","_id":3117735,"coord":{"lon":-3.70256,"lat":40.4165}},{"displayName":"Madrid, MX","country":"MX","name":"Madrid","_id":3996933,"coord":{"lon":-103.866669,"lat":19.08333}},{"displayName":"Madrid, PH","country":"PH","name":"Madrid","_id":1704129,"coord":{"lon":125.964371,"lat":9.26211}},{"displayName":"Madrid, US","country":"US","name":"Madrid","_id":4865871,"coord":{"lon":-93.82328,"lat":41.876652}},{"displayName":"Madridanos, ES","country":"ES","name":"Madridanos","_id":6362541,"coord":{"lon":-5.58553,"lat":41.47216}},{"displayName":"Madridanos, ES","country":"ES","name":"Madridanos","_id":3117731,"coord":{"lon":-5.6046,"lat":41.479671}},{"displayName":"Madridejos, ES","country":"ES","name":"Madridejos","_id":6361747,"coord":{"lon":-3.53674,"lat":39.43565}},{"displayName":"Madridejos, ES","country":"ES","name":"Madridejos","_id":2514334,"coord":{"lon":-3.53196,"lat":39.468231}},{"displayName":"Madridejos, PH","country":"PH","name":"Madridejos","_id":1704126,"coord":{"lon":123.733902,"lat":11.298}},{"displayName":"Madridejos, PH","country":"PH","name":"Madridejos","_id":1704127,"coord":{"lon":123.346199,"lat":9.79116}},{"displayName":"Madrigal de la Vera, ES","country":"ES","name":"Madrigal de la Vera","_id":6356806,"coord":{"lon":-5.36707,"lat":40.19006}},{"displayName":"Madrigal de la Vera, ES","country":"ES","name":"Madrigal de la Vera","_id":3117727,"coord":{"lon":-5.36818,"lat":40.147598}},{"displayName":"Madrigal de las Altas Torres, ES","country":"ES","name":"Madrigal de las Altas Torres","_id":6355717,"coord":{"lon":-5.0194,"lat":41.10574}},{"displayName":"Madrigal de las Altas Torres, ES","country":"ES","name":"Madrigal de las Altas Torres","_id":3117728,"coord":{"lon":-4.99863,"lat":41.08968}},{"displayName":"Madrigal del Monte, ES","country":"ES","name":"Madrigal del Monte","_id":6356480,"coord":{"lon":-3.65554,"lat":42.143139}},{"displayName":"Madrigal del Monte, ES","country":"ES","name":"Madrigal del Monte","_id":3117726,"coord":{"lon":-3.67571,"lat":42.144642}},{"displayName":"Madrigalejo del Monte, ES","country":"ES","name":"Madrigalejo del Monte","_id":6356481,"coord":{"lon":-3.72777,"lat":42.14637}},{"displayName":"Madrigalejo del Monte, ES","country":"ES","name":"Madrigalejo del Monte","_id":3117725,"coord":{"lon":-3.72509,"lat":42.12442}},{"displayName":"Madrigalejo, ES","country":"ES","name":"Madrigalejo","_id":6356807,"coord":{"lon":-5.63741,"lat":39.149551}},{"displayName":"Madrigalejo, ES","country":"ES","name":"Madrigalejo","_id":2514333,"coord":{"lon":-5.6274,"lat":39.13858}},{"displayName":"Madrigueras, ES","country":"ES","name":"Madrigueras","_id":6355336,"coord":{"lon":-1.81371,"lat":39.22554}},{"displayName":"Madrigueras, ES","country":"ES","name":"Madrigueras","_id":2514332,"coord":{"lon":-1.8,"lat":39.23333}},{"displayName":"Madrona, ES","country":"ES","name":"Madrona","_id":3117720,"coord":{"lon":1.33762,"lat":41.96769}},{"displayName":"Madronal, ES","country":"ES","name":"Madronal","_id":3117719,"coord":{"lon":-6.06271,"lat":40.464069}},{"displayName":"Madronera, ES","country":"ES","name":"Madronera","_id":2514324,"coord":{"lon":-5.75568,"lat":39.425259}},{"displayName":"Madroñal, ES","country":"ES","name":"Madroñal","_id":6360418,"coord":{"lon":-6.06,"lat":40.4627}},{"displayName":"Madroñera, ES","country":"ES","name":"Madroñera","_id":6356808,"coord":{"lon":-5.73904,"lat":39.45911}},{"displayName":"Madruga, CU","country":"CU","name":"Madruga","_id":3548529,"coord":{"lon":-81.85611,"lat":22.91139}},{"displayName":"Madsen, CA","country":"CA","name":"Madsen","_id":6064017,"coord":{"lon":-93.917137,"lat":50.966759}},{"displayName":"Maduao, PH","country":"PH","name":"Maduao","_id":1958761,"coord":{"lon":125.625832,"lat":7.29417}},{"displayName":"Madugula, IN","country":"IN","name":"Madugula","_id":1264525,"coord":{"lon":82.800003,"lat":17.91667}},{"displayName":"Madukkarai, IN","country":"IN","name":"Madukkarai","_id":1264524,"coord":{"lon":76.966667,"lat":10.9}},{"displayName":"Madukkur, IN","country":"IN","name":"Madukkur","_id":1264523,"coord":{"lon":79.400002,"lat":10.48333}},{"displayName":"Madulao, PH","country":"PH","name":"Madulao","_id":1704115,"coord":{"lon":122.337784,"lat":13.56222}},{"displayName":"Madulari, RO","country":"RO","name":"Madulari","_id":674200,"coord":{"lon":24.0,"lat":45.033329}},{"displayName":"Madumulyorejo, ID","country":"ID","name":"Madumulyorejo","_id":8140915,"coord":{"lon":112.448502,"lat":-6.998}},{"displayName":"Madur, ID","country":"ID","name":"Madur","_id":8021463,"coord":{"lon":108.131104,"lat":-7.5812}},{"displayName":"Madura, ID","country":"ID","name":"Madura","_id":8064082,"coord":{"lon":108.378899,"lat":-7.1478}},{"displayName":"Madurai, IN","country":"IN","name":"Madurai","_id":1264521,"coord":{"lon":78.116669,"lat":9.93333}},{"displayName":"Maduran, ID","country":"ID","name":"Maduran","_id":1636912,"coord":{"lon":112.280701,"lat":-7.0042}},{"displayName":"Madurantakam, IN","country":"IN","name":"Madurantakam","_id":1264520,"coord":{"lon":79.900002,"lat":12.51667}},{"displayName":"Madusari, ID","country":"ID","name":"Madusari","_id":6385873,"coord":{"lon":109.078613,"lat":-7.62306}},{"displayName":"Madzhalis, RU","country":"RU","name":"Madzhalis","_id":532314,"coord":{"lon":47.833328,"lat":42.12167}},{"displayName":"Madzharovo, BG","country":"BG","name":"Madzharovo","_id":729428,"coord":{"lon":25.866671,"lat":41.633331}},{"displayName":"Madīnat as Sādāt, EG","country":"EG","name":"Madīnat as Sādāt","_id":353223,"coord":{"lon":30.508711,"lat":30.36742}},{"displayName":"Madīnat Dhamār, YE","country":"YE","name":"Madīnat Dhamār","_id":76182,"coord":{"lon":44.403389,"lat":14.60684}},{"displayName":"Madīnat Yanbu‘ aş Şinā‘īyah, SA","country":"SA","name":"Madīnat Yanbu‘ aş Şinā‘īyah","_id":104625,"coord":{"lon":38.227501,"lat":23.999439}},{"displayName":"Mae Ai, TH","country":"TH","name":"Mae Ai","_id":1120453,"coord":{"lon":99.298332,"lat":20.02883}},{"displayName":"Mae Chaem, TH","country":"TH","name":"Mae Chaem","_id":1152230,"coord":{"lon":98.364937,"lat":18.49926}},{"displayName":"Mae Chai, TH","country":"TH","name":"Mae Chai","_id":1149700,"coord":{"lon":99.814003,"lat":19.34597}},{"displayName":"Mae Chai, TH","country":"TH","name":"Mae Chai","_id":7510899,"coord":{"lon":99.814003,"lat":19.34597}},{"displayName":"Mae Chan, TH","country":"TH","name":"Mae Chan","_id":1152227,"coord":{"lon":99.852562,"lat":20.146749}},{"displayName":"Mae Charim, TH","country":"TH","name":"Mae Charim","_id":1608937,"coord":{"lon":101.005699,"lat":18.706141}},{"displayName":"Mae Fa Luang, TH","country":"TH","name":"Mae Fa Luang","_id":7323625,"coord":{"lon":99.798462,"lat":20.266279}},{"displayName":"Mae Hong Son, TH","country":"TH","name":"Mae Hong Son","_id":1152222,"coord":{"lon":97.968521,"lat":19.300289}},{"displayName":"Mae La Noi, TH","country":"TH","name":"Mae La Noi","_id":1152217,"coord":{"lon":97.905037,"lat":18.39399}},{"displayName":"Mae Lan, TH","country":"TH","name":"Mae Lan","_id":1616888,"coord":{"lon":101.239578,"lat":6.66114}},{"displayName":"Mae Lao, TH","country":"TH","name":"Mae Lao","_id":7421899,"coord":{"lon":99.699669,"lat":19.79003}},{"displayName":"Mae Mo, TH","country":"TH","name":"Mae Mo","_id":1152216,"coord":{"lon":99.650436,"lat":18.27561}},{"displayName":"Mae Phrik, TH","country":"TH","name":"Mae Phrik","_id":1152204,"coord":{"lon":99.114197,"lat":17.44688}},{"displayName":"Mae Poen, TH","country":"TH","name":"Mae Poen","_id":7510879,"coord":{"lon":99.46981,"lat":15.65789}},{"displayName":"Mae Ramat, TH","country":"TH","name":"Mae Ramat","_id":1152202,"coord":{"lon":98.516647,"lat":16.98403}},{"displayName":"Mae Sai, TH","country":"TH","name":"Mae Sai","_id":1152194,"coord":{"lon":99.876167,"lat":20.433531}},{"displayName":"Mae Sot, TH","country":"TH","name":"Mae Sot","_id":1152188,"coord":{"lon":98.566673,"lat":16.716669}},{"displayName":"Mae Suai, TH","country":"TH","name":"Mae Suai","_id":1152186,"coord":{"lon":99.543671,"lat":19.65633}},{"displayName":"Mae Taeng, TH","country":"TH","name":"Mae Taeng","_id":1120449,"coord":{"lon":98.941757,"lat":19.117121}},{"displayName":"Mae Tha, TH","country":"TH","name":"Mae Tha","_id":1152180,"coord":{"lon":99.140259,"lat":18.46456}},{"displayName":"Mae Tha, TH","country":"TH","name":"Mae Tha","_id":1152181,"coord":{"lon":99.513893,"lat":18.134109}},{"displayName":"Mae Wang, TH","country":"TH","name":"Mae Wang","_id":7511021,"coord":{"lon":98.772919,"lat":18.616039}},{"displayName":"Mae Wong, TH","country":"TH","name":"Mae Wong","_id":7510895,"coord":{"lon":99.518639,"lat":15.78164}},{"displayName":"Mae, CN","country":"CN","name":"Mae","_id":1801536,"coord":{"lon":108.930283,"lat":34.82444}},{"displayName":"Mae, CN","country":"CN","name":"Mae","_id":1801537,"coord":{"lon":109.384689,"lat":34.403221}},{"displayName":"Maebara, JP","country":"JP","name":"Maebara","_id":2112034,"coord":{"lon":140.100006,"lat":35.099998}},{"displayName":"Maebaru, JP","country":"JP","name":"Maebaru","_id":1857844,"coord":{"lon":130.199997,"lat":33.549999}},{"displayName":"Maebashi-shi, JP","country":"JP","name":"Maebashi-shi","_id":1857843,"coord":{"lon":139.060837,"lat":36.391109}},{"displayName":"Maeda, JP","country":"JP","name":"Maeda","_id":1857838,"coord":{"lon":130.966675,"lat":33.966671}},{"displayName":"Maehama, JP","country":"JP","name":"Maehama","_id":1857829,"coord":{"lon":133.666672,"lat":33.533329}},{"displayName":"Mael-Carhaix, FR","country":"FR","name":"Mael-Carhaix","_id":2996832,"coord":{"lon":-3.42322,"lat":48.284439}},{"displayName":"Maella, ES","country":"ES","name":"Maella","_id":6362840,"coord":{"lon":0.09976,"lat":41.111462}},{"displayName":"Maella, ES","country":"ES","name":"Maella","_id":3117715,"coord":{"lon":0.13926,"lat":41.122509}},{"displayName":"Maello, ES","country":"ES","name":"Maello","_id":6355718,"coord":{"lon":-4.56262,"lat":40.821121}},{"displayName":"Maello, ES","country":"ES","name":"Maello","_id":3117714,"coord":{"lon":-4.51186,"lat":40.809292}},{"displayName":"Maennedorf / Ausserfeld, CH","country":"CH","name":"Maennedorf / Ausserfeld","_id":6293364,"coord":{"lon":8.70608,"lat":47.246361}},{"displayName":"Maennedorf / Dorfkern, CH","country":"CH","name":"Maennedorf / Dorfkern","_id":6293356,"coord":{"lon":8.69161,"lat":47.256119}},{"displayName":"Maenttae, FI","country":"FI","name":"Maenttae","_id":646705,"coord":{"lon":24.627911,"lat":62.03014}},{"displayName":"Maentwrog, GB","country":"GB","name":"Maentwrog","_id":7296532,"coord":{"lon":-3.93612,"lat":52.934921}},{"displayName":"Maentwrog, GB","country":"GB","name":"Maentwrog","_id":2643224,"coord":{"lon":-3.98787,"lat":52.945999}},{"displayName":"Maenza, IT","country":"IT","name":"Maenza","_id":3174309,"coord":{"lon":13.1815,"lat":41.52372}},{"displayName":"Maerdy, GB","country":"GB","name":"Maerdy","_id":2643222,"coord":{"lon":-3.48667,"lat":51.675282}},{"displayName":"Maeriste, RO","country":"RO","name":"Maeriste","_id":674197,"coord":{"lon":22.799999,"lat":47.316669}},{"displayName":"Maerstetten, CH","country":"CH","name":"Maerstetten","_id":2659754,"coord":{"lon":9.06851,"lat":47.592522}},{"displayName":"Maesan, ID","country":"ID","name":"Maesan","_id":1636906,"coord":{"lon":113.777901,"lat":-8.0233}},{"displayName":"Maeser, US","country":"US","name":"Maeser","_id":5777780,"coord":{"lon":-109.586807,"lat":40.47718}},{"displayName":"Maesteg, GB","country":"GB","name":"Maesteg","_id":7291605,"coord":{"lon":-3.64713,"lat":51.61528}},{"displayName":"Maesteg, GB","country":"GB","name":"Maesteg","_id":2643218,"coord":{"lon":-3.65823,"lat":51.609261}},{"displayName":"Maestu, ES","country":"ES","name":"Maestu","_id":3117712,"coord":{"lon":-2.44699,"lat":42.738911}},{"displayName":"Maesycwmmer, GB","country":"GB","name":"Maesycwmmer","_id":7298755,"coord":{"lon":-3.21639,"lat":51.63755}},{"displayName":"Maesycwmmer, GB","country":"GB","name":"Maesycwmmer","_id":2643216,"coord":{"lon":-3.23222,"lat":51.635281}},{"displayName":"Maetinga, BR","country":"BR","name":"Maetinga","_id":3458148,"coord":{"lon":-41.491669,"lat":-14.66333}},{"displayName":"Mafalda, IT","country":"IT","name":"Mafalda","_id":3174298,"coord":{"lon":14.7161,"lat":41.943081}},{"displayName":"Mafamude, PT","country":"PT","name":"Mafamude","_id":8012939,"coord":{"lon":-8.6036,"lat":41.115211}},{"displayName":"Mafang, CN","country":"CN","name":"Mafang","_id":1910274,"coord":{"lon":108.162521,"lat":34.785759}},{"displayName":"Mafeking, CA","country":"CA","name":"Mafeking","_id":6064033,"coord":{"lon":-101.110878,"lat":52.683651}},{"displayName":"Mafeng, CN","country":"CN","name":"Mafeng","_id":2035880,"coord":{"lon":122.9095,"lat":40.808949}},{"displayName":"Mafere, CI","country":"CI","name":"Mafere","_id":2284744,"coord":{"lon":-3.03006,"lat":5.4151}},{"displayName":"Mafeteng District, LS","country":"LS","name":"Mafeteng District","_id":932615,"coord":{"lon":27.502621,"lat":-29.8041}},{"displayName":"Mafeteng, LS","country":"LS","name":"Mafeteng","_id":932614,"coord":{"lon":27.23744,"lat":-29.823}},{"displayName":"Maffliers, FR","country":"FR","name":"Maffliers","_id":2996827,"coord":{"lon":2.30768,"lat":49.077579}},{"displayName":"Maffra West Upper, AU","country":"AU","name":"Maffra West Upper","_id":2159130,"coord":{"lon":146.850006,"lat":-37.900002}},{"displayName":"Maffra, AU","country":"AU","name":"Maffra","_id":2159131,"coord":{"lon":146.983337,"lat":-37.966671}},{"displayName":"Mafhaq, YE","country":"YE","name":"Mafhaq","_id":73331,"coord":{"lon":43.903042,"lat":15.10162}},{"displayName":"Mafikeng, ZA","country":"ZA","name":"Mafikeng","_id":980595,"coord":{"lon":25.644211,"lat":-25.865219}},{"displayName":"Mafinga, TZ","country":"TZ","name":"Mafinga","_id":155405,"coord":{"lon":35.066669,"lat":-7.25}},{"displayName":"Maflux, FR","country":"FR","name":"Maflux","_id":2996825,"coord":{"lon":3.63333,"lat":45.666672}},{"displayName":"Mafra, BR","country":"BR","name":"Mafra","_id":3458147,"coord":{"lon":-49.805279,"lat":-26.111389}},{"displayName":"Mafra, PT","country":"PT","name":"Mafra","_id":8010563,"coord":{"lon":-9.29853,"lat":38.956692}},{"displayName":"Mafra, PT","country":"PT","name":"Mafra","_id":8012534,"coord":{"lon":-9.32825,"lat":38.964321}},{"displayName":"Mafra, PT","country":"PT","name":"Mafra","_id":2266865,"coord":{"lon":-9.32756,"lat":38.937931}},{"displayName":"Mafshatah, IL","country":"IL","name":"Mafshatah","_id":295104,"coord":{"lon":35.308941,"lat":33.04895}},{"displayName":"Magacela, ES","country":"ES","name":"Magacela","_id":6355940,"coord":{"lon":-5.72192,"lat":38.881069}},{"displayName":"Magacela, ES","country":"ES","name":"Magacela","_id":2514316,"coord":{"lon":-5.73437,"lat":38.896481}},{"displayName":"Magadan, RU","country":"RU","name":"Magadan","_id":2123628,"coord":{"lon":150.800003,"lat":59.566669}},{"displayName":"Magadanskaya Oblast’, RU","country":"RU","name":"Magadanskaya Oblast’","_id":2123627,"coord":{"lon":154.0,"lat":63.0}},{"displayName":"Magadi, IN","country":"IN","name":"Magadi","_id":1264514,"coord":{"lon":77.23333,"lat":12.96667}},{"displayName":"Magadi, KE","country":"KE","name":"Magadi","_id":188408,"coord":{"lon":36.286999,"lat":-1.90122}},{"displayName":"Magadino, CH","country":"CH","name":"Magadino","_id":7286414,"coord":{"lon":8.88368,"lat":46.147251}},{"displayName":"Magadino, CH","country":"CH","name":"Magadino","_id":2659800,"coord":{"lon":8.8561,"lat":46.148918}},{"displayName":"Magalalag, PH","country":"PH","name":"Magalalag","_id":1704070,"coord":{"lon":121.741096,"lat":17.575399}},{"displayName":"Magalang, PH","country":"PH","name":"Magalang","_id":1704068,"coord":{"lon":120.683327,"lat":15.23333}},{"displayName":"Magalang, PH","country":"PH","name":"Magalang","_id":1704067,"coord":{"lon":120.659599,"lat":15.2151}},{"displayName":"Magalas, FR","country":"FR","name":"Magalas","_id":2996823,"coord":{"lon":3.22338,"lat":43.470951}},{"displayName":"Magalia, US","country":"US","name":"Magalia","_id":5369690,"coord":{"lon":-121.578308,"lat":39.812111}},{"displayName":"Magallanes, PH","country":"PH","name":"Magallanes","_id":1704049,"coord":{"lon":120.738998,"lat":16.0196}},{"displayName":"Magallanes, PH","country":"PH","name":"Magallanes","_id":1704050,"coord":{"lon":120.7575,"lat":14.18833}},{"displayName":"Magallanes, PH","country":"PH","name":"Magallanes","_id":1704052,"coord":{"lon":123.836388,"lat":12.82917}},{"displayName":"Magallanes, PH","country":"PH","name":"Magallanes","_id":1704058,"coord":{"lon":125.51722,"lat":9.02}},{"displayName":"Magallon Cadre, PH","country":"PH","name":"Magallon Cadre","_id":1704043,"coord":{"lon":123.092201,"lat":10.2885}},{"displayName":"Magallon, ES","country":"ES","name":"Magallon","_id":3117708,"coord":{"lon":-1.45979,"lat":41.832481}},{"displayName":"Magallón, ES","country":"ES","name":"Magallón","_id":6362841,"coord":{"lon":-1.41448,"lat":41.829399}},{"displayName":"Magaluf, ES","country":"ES","name":"Magaluf","_id":6355015,"coord":{"lon":2.5353,"lat":39.511101}},{"displayName":"Magam, IN","country":"IN","name":"Magam","_id":1264513,"coord":{"lon":74.583328,"lat":34.083328}},{"displayName":"Magan, ES","country":"ES","name":"Magan","_id":2514314,"coord":{"lon":-3.93164,"lat":39.96138}},{"displayName":"Magan, RU","country":"RU","name":"Magan","_id":2020595,"coord":{"lon":129.527786,"lat":62.105282}},{"displayName":"Magana, ES","country":"ES","name":"Magana","_id":3117706,"coord":{"lon":-2.16269,"lat":41.90089}},{"displayName":"Magangue, CO","country":"CO","name":"Magangue","_id":3675692,"coord":{"lon":-74.754669,"lat":9.24202}},{"displayName":"Maganoy, PH","country":"PH","name":"Maganoy","_id":1704022,"coord":{"lon":124.433327,"lat":6.91667}},{"displayName":"Maganoy, PH","country":"PH","name":"Maganoy","_id":1704021,"coord":{"lon":124.441673,"lat":6.86472}},{"displayName":"Magaozhuang, CN","country":"CN","name":"Magaozhuang","_id":7516120,"coord":{"lon":106.441566,"lat":36.873951}},{"displayName":"Magapit, PH","country":"PH","name":"Magapit","_id":1704014,"coord":{"lon":121.677048,"lat":18.10788}},{"displayName":"Magarali, TR","country":"TR","name":"Magarali","_id":304998,"coord":{"lon":38.07444,"lat":36.968891}},{"displayName":"Magaramkent, RU","country":"RU","name":"Magaramkent","_id":532307,"coord":{"lon":48.347961,"lat":41.61586}},{"displayName":"Magarao, PH","country":"PH","name":"Magarao","_id":1704003,"coord":{"lon":123.166672,"lat":13.65}},{"displayName":"Magarao, PH","country":"PH","name":"Magarao","_id":1704002,"coord":{"lon":123.186897,"lat":13.6604}},{"displayName":"Magaria, NE","country":"NE","name":"Magaria","_id":2441482,"coord":{"lon":8.90991,"lat":12.99826}},{"displayName":"Magas Arriba, PR","country":"PR","name":"Magas Arriba","_id":4566119,"coord":{"lon":-66.769058,"lat":18.01746}},{"displayName":"Magas, RU","country":"RU","name":"Magas","_id":6313621,"coord":{"lon":44.77261,"lat":43.222569}},{"displayName":"Magasa, IT","country":"IT","name":"Magasa","_id":3174297,"coord":{"lon":10.61597,"lat":45.781391}},{"displayName":"Magatos, PH","country":"PH","name":"Magatos","_id":1703964,"coord":{"lon":125.726669,"lat":7.55556}},{"displayName":"Magay, PH","country":"PH","name":"Magay","_id":1703959,"coord":{"lon":124.013199,"lat":10.4719}},{"displayName":"Magaz de Cepeda, ES","country":"ES","name":"Magaz de Cepeda","_id":6358635,"coord":{"lon":-6.10614,"lat":42.56284}},{"displayName":"Magaz de Cepeda, ES","country":"ES","name":"Magaz de Cepeda","_id":3117701,"coord":{"lon":-6.0717,"lat":42.539669}},