[{"displayName":"Myrhorod, UA","country":"UA","name":"Myrhorod","_id":701075,"coord":{"lon":33.60886,"lat":49.96854}},{"displayName":"Myrina, GR","country":"GR","name":"Myrina","_id":256930,"coord":{"lon":25.074169,"lat":39.879719}},{"displayName":"Myrnam, CA","country":"CA","name":"Myrnam","_id":6085350,"coord":{"lon":-111.235039,"lat":53.666859}},{"displayName":"Myrniong, AU","country":"AU","name":"Myrniong","_id":2155927,"coord":{"lon":144.350006,"lat":-37.616669}},{"displayName":"Myrnyy, UA","country":"UA","name":"Myrnyy","_id":701057,"coord":{"lon":33.035011,"lat":45.30788}},{"displayName":"Myronivka, UA","country":"UA","name":"Myronivka","_id":701031,"coord":{"lon":30.98225,"lat":49.660069}},{"displayName":"Myrrhee, AU","country":"AU","name":"Myrrhee","_id":2155923,"coord":{"lon":146.316666,"lat":-36.75}},{"displayName":"Myrskylae, FI","country":"FI","name":"Myrskylae","_id":645233,"coord":{"lon":25.8475,"lat":60.669651}},{"displayName":"Myrtle Beach, US","country":"US","name":"Myrtle Beach","_id":4588718,"coord":{"lon":-78.886688,"lat":33.68906}},{"displayName":"Myrtle Creek, US","country":"US","name":"Myrtle Creek","_id":5742332,"coord":{"lon":-123.293121,"lat":43.020119}},{"displayName":"Myrtle Grove, US","country":"US","name":"Myrtle Grove","_id":4165519,"coord":{"lon":-87.307472,"lat":30.42103}},{"displayName":"Myrtle Grove, US","country":"US","name":"Myrtle Grove","_id":4481385,"coord":{"lon":-77.881653,"lat":34.134621}},{"displayName":"Myrtle Point, US","country":"US","name":"Myrtle Point","_id":5742346,"coord":{"lon":-124.138992,"lat":43.064831}},{"displayName":"Myrtle Ridge, US","country":"US","name":"Myrtle Ridge","_id":4588744,"coord":{"lon":-78.9142,"lat":33.688499}},{"displayName":"Myrtle Station, CA","country":"CA","name":"Myrtle Station","_id":6085375,"coord":{"lon":-78.98288,"lat":44.016819}},{"displayName":"Myrtleford, AU","country":"AU","name":"Myrtleford","_id":2155907,"coord":{"lon":146.733337,"lat":-36.549999}},{"displayName":"Myrtletown, AU","country":"AU","name":"Myrtletown","_id":2155922,"coord":{"lon":153.133331,"lat":-27.383329}},{"displayName":"Myrtletown, US","country":"US","name":"Myrtletown","_id":5568514,"coord":{"lon":-124.130341,"lat":40.788738}},{"displayName":"Myrzakent, KZ","country":"KZ","name":"Myrzakent","_id":1518945,"coord":{"lon":68.533333,"lat":40.666672}},{"displayName":"Mys-Kamennyy, RU","country":"RU","name":"Mys-Kamennyy","_id":1504850,"coord":{"lon":73.590279,"lat":68.459717}},{"displayName":"Mysen, NO","country":"NO","name":"Mysen","_id":3145094,"coord":{"lon":11.32578,"lat":59.553539}},{"displayName":"Myshall, IE","country":"IE","name":"Myshall","_id":2962335,"coord":{"lon":-6.77833,"lat":52.685001}},{"displayName":"Myshkavichy, BY","country":"BY","name":"Myshkavichy","_id":624842,"coord":{"lon":29.511999,"lat":53.217201}},{"displayName":"Myshkin, RU","country":"RU","name":"Myshkin","_id":523859,"coord":{"lon":38.454479,"lat":57.78973}},{"displayName":"Myshënki, RU","country":"RU","name":"Myshënki","_id":523873,"coord":{"lon":37.44413,"lat":54.711311}},{"displayName":"Mysia, AU","country":"AU","name":"Mysia","_id":2155904,"coord":{"lon":143.766663,"lat":-36.25}},{"displayName":"Mysiadlo, PL","country":"PL","name":"Mysiadlo","_id":764226,"coord":{"lon":21.01856,"lat":52.102161}},{"displayName":"Myskhako, RU","country":"RU","name":"Myskhako","_id":866241,"coord":{"lon":37.743328,"lat":44.671391}},{"displayName":"Myskhako, RU","country":"RU","name":"Myskhako","_id":523842,"coord":{"lon":37.766109,"lat":44.659168}},{"displayName":"Myski, RU","country":"RU","name":"Myski","_id":1498129,"coord":{"lon":87.801399,"lat":53.709}},{"displayName":"Myslachowice, PL","country":"PL","name":"Myslachowice","_id":3091265,"coord":{"lon":19.481159,"lat":50.185139}},{"displayName":"Myslakowice, PL","country":"PL","name":"Myslakowice","_id":3091263,"coord":{"lon":15.77894,"lat":50.841228}},{"displayName":"Myslenice, PL","country":"PL","name":"Myslenice","_id":3091256,"coord":{"lon":19.938299,"lat":49.833832}},{"displayName":"Mysliborz, PL","country":"PL","name":"Mysliborz","_id":3091253,"coord":{"lon":14.86785,"lat":52.92382}},{"displayName":"Myslowice, PL","country":"PL","name":"Myslowice","_id":3091232,"coord":{"lon":19.166679,"lat":50.207451}},{"displayName":"Myslík, CZ","country":"CZ","name":"Myslík","_id":3070167,"coord":{"lon":18.26952,"lat":49.616901}},{"displayName":"Mysore, IN","country":"IN","name":"Mysore","_id":1262321,"coord":{"lon":76.649719,"lat":12.30722}},{"displayName":"Mysove, UA","country":"UA","name":"Mysove","_id":700550,"coord":{"lon":35.849998,"lat":45.450001}},{"displayName":"Mystic Island, US","country":"US","name":"Mystic Island","_id":4503204,"coord":{"lon":-74.38237,"lat":39.544281}},{"displayName":"Mystic, US","country":"US","name":"Mystic","_id":4839141,"coord":{"lon":-71.966461,"lat":41.354271}},{"displayName":"Myszkow, PL","country":"PL","name":"Myszkow","_id":3091217,"coord":{"lon":19.32461,"lat":50.575199}},{"displayName":"Myszków, PL","country":"PL","name":"Myszków","_id":7532873,"coord":{"lon":19.3274,"lat":50.564602}},{"displayName":"Myszyniec, PL","country":"PL","name":"Myszyniec","_id":764204,"coord":{"lon":21.349609,"lat":53.38055}},{"displayName":"Mysłakowice, PL","country":"PL","name":"Mysłakowice","_id":7532935,"coord":{"lon":15.78152,"lat":50.842049}},{"displayName":"Mysłowice, PL","country":"PL","name":"Mysłowice","_id":7531586,"coord":{"lon":19.153879,"lat":50.209621}},{"displayName":"Mysłowice, PL","country":"PL","name":"Mysłowice","_id":7530950,"coord":{"lon":19.153879,"lat":50.209621}},{"displayName":"Myt, RU","country":"RU","name":"Myt","_id":523816,"coord":{"lon":42.312778,"lat":56.814999}},{"displayName":"Mytholmroyd, GB","country":"GB","name":"Mytholmroyd","_id":2641922,"coord":{"lon":-1.98258,"lat":53.730652}},{"displayName":"Mytikas, GR","country":"GR","name":"Mytikas","_id":256872,"coord":{"lon":23.65365,"lat":38.443729}},{"displayName":"Mytilini, GR","country":"GR","name":"Mytilini","_id":256866,"coord":{"lon":26.55472,"lat":39.110001}},{"displayName":"Mytilinioi, GR","country":"GR","name":"Mytilinioi","_id":256865,"coord":{"lon":26.908331,"lat":37.728611}},{"displayName":"Mytishchi, RU","country":"RU","name":"Mytishchi","_id":523812,"coord":{"lon":37.733891,"lat":55.90889}},{"displayName":"Mytnitsa, UA","country":"UA","name":"Mytnitsa","_id":700544,"coord":{"lon":30.24029,"lat":50.128689}},{"displayName":"Myto, CZ","country":"CZ","name":"Myto","_id":3070136,"coord":{"lon":13.73461,"lat":49.78904}},{"displayName":"Myurego, RU","country":"RU","name":"Myurego","_id":523790,"coord":{"lon":47.693039,"lat":42.41087}},{"displayName":"Myza, RU","country":"RU","name":"Myza","_id":875336,"coord":{"lon":38.021111,"lat":55.849445}},{"displayName":"Myzgi, RU","country":"RU","name":"Myzgi","_id":523774,"coord":{"lon":36.258057,"lat":54.744373}},{"displayName":"Myōrakuji, JP","country":"JP","name":"Myōrakuji","_id":1856300,"coord":{"lon":134.916672,"lat":34.966671}},{"displayName":"Myŏngwŏli-ri, KR","country":"KR","name":"Myŏngwŏli-ri","_id":6367618,"coord":{"lon":127.544724,"lat":38.121941}},{"displayName":"Myślenice, PL","country":"PL","name":"Myślenice","_id":7533117,"coord":{"lon":19.943621,"lat":49.833549}},{"displayName":"Mzimba District, MW","country":"MW","name":"Mzimba District","_id":925496,"coord":{"lon":33.60778,"lat":-11.85428}},{"displayName":"Mzimba, MW","country":"MW","name":"Mzimba","_id":925498,"coord":{"lon":33.599998,"lat":-11.9}},{"displayName":"Mzuzu, MW","country":"MW","name":"Mzuzu","_id":925475,"coord":{"lon":34.02071,"lat":-11.46556}},{"displayName":"Mácher, ES","country":"ES","name":"Mácher","_id":2514353,"coord":{"lon":-13.69117,"lat":28.9484}},{"displayName":"Máfil, CL","country":"CL","name":"Máfil","_id":3881046,"coord":{"lon":-72.949997,"lat":-39.650002}},{"displayName":"Máguez, ES","country":"ES","name":"Máguez","_id":2514305,"coord":{"lon":-13.49293,"lat":29.160089}},{"displayName":"Málaga del Fresno, ES","country":"ES","name":"Málaga del Fresno","_id":6357940,"coord":{"lon":-3.23719,"lat":40.781639}},{"displayName":"Málaga, ES","country":"ES","name":"Málaga","_id":6359472,"coord":{"lon":-4.39717,"lat":36.758541}},{"displayName":"Máriafürdő, HU","country":"HU","name":"Máriafürdő","_id":717833,"coord":{"lon":20.433331,"lat":48.299999}},{"displayName":"Második Rozsréti Bokor, HU","country":"HU","name":"Második Rozsréti Bokor","_id":717779,"coord":{"lon":21.716669,"lat":47.950001}},{"displayName":"Máximo Paz, AR","country":"AR","name":"Máximo Paz","_id":3430780,"coord":{"lon":-58.617882,"lat":-34.938782}},{"displayName":"Máximo Paz, AR","country":"AR","name":"Máximo Paz","_id":3844668,"coord":{"lon":-60.958302,"lat":-33.484589}},{"displayName":"Mâcon, FR","country":"FR","name":"Mâcon","_id":6612769,"coord":{"lon":4.83333,"lat":46.299999}},{"displayName":"Mäbendorf, DE","country":"DE","name":"Mäbendorf","_id":2874652,"coord":{"lon":10.6,"lat":50.599998}},{"displayName":"Mäckelsdorf, DE","country":"DE","name":"Mäckelsdorf","_id":2874623,"coord":{"lon":9.83333,"lat":51.133331}},{"displayName":"Mädelhofen, DE","country":"DE","name":"Mädelhofen","_id":2874593,"coord":{"lon":9.76972,"lat":49.783058}},{"displayName":"Mäder, AT","country":"AT","name":"Mäder","_id":7873745,"coord":{"lon":9.61911,"lat":47.351742}},{"displayName":"Mäetaguse vald, EE","country":"EE","name":"Mäetaguse vald","_id":7522355,"coord":{"lon":27.258209,"lat":59.2178}},{"displayName":"Mäetaguse, EE","country":"EE","name":"Mäetaguse","_id":590397,"coord":{"lon":27.272221,"lat":59.229721}},{"displayName":"Mägise, EE","country":"EE","name":"Mägise","_id":590385,"coord":{"lon":25.738331,"lat":59.137218}},{"displayName":"Mäls, LI","country":"LI","name":"Mäls","_id":3315349,"coord":{"lon":9.5,"lat":47.049999}},{"displayName":"Mändlfeld, DE","country":"DE","name":"Mändlfeld","_id":2873962,"coord":{"lon":11.43333,"lat":48.700001}},{"displayName":"Männedorf, CH","country":"CH","name":"Männedorf","_id":7286430,"coord":{"lon":8.69981,"lat":47.259651}},{"displayName":"Männiku, EE","country":"EE","name":"Männiku","_id":590342,"coord":{"lon":24.682779,"lat":59.34333}},{"displayName":"Mäntsälä, FI","country":"FI","name":"Mäntsälä","_id":646709,"coord":{"lon":25.25,"lat":60.666672}},{"displayName":"Mänttä-Vilppula, FI","country":"FI","name":"Mänttä-Vilppula","_id":8128761,"coord":{"lon":24.60268,"lat":62.029659}},{"displayName":"Mäntyharju, FI","country":"FI","name":"Mäntyharju","_id":646701,"coord":{"lon":26.83333,"lat":61.333328}},{"displayName":"Märjamaa vald, EE","country":"EE","name":"Märjamaa vald","_id":7522357,"coord":{"lon":24.39423,"lat":58.902618}},{"displayName":"Märkisch Buchholz, DE","country":"DE","name":"Märkisch Buchholz","_id":2873359,"coord":{"lon":13.75,"lat":52.099998}},{"displayName":"Märkischer Kreis, DE","country":"DE","name":"Märkischer Kreis","_id":2803460,"coord":{"lon":7.74167,"lat":51.263889}},{"displayName":"Märkt, DE","country":"DE","name":"Märkt","_id":2873315,"coord":{"lon":7.58333,"lat":47.633331}},{"displayName":"Märstetten, CH","country":"CH","name":"Märstetten","_id":7286441,"coord":{"lon":9.07739,"lat":47.588799}},{"displayName":"Määltse, EE","country":"EE","name":"Määltse","_id":590457,"coord":{"lon":22.76,"lat":58.852779}},{"displayName":"Målselv, NO","country":"NO","name":"Målselv","_id":3146478,"coord":{"lon":18.614981,"lat":69.123894}},{"displayName":"Mèze, FR","country":"FR","name":"Mèze","_id":6432551,"coord":{"lon":3.6053,"lat":43.4268}},{"displayName":"Méallet, FR","country":"FR","name":"Méallet","_id":6427586,"coord":{"lon":2.43098,"lat":45.255859}},{"displayName":"Méallet, FR","country":"FR","name":"Méallet","_id":2994818,"coord":{"lon":2.43012,"lat":45.25568}},{"displayName":"Médano de Oro, AR","country":"AR","name":"Médano de Oro","_id":3844585,"coord":{"lon":-68.449997,"lat":-31.6}},{"displayName":"Médanos, AR","country":"AR","name":"Médanos","_id":3949834,"coord":{"lon":-62.683331,"lat":-38.816669}},{"displayName":"Médrac, FR","country":"FR","name":"Médrac","_id":2994774,"coord":{"lon":-0.7517,"lat":45.082329}},{"displayName":"Mées, FR","country":"FR","name":"Mées","_id":6433888,"coord":{"lon":-1.1,"lat":43.700001}},{"displayName":"Méharin, FR","country":"FR","name":"Méharin","_id":6440504,"coord":{"lon":-1.15,"lat":43.333328}},{"displayName":"Méharin, FR","country":"FR","name":"Méharin","_id":2994762,"coord":{"lon":-1.14521,"lat":43.333271}},{"displayName":"Mélida, ES","country":"ES","name":"Mélida","_id":6359712,"coord":{"lon":-1.53089,"lat":42.353458}},{"displayName":"Ménesplet, FR","country":"FR","name":"Ménesplet","_id":6429435,"coord":{"lon":0.11667,"lat":45.01667}},{"displayName":"Ménestérol, FR","country":"FR","name":"Ménestérol","_id":2994593,"coord":{"lon":0.16667,"lat":45.01667}},{"displayName":"Ménigoute, FR","country":"FR","name":"Ménigoute","_id":6444155,"coord":{"lon":-0.05,"lat":46.5}},{"displayName":"Ménigoute, FR","country":"FR","name":"Ménigoute","_id":2994561,"coord":{"lon":-0.05786,"lat":46.49744}},{"displayName":"Ménil-Erreux, FR","country":"FR","name":"Ménil-Erreux","_id":6439154,"coord":{"lon":0.18333,"lat":48.5}},{"displayName":"Ménil-Erreux, FR","country":"FR","name":"Ménil-Erreux","_id":2994553,"coord":{"lon":0.19037,"lat":48.509121}},{"displayName":"Ménil-Froger, FR","country":"FR","name":"Ménil-Froger","_id":6439155,"coord":{"lon":0.26667,"lat":48.73333}},{"displayName":"Ménil-Froger, FR","country":"FR","name":"Ménil-Froger","_id":2994552,"coord":{"lon":0.26997,"lat":48.730919}},{"displayName":"Ménil-Gondouin, FR","country":"FR","name":"Ménil-Gondouin","_id":6439156,"coord":{"lon":-0.28333,"lat":48.75}},{"displayName":"Ménil-Gondouin, FR","country":"FR","name":"Ménil-Gondouin","_id":2994550,"coord":{"lon":-0.29355,"lat":48.753639}},{"displayName":"Ménil-Hermei, FR","country":"FR","name":"Ménil-Hermei","_id":6439157,"coord":{"lon":-0.31667,"lat":48.833328}},{"displayName":"Ménil-Hermei, FR","country":"FR","name":"Ménil-Hermei","_id":2994549,"coord":{"lon":-0.32555,"lat":48.825871}},{"displayName":"Ménil-Hubert-en-Exmes, FR","country":"FR","name":"Ménil-Hubert-en-Exmes","_id":6439158,"coord":{"lon":0.23333,"lat":48.816669}},{"displayName":"Ménil-Hubert-en-Exmes, FR","country":"FR","name":"Ménil-Hubert-en-Exmes","_id":2994548,"coord":{"lon":0.23071,"lat":48.81501}},{"displayName":"Ménil-Hubert-sur-Orne, FR","country":"FR","name":"Ménil-Hubert-sur-Orne","_id":6439159,"coord":{"lon":-0.41667,"lat":48.849998}},{"displayName":"Ménil-Hubert-sur-Orne, FR","country":"FR","name":"Ménil-Hubert-sur-Orne","_id":2994547,"coord":{"lon":-0.4106,"lat":48.85239}},{"displayName":"Ménil-Jean, FR","country":"FR","name":"Ménil-Jean","_id":6439160,"coord":{"lon":-0.23333,"lat":48.73333}},{"displayName":"Ménil-Jean, FR","country":"FR","name":"Ménil-Jean","_id":2994546,"coord":{"lon":-0.22429,"lat":48.739471}},{"displayName":"Ménil-Vin, FR","country":"FR","name":"Ménil-Vin","_id":6612698,"coord":{"lon":-0.31667,"lat":48.849998}},{"displayName":"Ménil-Vin, FR","country":"FR","name":"Ménil-Vin","_id":2994537,"coord":{"lon":-0.31674,"lat":48.844742}},{"displayName":"Méntrida, ES","country":"ES","name":"Méntrida","_id":6361759,"coord":{"lon":-4.16859,"lat":40.230751}},{"displayName":"Méné Guen, FR","country":"FR","name":"Méné Guen","_id":2994604,"coord":{"lon":-3.4416,"lat":47.779961}},{"displayName":"Ménétrol, FR","country":"FR","name":"Ménétrol","_id":6440091,"coord":{"lon":3.13333,"lat":45.866669}},{"displayName":"Méracq, FR","country":"FR","name":"Méracq","_id":6440509,"coord":{"lon":-0.38333,"lat":43.51667}},{"displayName":"Méracq, FR","country":"FR","name":"Méracq","_id":2994480,"coord":{"lon":-0.38333,"lat":43.51667}},{"displayName":"Mérgeszug, HU","country":"HU","name":"Mérgeszug","_id":717694,"coord":{"lon":21.08333,"lat":46.966671}},{"displayName":"Mérida, ES","country":"ES","name":"Mérida","_id":6355948,"coord":{"lon":-6.42306,"lat":38.974369}},{"displayName":"Mérignac, FR","country":"FR","name":"Mérignac","_id":6432306,"coord":{"lon":-0.63333,"lat":44.833328}},{"displayName":"Méritein, FR","country":"FR","name":"Méritein","_id":6440510,"coord":{"lon":-0.76667,"lat":43.333328}},{"displayName":"Méritein, FR","country":"FR","name":"Méritein","_id":2994374,"coord":{"lon":-0.76378,"lat":43.334641}},{"displayName":"Mértola, PT","country":"PT","name":"Mértola","_id":8010440,"coord":{"lon":-7.66434,"lat":37.65918}},{"displayName":"Méry-Corbon, FR","country":"FR","name":"Méry-Corbon","_id":6427323,"coord":{"lon":-0.08333,"lat":49.133331}},{"displayName":"Méry-Corbon, FR","country":"FR","name":"Méry-Corbon","_id":2994289,"coord":{"lon":-0.08266,"lat":49.135509}},{"displayName":"Mésangy, FR","country":"FR","name":"Mésangy","_id":2994278,"coord":{"lon":3.02,"lat":46.72924}},{"displayName":"Mézin, FR","country":"FR","name":"Mézin","_id":6454182,"coord":{"lon":0.26667,"lat":44.049999}},{"displayName":"Méziré, FR","country":"FR","name":"Méziré","_id":6451917,"coord":{"lon":6.91972,"lat":47.531109}},{"displayName":"Mézières (FR), CH","country":"CH","name":"Mézières (FR)","_id":7286503,"coord":{"lon":6.9353,"lat":46.684441}},{"displayName":"Mézos, FR","country":"FR","name":"Mézos","_id":6433890,"coord":{"lon":-1.16667,"lat":44.083328}},{"displayName":"Mézos, FR","country":"FR","name":"Mézos","_id":2994000,"coord":{"lon":-1.16381,"lat":44.076}},{"displayName":"Mêda, PT","country":"PT","name":"Mêda","_id":8010535,"coord":{"lon":-7.26495,"lat":40.932381}},{"displayName":"Míloi, GR","country":"GR","name":"Míloi","_id":256968,"coord":{"lon":21.75,"lat":38.216671}},{"displayName":"Mírovice, CZ","country":"CZ","name":"Mírovice","_id":3070573,"coord":{"lon":14.54186,"lat":50.167881}},{"displayName":"Místek, CZ","country":"CZ","name":"Místek","_id":3070559,"coord":{"lon":18.33333,"lat":49.666672}},{"displayName":"Mînăstirea Cheia, RO","country":"RO","name":"Mînăstirea Cheia","_id":673254,"coord":{"lon":25.94301,"lat":45.45549}},{"displayName":"Móstoles, ES","country":"ES","name":"Móstoles","_id":6359316,"coord":{"lon":-3.90057,"lat":40.309551}},{"displayName":"Môtiers, CH","country":"CH","name":"Môtiers","_id":2659572,"coord":{"lon":6.61111,"lat":46.911079}},{"displayName":"Mões, PT","country":"PT","name":"Mões","_id":8013770,"coord":{"lon":-7.87842,"lat":40.861221}},{"displayName":"Mões, PT","country":"PT","name":"Mões","_id":2737604,"coord":{"lon":-7.8856,"lat":40.869469}},{"displayName":"Mõigu, EE","country":"EE","name":"Mõigu","_id":795157,"coord":{"lon":24.812969,"lat":59.406311}},{"displayName":"Mõisaküla linn, EE","country":"EE","name":"Mõisaküla linn","_id":7522353,"coord":{"lon":25.18273,"lat":58.09404}},{"displayName":"Möbisburg, DE","country":"DE","name":"Möbisburg","_id":2870307,"coord":{"lon":11.0,"lat":50.933331}},{"displayName":"Möckenlohe, DE","country":"DE","name":"Möckenlohe","_id":2870283,"coord":{"lon":11.21667,"lat":48.816669}},{"displayName":"Möckern, DE","country":"DE","name":"Möckern","_id":2870276,"coord":{"lon":12.81667,"lat":53.116669}},{"displayName":"Möckern, DE","country":"DE","name":"Möckern","_id":2870279,"coord":{"lon":12.35,"lat":51.366669}},{"displayName":"Möckern, DE","country":"DE","name":"Möckern","_id":6550383,"coord":{"lon":11.7667,"lat":50.849998}},{"displayName":"Möckers, DE","country":"DE","name":"Möckers","_id":2870275,"coord":{"lon":10.4,"lat":50.716671}},{"displayName":"Möderau, DE","country":"DE","name":"Möderau","_id":2870245,"coord":{"lon":11.91667,"lat":51.566669}},{"displayName":"Mödingen, DE","country":"DE","name":"Mödingen","_id":6557164,"coord":{"lon":10.4333,"lat":48.650002}},{"displayName":"Mödishofen, DE","country":"DE","name":"Mödishofen","_id":2870232,"coord":{"lon":10.65,"lat":48.316669}},{"displayName":"Mödling, AT","country":"AT","name":"Mödling","_id":7871855,"coord":{"lon":16.282631,"lat":48.07724}},{"displayName":"Mödlitz, DE","country":"DE","name":"Mödlitz","_id":2870228,"coord":{"lon":11.19618,"lat":50.21706}},{"displayName":"Mödlsbach, DE","country":"DE","name":"Mödlsbach","_id":2870225,"coord":{"lon":12.98333,"lat":48.549999}},{"displayName":"Möggenweiler, DE","country":"DE","name":"Möggenweiler","_id":2870206,"coord":{"lon":9.4,"lat":47.716671}},{"displayName":"Möggers, AT","country":"AT","name":"Möggers","_id":7872664,"coord":{"lon":9.80719,"lat":47.56543}},{"displayName":"Mögglingen, DE","country":"DE","name":"Mögglingen","_id":6555590,"coord":{"lon":9.96297,"lat":48.822941}},{"displayName":"Möging, DE","country":"DE","name":"Möging","_id":2870201,"coord":{"lon":13.38333,"lat":48.683331}},{"displayName":"Möglingen, DE","country":"DE","name":"Möglingen","_id":6555485,"coord":{"lon":9.12651,"lat":48.88718}},{"displayName":"Möhlau, DE","country":"DE","name":"Möhlau","_id":6548954,"coord":{"lon":12.35,"lat":51.733299}},{"displayName":"Möhlin, CH","country":"CH","name":"Möhlin","_id":7286514,"coord":{"lon":7.85401,"lat":47.56329}},{"displayName":"Möhnesee, DE","country":"DE","name":"Möhnesee","_id":6553150,"coord":{"lon":8.1425,"lat":51.493301}},{"displayName":"Möhnsen, DE","country":"DE","name":"Möhnsen","_id":6551482,"coord":{"lon":10.45,"lat":53.5667}},{"displayName":"Möhra, DE","country":"DE","name":"Möhra","_id":2870155,"coord":{"lon":10.25,"lat":50.866669}},{"displayName":"Möhren, DE","country":"DE","name":"Möhren","_id":2870148,"coord":{"lon":10.88333,"lat":48.933331}},{"displayName":"Möhrenbach, DE","country":"DE","name":"Möhrenbach","_id":6550214,"coord":{"lon":11.0,"lat":50.633301}},{"displayName":"Möhrendorf, DE","country":"DE","name":"Möhrendorf","_id":2870142,"coord":{"lon":8.08333,"lat":50.650002}},{"displayName":"Möhrendorf, DE","country":"DE","name":"Möhrendorf","_id":6556871,"coord":{"lon":11.0094,"lat":49.6511}},{"displayName":"Möhrsdorf, DE","country":"DE","name":"Möhrsdorf","_id":2870118,"coord":{"lon":14.06667,"lat":51.216671}},{"displayName":"Mölbis, DE","country":"DE","name":"Mölbis","_id":2870092,"coord":{"lon":12.5,"lat":51.200001}},{"displayName":"Mölbling, AT","country":"AT","name":"Mölbling","_id":7872773,"coord":{"lon":14.40453,"lat":46.85276}},{"displayName":"Mölkau, DE","country":"DE","name":"Mölkau","_id":2870074,"coord":{"lon":12.44167,"lat":51.331791}},{"displayName":"Möllbergen, DE","country":"DE","name":"Möllbergen","_id":2870057,"coord":{"lon":8.92691,"lat":52.20245}},{"displayName":"Möllenbeck, DE","country":"DE","name":"Möllenbeck","_id":2870046,"coord":{"lon":9.03763,"lat":52.163609}},{"displayName":"Möllenbeck, DE","country":"DE","name":"Möllenbeck","_id":6548011,"coord":{"lon":13.35,"lat":53.383301}},{"displayName":"Möllenbeck, DE","country":"DE","name":"Möllenbeck","_id":6547959,"coord":{"lon":11.7333,"lat":53.283298}},{"displayName":"Möllenhagen, DE","country":"DE","name":"Möllenhagen","_id":6548081,"coord":{"lon":12.9333,"lat":53.533298}},{"displayName":"Möllensen, DE","country":"DE","name":"Möllensen","_id":2870016,"coord":{"lon":9.88333,"lat":52.066669}},{"displayName":"Mölln, DE","country":"DE","name":"Mölln","_id":6547843,"coord":{"lon":13.0833,"lat":53.599998}},{"displayName":"Mölndals Kommun, SE","country":"SE","name":"Mölndals Kommun","_id":2691457,"coord":{"lon":12.08333,"lat":57.616669}},{"displayName":"Mölschbach, DE","country":"DE","name":"Mölschbach","_id":2869966,"coord":{"lon":7.81667,"lat":49.383331}},{"displayName":"Mölschow, DE","country":"DE","name":"Mölschow","_id":6548296,"coord":{"lon":13.8333,"lat":54.083302}},{"displayName":"Mölsheim, DE","country":"DE","name":"Mölsheim","_id":6554863,"coord":{"lon":8.16944,"lat":49.646702}},{"displayName":"Mömerzheim, DE","country":"DE","name":"Mömerzheim","_id":2869935,"coord":{"lon":6.88333,"lat":50.683331}},{"displayName":"Mömlingen, DE","country":"DE","name":"Mömlingen","_id":6557027,"coord":{"lon":9.0912,"lat":49.846199}},{"displayName":"Mönchaltorf / Hohfurren, CH","country":"CH","name":"Mönchaltorf / Hohfurren","_id":6294492,"coord":{"lon":8.71828,"lat":47.315361}},{"displayName":"Mönchaltorf, CH","country":"CH","name":"Mönchaltorf","_id":7286523,"coord":{"lon":8.72325,"lat":47.31279}},{"displayName":"Mönchehof, DE","country":"DE","name":"Mönchehof","_id":2869900,"coord":{"lon":9.45391,"lat":51.38694}},{"displayName":"Mönchenholzhausen, DE","country":"DE","name":"Mönchenholzhausen","_id":6550264,"coord":{"lon":11.1802,"lat":50.943001}},{"displayName":"Mönchhagen, DE","country":"DE","name":"Mönchhagen","_id":6547784,"coord":{"lon":12.2887,"lat":54.186951}},{"displayName":"Mönchhof, AT","country":"AT","name":"Mönchhof","_id":7871590,"coord":{"lon":16.94092,"lat":47.879742}},{"displayName":"Mönchpfiffel-Nikolausrieth, DE","country":"DE","name":"Mönchpfiffel-Nikolausrieth","_id":6549974,"coord":{"lon":11.3667,"lat":51.383301}},{"displayName":"Mönchsberg, DE","country":"DE","name":"Mönchsberg","_id":2869851,"coord":{"lon":11.25,"lat":49.633331}},{"displayName":"Mönchsdeggingen, DE","country":"DE","name":"Mönchsdeggingen","_id":6557290,"coord":{"lon":10.5833,"lat":48.783298}},{"displayName":"Mönchsroth, DE","country":"DE","name":"Mönchsroth","_id":6556846,"coord":{"lon":10.3667,"lat":49.016701}},{"displayName":"Mönchstockheim, DE","country":"DE","name":"Mönchstockheim","_id":2869819,"coord":{"lon":10.36667,"lat":49.933331}},{"displayName":"Mönchweiler, DE","country":"DE","name":"Mönchweiler","_id":6555824,"coord":{"lon":8.43333,"lat":48.099998}},{"displayName":"Mönchwinkel, DE","country":"DE","name":"Mönchwinkel","_id":2869807,"coord":{"lon":13.88333,"lat":52.383331}},{"displayName":"Mönichkirchen, AT","country":"AT","name":"Mönichkirchen","_id":7871864,"coord":{"lon":16.04871,"lat":47.51255}},{"displayName":"Mönichwald, AT","country":"AT","name":"Mönichwald","_id":7872357,"coord":{"lon":15.88928,"lat":47.477921}},{"displayName":"Möning, DE","country":"DE","name":"Möning","_id":2869787,"coord":{"lon":11.33154,"lat":49.24086}},{"displayName":"Mönkeberg, DE","country":"DE","name":"Mönkeberg","_id":6551755,"coord":{"lon":10.1887,"lat":54.349201}},{"displayName":"Mönkebude, DE","country":"DE","name":"Mönkebude","_id":6548469,"coord":{"lon":13.9667,"lat":53.766701}},{"displayName":"Mönkhagen, DE","country":"DE","name":"Mönkhagen","_id":6552281,"coord":{"lon":10.55,"lat":53.900002}},{"displayName":"Mönkloh, DE","country":"DE","name":"Mönkloh","_id":6552117,"coord":{"lon":9.78333,"lat":53.883301}},{"displayName":"Mönsheim, DE","country":"DE","name":"Mönsheim","_id":6555706,"coord":{"lon":8.86667,"lat":48.866699}},{"displayName":"Möntenich, DE","country":"DE","name":"Möntenich","_id":6553709,"coord":{"lon":7.29836,"lat":50.221291}},{"displayName":"Mörbisch am See, AT","country":"AT","name":"Mörbisch am See","_id":7871535,"coord":{"lon":16.685539,"lat":47.760971}},{"displayName":"Mörel, DE","country":"DE","name":"Mörel","_id":6551884,"coord":{"lon":9.73333,"lat":54.116699}},{"displayName":"Mörfelden, DE","country":"DE","name":"Mörfelden","_id":2869286,"coord":{"lon":8.56444,"lat":49.975281}},{"displayName":"Mörigen, CH","country":"CH","name":"Mörigen","_id":7286555,"coord":{"lon":7.21186,"lat":47.084229}},{"displayName":"Mörigen, CH","country":"CH","name":"Mörigen","_id":2659584,"coord":{"lon":7.21413,"lat":47.085098}},{"displayName":"Mörlen, DE","country":"DE","name":"Mörlen","_id":6554244,"coord":{"lon":7.88333,"lat":50.700001}},{"displayName":"Mörlenbach, DE","country":"DE","name":"Mörlenbach","_id":6553159,"coord":{"lon":8.7311,"lat":49.5956}},{"displayName":"Mörsbach, DE","country":"DE","name":"Mörsbach","_id":6554245,"coord":{"lon":7.76667,"lat":50.716702}},{"displayName":"Mörsch, DE","country":"DE","name":"Mörsch","_id":2869188,"coord":{"lon":8.29785,"lat":48.96196}},{"displayName":"Mörschbach, DE","country":"DE","name":"Mörschbach","_id":6553932,"coord":{"lon":7.61667,"lat":50.016701}},{"displayName":"Mörschied, DE","country":"DE","name":"Mörschied","_id":6553616,"coord":{"lon":7.31667,"lat":49.783298}},{"displayName":"Mörschwil, CH","country":"CH","name":"Mörschwil","_id":7286561,"coord":{"lon":9.42615,"lat":47.467579}},{"displayName":"Mörsdorf, DE","country":"DE","name":"Mörsdorf","_id":6553710,"coord":{"lon":7.35,"lat":50.099998}},{"displayName":"Mörsdorf, DE","country":"DE","name":"Mörsdorf","_id":2869169,"coord":{"lon":11.28333,"lat":49.200001}},{"displayName":"Mörsdorf, DE","country":"DE","name":"Mörsdorf","_id":6550384,"coord":{"lon":11.8167,"lat":50.866699}},{"displayName":"Mörse, DE","country":"DE","name":"Mörse","_id":2869164,"coord":{"lon":10.73021,"lat":52.391842}},{"displayName":"Mörsfeld, DE","country":"DE","name":"Mörsfeld","_id":6554966,"coord":{"lon":7.93333,"lat":49.75}},{"displayName":"Mörskom, FI","country":"FI","name":"Mörskom","_id":645234,"coord":{"lon":25.83333,"lat":60.666672}},{"displayName":"Mörslingen, DE","country":"DE","name":"Mörslingen","_id":2869151,"coord":{"lon":10.51667,"lat":48.633331}},{"displayName":"Mörstadt, DE","country":"DE","name":"Mörstadt","_id":6554864,"coord":{"lon":8.25472,"lat":49.6619}},{"displayName":"Mörtitz, DE","country":"DE","name":"Mörtitz","_id":2869136,"coord":{"lon":12.64441,"lat":51.502869}},{"displayName":"Mörtschach, AT","country":"AT","name":"Mörtschach","_id":7872785,"coord":{"lon":12.91242,"lat":46.931492}},{"displayName":"Mösbach, DE","country":"DE","name":"Mösbach","_id":2869123,"coord":{"lon":8.06637,"lat":48.596882}},{"displayName":"Möschenfeld, DE","country":"DE","name":"Möschenfeld","_id":2869097,"coord":{"lon":11.77391,"lat":48.075039}},{"displayName":"Möser, DE","country":"DE","name":"Möser","_id":6549354,"coord":{"lon":11.8,"lat":52.216702}},{"displayName":"Möslehen, AT","country":"AT","name":"Möslehen","_id":2605929,"coord":{"lon":13.15,"lat":47.333328}},{"displayName":"Mösthinsdorf, DE","country":"DE","name":"Mösthinsdorf","_id":2869007,"coord":{"lon":12.03333,"lat":51.633331}},{"displayName":"Möthlow, DE","country":"DE","name":"Möthlow","_id":2869000,"coord":{"lon":12.65,"lat":52.599998}},{"displayName":"Möttingen, DE","country":"DE","name":"Möttingen","_id":6557291,"coord":{"lon":10.59016,"lat":48.809269}},{"displayName":"Mötz, AT","country":"AT","name":"Mötz","_id":7873591,"coord":{"lon":10.94631,"lat":47.284119}},{"displayName":"Mötzing, DE","country":"DE","name":"Mötzing","_id":6556683,"coord":{"lon":12.3667,"lat":48.900002}},{"displayName":"Mötzingen, DE","country":"DE","name":"Mötzingen","_id":6555400,"coord":{"lon":8.7737,"lat":48.533539}},{"displayName":"Mözen, DE","country":"DE","name":"Mözen","_id":6552118,"coord":{"lon":10.25,"lat":53.916698}},{"displayName":"Mølholm, DK","country":"DK","name":"Mølholm","_id":2616814,"coord":{"lon":9.54402,"lat":55.698959}},{"displayName":"Møre og Romsdal fylke, NO","country":"NO","name":"Møre og Romsdal fylke","_id":3145495,"coord":{"lon":7.83333,"lat":62.666672}},{"displayName":"Mørke, DK","country":"DK","name":"Mørke","_id":2616773,"coord":{"lon":10.38187,"lat":56.33453}},{"displayName":"Mûr-de-Bretagne, FR","country":"FR","name":"Mûr-de-Bretagne","_id":6614358,"coord":{"lon":-2.98333,"lat":48.200001}},{"displayName":"Mûrs-Erigné, FR","country":"FR","name":"Mûrs-Erigné","_id":6458649,"coord":{"lon":-0.55,"lat":47.400002}},{"displayName":"Mücka, DE","country":"DE","name":"Mücka","_id":6548644,"coord":{"lon":14.7,"lat":51.3167}},{"displayName":"Mückeln, DE","country":"DE","name":"Mückeln","_id":6554650,"coord":{"lon":6.91667,"lat":50.083302}},{"displayName":"Müden (Aller), DE","country":"DE","name":"Müden (Aller)","_id":6552313,"coord":{"lon":10.3667,"lat":52.533298}},{"displayName":"Müden, DE","country":"DE","name":"Müden","_id":2868862,"coord":{"lon":7.33947,"lat":50.184978}},{"displayName":"Müdisdorf, DE","country":"DE","name":"Müdisdorf","_id":2868849,"coord":{"lon":13.36667,"lat":50.816669}},{"displayName":"Mühbrook, DE","country":"DE","name":"Mühbrook","_id":6551886,"coord":{"lon":10.0,"lat":54.166698}},{"displayName":"Mühl Rosin, DE","country":"DE","name":"Mühl Rosin","_id":6547900,"coord":{"lon":12.2167,"lat":53.766701}},{"displayName":"Mühlanger, DE","country":"DE","name":"Mühlanger","_id":6548955,"coord":{"lon":12.75,"lat":51.849998}},{"displayName":"Mühlau, CH","country":"CH","name":"Mühlau","_id":7286570,"coord":{"lon":8.38887,"lat":47.234711}},{"displayName":"Mühlau, CH","country":"CH","name":"Mühlau","_id":2659563,"coord":{"lon":8.38965,"lat":47.23035}},{"displayName":"Mühlau, CH","country":"CH","name":"Mühlau","_id":6293943,"coord":{"lon":8.75587,"lat":47.46648}},{"displayName":"Mühlau, DE","country":"DE","name":"Mühlau","_id":6547466,"coord":{"lon":12.7669,"lat":50.9007}},{"displayName":"Mühlau, DE","country":"DE","name":"Mühlau","_id":2868781,"coord":{"lon":12.4,"lat":47.716671}},{"displayName":"Mühlbach am Hochkönig, AT","country":"AT","name":"Mühlbach am Hochkönig","_id":7872227,"coord":{"lon":13.10501,"lat":47.389912}},{"displayName":"Mühlbach, DE","country":"DE","name":"Mühlbach","_id":2868773,"coord":{"lon":8.90056,"lat":49.09972}},{"displayName":"Mühlbachl, AT","country":"AT","name":"Mühlbachl","_id":7872540,"coord":{"lon":11.4236,"lat":47.129719}},{"displayName":"Mühlbeck, DE","country":"DE","name":"Mühlbeck","_id":2868659,"coord":{"lon":12.38333,"lat":51.633331}},{"displayName":"Mühlberg, AT","country":"AT","name":"Mühlberg","_id":2601093,"coord":{"lon":16.203369,"lat":48.203339}},{"displayName":"Mühlburg, DE","country":"DE","name":"Mühlburg","_id":2868511,"coord":{"lon":8.35922,"lat":49.012821}},{"displayName":"Mühldorf bei Feldbach, AT","country":"AT","name":"Mühldorf bei Feldbach","_id":7872301,"coord":{"lon":15.89035,"lat":46.92886}},{"displayName":"Mühldorf, AT","country":"AT","name":"Mühldorf","_id":7871802,"coord":{"lon":15.32955,"lat":48.371288}},{"displayName":"Mühldorf, AT","country":"AT","name":"Mühldorf","_id":7872786,"coord":{"lon":13.34554,"lat":46.874691}},{"displayName":"Mühldörfl, DE","country":"DE","name":"Mühldörfl","_id":2868502,"coord":{"lon":11.11795,"lat":47.529369}},{"displayName":"Mühle, DE","country":"DE","name":"Mühle","_id":2868501,"coord":{"lon":11.43333,"lat":47.599998}},{"displayName":"Mühle, DE","country":"DE","name":"Mühle","_id":2868500,"coord":{"lon":8.0,"lat":47.650002}},{"displayName":"Mühle, DE","country":"DE","name":"Mühle","_id":2868499,"coord":{"lon":11.58333,"lat":47.73333}},{"displayName":"Mühleberg, CH","country":"CH","name":"Mühleberg","_id":7286571,"coord":{"lon":7.27194,"lat":46.946621}},{"displayName":"Mühlehorn, CH","country":"CH","name":"Mühlehorn","_id":2659560,"coord":{"lon":9.17361,"lat":47.117458}},{"displayName":"Mühlen Eichsen, DE","country":"DE","name":"Mühlen Eichsen","_id":6548204,"coord":{"lon":11.25,"lat":53.766701}},{"displayName":"Mühlen, AT","country":"AT","name":"Mühlen","_id":7873522,"coord":{"lon":14.51141,"lat":47.03001}},{"displayName":"Mühlenbach, DE","country":"DE","name":"Mühlenbach","_id":6555790,"coord":{"lon":8.11667,"lat":48.25}},{"displayName":"Mühlenbarbek, DE","country":"DE","name":"Mühlenbarbek","_id":6552221,"coord":{"lon":9.66717,"lat":53.95776}},{"displayName":"Mühlenbek, DE","country":"DE","name":"Mühlenbek","_id":2868361,"coord":{"lon":9.73333,"lat":53.950001}},{"displayName":"Mühlendeich, DE","country":"DE","name":"Mühlendeich","_id":2868227,"coord":{"lon":8.7,"lat":54.816669}},{"displayName":"Mühlenholz, DE","country":"DE","name":"Mühlenholz","_id":2868152,"coord":{"lon":9.66667,"lat":54.700001}},{"displayName":"Mühlenrade, DE","country":"DE","name":"Mühlenrade","_id":6551483,"coord":{"lon":10.4833,"lat":53.599998}},{"displayName":"Mühlentempel, DE","country":"DE","name":"Mühlentempel","_id":2868084,"coord":{"lon":13.46667,"lat":50.616669}},{"displayName":"Mühlethurnen, CH","country":"CH","name":"Mühlethurnen","_id":7286575,"coord":{"lon":7.5103,"lat":46.81601}},{"displayName":"Mühlgraben, AT","country":"AT","name":"Mühlgraben","_id":7871572,"coord":{"lon":16.045731,"lat":46.892929}},{"displayName":"Mühlhausen, DE","country":"DE","name":"Mühlhausen","_id":6556650,"coord":{"lon":11.45,"lat":49.166698}},{"displayName":"Mühlhausen, DE","country":"DE","name":"Mühlhausen","_id":6555670,"coord":{"lon":8.72667,"lat":49.2486}},{"displayName":"Mühlhausen, DE","country":"DE","name":"Mühlhausen","_id":2868011,"coord":{"lon":10.93333,"lat":48.433331}},{"displayName":"Mühlhausen-Ehingen, DE","country":"DE","name":"Mühlhausen-Ehingen","_id":6555870,"coord":{"lon":8.81667,"lat":47.8167}},{"displayName":"Mühlheim an der Donau, DE","country":"DE","name":"Mühlheim an der Donau","_id":2867982,"coord":{"lon":8.88333,"lat":48.033329}},{"displayName":"Mühlheim, DE","country":"DE","name":"Mühlheim","_id":2867986,"coord":{"lon":8.28333,"lat":49.700001}},{"displayName":"Mühlhäuser, DE","country":"DE","name":"Mühlhäuser","_id":2867990,"coord":{"lon":14.4,"lat":51.25}},{"displayName":"Mühlingen, DE","country":"DE","name":"Mühlingen","_id":6555866,"coord":{"lon":9.01667,"lat":47.916698}},{"displayName":"Mühlpfad, DE","country":"DE","name":"Mühlpfad","_id":6553933,"coord":{"lon":7.55,"lat":50.116699}},{"displayName":"Mühlsdorf, DE","country":"DE","name":"Mühlsdorf","_id":2867920,"coord":{"lon":13.98663,"lat":50.995121}},{"displayName":"Mühltal, DE","country":"DE","name":"Mühltal","_id":2867908,"coord":{"lon":7.56667,"lat":50.23333}},{"displayName":"Mülbach, DE","country":"DE","name":"Mülbach","_id":6554468,"coord":{"lon":6.4,"lat":49.966702}},{"displayName":"Mülenen, CH","country":"CH","name":"Mülenen","_id":6292928,"coord":{"lon":8.69815,"lat":47.216331}},{"displayName":"Mülheim, DE","country":"DE","name":"Mülheim","_id":2867843,"coord":{"lon":7.5,"lat":50.383331}},{"displayName":"Müll, DE","country":"DE","name":"Müll","_id":2867828,"coord":{"lon":7.31576,"lat":52.953739}},{"displayName":"Müllenbach, DE","country":"DE","name":"Müllenbach","_id":2867815,"coord":{"lon":7.58333,"lat":51.066669}},{"displayName":"Müllenbach, DE","country":"DE","name":"Müllenbach","_id":6553324,"coord":{"lon":6.91667,"lat":50.3167}},{"displayName":"Müllenbach, DE","country":"DE","name":"Müllenbach","_id":6553713,"coord":{"lon":7.06667,"lat":50.216702}},{"displayName":"Müllenborn, DE","country":"DE","name":"Müllenborn","_id":2867810,"coord":{"lon":6.6,"lat":50.25}},{"displayName":"Müllendorf, AT","country":"AT","name":"Müllendorf","_id":7872688,"coord":{"lon":16.452009,"lat":47.84095}},{"displayName":"Müllensiefen, DE","country":"DE","name":"Müllensiefen","_id":2867808,"coord":{"lon":7.46667,"lat":51.0}},{"displayName":"Müllersdorf, DE","country":"DE","name":"Müllersdorf","_id":2867784,"coord":{"lon":12.91778,"lat":49.018711}},{"displayName":"Müllheim, CH","country":"CH","name":"Müllheim","_id":7286578,"coord":{"lon":9.00367,"lat":47.602791}},{"displayName":"Müllingen, DE","country":"DE","name":"Müllingen","_id":2867768,"coord":{"lon":9.90726,"lat":52.293781}},{"displayName":"Mülsen Sankt Micheln, DE","country":"DE","name":"Mülsen Sankt Micheln","_id":2867751,"coord":{"lon":12.56667,"lat":50.75}},{"displayName":"Mülsen, DE","country":"DE","name":"Mülsen","_id":6551125,"coord":{"lon":12.5748,"lat":50.744801}},{"displayName":"Mülverstedt, DE","country":"DE","name":"Mülverstedt","_id":6549935,"coord":{"lon":10.5,"lat":51.116699}},{"displayName":"Mümliswil, CH","country":"CH","name":"Mümliswil","_id":2659554,"coord":{"lon":7.7035,"lat":47.344109}},{"displayName":"Mümliswil-Ramiswil, CH","country":"CH","name":"Mümliswil-Ramiswil","_id":7286580,"coord":{"lon":7.67688,"lat":47.349289}},{"displayName":"Münchehof, DE","country":"DE","name":"Münchehof","_id":2867718,"coord":{"lon":10.18333,"lat":51.849998}},{"displayName":"Münchehofe, DE","country":"DE","name":"Münchehofe","_id":6547568,"coord":{"lon":13.85,"lat":52.150002}},{"displayName":"Münchenbuchsee, CH","country":"CH","name":"Münchenbuchsee","_id":7286582,"coord":{"lon":7.44859,"lat":47.018139}},{"displayName":"Münchendorf, AT","country":"AT","name":"Münchendorf","_id":7872982,"coord":{"lon":16.390289,"lat":48.029331}},{"displayName":"Münchenroth, DE","country":"DE","name":"Münchenroth","_id":2867685,"coord":{"lon":7.88333,"lat":50.166672}},{"displayName":"Münchenstein, CH","country":"CH","name":"Münchenstein","_id":7286583,"coord":{"lon":7.61739,"lat":47.51857}},{"displayName":"Münchhausen, DE","country":"DE","name":"Münchhausen","_id":6553235,"coord":{"lon":8.71667,"lat":50.950001}},{"displayName":"Münchsdorf, DE","country":"DE","name":"Münchsdorf","_id":2867647,"coord":{"lon":12.15,"lat":48.450001}},{"displayName":"Münchsmünster, DE","country":"DE","name":"Münchsmünster","_id":6556350,"coord":{"lon":11.6833,"lat":48.766701}},{"displayName":"Münchsteinach, DE","country":"DE","name":"Münchsteinach","_id":6556914,"coord":{"lon":10.6,"lat":49.633301}},{"displayName":"Münchwald, DE","country":"DE","name":"Münchwald","_id":6553518,"coord":{"lon":7.68333,"lat":49.900002}},{"displayName":"Münchweiler am Klingbach, DE","country":"DE","name":"Münchweiler am Klingbach","_id":6555204,"coord":{"lon":7.96667,"lat":49.150002}},{"displayName":"Münchweiler an der Alsenz, DE","country":"DE","name":"Münchweiler an der Alsenz","_id":6554968,"coord":{"lon":7.88333,"lat":49.549999}},{"displayName":"Münchwilen (TG), CH","country":"CH","name":"Münchwilen (TG)","_id":7286587,"coord":{"lon":8.99239,"lat":47.481461}},{"displayName":"Mündersbach, DE","country":"DE","name":"Mündersbach","_id":6554248,"coord":{"lon":7.73333,"lat":50.599998}},{"displayName":"Münichholz, AT","country":"AT","name":"Münichholz","_id":2771034,"coord":{"lon":14.45,"lat":48.066669}},{"displayName":"Münk, DE","country":"DE","name":"Münk","_id":6553771,"coord":{"lon":7.03333,"lat":50.299999}},{"displayName":"Münsa, DE","country":"DE","name":"Münsa","_id":2867566,"coord":{"lon":12.48333,"lat":50.98333}},{"displayName":"Münsing, DE","country":"DE","name":"Münsing","_id":6556128,"coord":{"lon":11.3667,"lat":47.900002}},{"displayName":"Münsingen, CH","country":"CH","name":"Münsingen","_id":7286590,"coord":{"lon":7.56089,"lat":46.87608}},{"displayName":"Münster, AT","country":"AT","name":"Münster","_id":7873652,"coord":{"lon":11.81951,"lat":47.436371}},{"displayName":"Münster, DE","country":"DE","name":"Münster","_id":6553168,"coord":{"lon":8.8777,"lat":49.918999}},{"displayName":"Münster, DE","country":"DE","name":"Münster","_id":6557292,"coord":{"lon":10.8981,"lat":48.6208}},{"displayName":"Münster-Geschinen, CH","country":"CH","name":"Münster-Geschinen","_id":7286591,"coord":{"lon":8.27504,"lat":46.492001}},{"displayName":"Münster-Sarmsheim, DE","country":"DE","name":"Münster-Sarmsheim","_id":6555286,"coord":{"lon":7.9,"lat":49.950001}},{"displayName":"Münsterappel, DE","country":"DE","name":"Münsterappel","_id":6554969,"coord":{"lon":7.88333,"lat":49.733299}},{"displayName":"Münsterdorf, DE","country":"DE","name":"Münsterdorf","_id":6552222,"coord":{"lon":9.54125,"lat":53.902321}},{"displayName":"Münsterlingen, CH","country":"CH","name":"Münsterlingen","_id":7286592,"coord":{"lon":9.23546,"lat":47.625431}},{"displayName":"Münsterschwarzach, DE","country":"DE","name":"Münsterschwarzach","_id":2867510,"coord":{"lon":10.25,"lat":49.799999}},{"displayName":"Münstertal, DE","country":"DE","name":"Münstertal","_id":3205409,"coord":{"lon":7.78333,"lat":47.849998}},{"displayName":"Münzkirchen, AT","country":"AT","name":"Münzkirchen","_id":7872128,"coord":{"lon":13.57018,"lat":48.484409}},{"displayName":"Münzkirchen, AT","country":"AT","name":"Münzkirchen","_id":2771020,"coord":{"lon":13.56667,"lat":48.48333}},{"displayName":"Mürlenbach, DE","country":"DE","name":"Mürlenbach","_id":6554703,"coord":{"lon":6.6,"lat":50.150002}},{"displayName":"Mürren, CH","country":"CH","name":"Mürren","_id":2659530,"coord":{"lon":7.8929,"lat":46.5588}},{"displayName":"Mürzhofen, AT","country":"AT","name":"Mürzhofen","_id":7872460,"coord":{"lon":15.39519,"lat":47.484451}},{"displayName":"Mürzsteg, AT","country":"AT","name":"Mürzsteg","_id":7873517,"coord":{"lon":15.4676,"lat":47.697411}},{"displayName":"Mürzzuschlag, AT","country":"AT","name":"Mürzzuschlag","_id":7872461,"coord":{"lon":15.67877,"lat":47.611309}},{"displayName":"Müsch, DE","country":"DE","name":"Müsch","_id":2867413,"coord":{"lon":7.18333,"lat":50.283329}},{"displayName":"Müsch, DE","country":"DE","name":"Müsch","_id":6553325,"coord":{"lon":6.83333,"lat":50.383301}},{"displayName":"Müschenbach, DE","country":"DE","name":"Müschenbach","_id":6554249,"coord":{"lon":7.78333,"lat":50.6833}},{"displayName":"Müsselmow, DE","country":"DE","name":"Müsselmow","_id":2867367,"coord":{"lon":11.61667,"lat":53.683331}},{"displayName":"Müssen, DE","country":"DE","name":"Müssen","_id":6551484,"coord":{"lon":10.5667,"lat":53.5}},{"displayName":"Müssingen, DE","country":"DE","name":"Müssingen","_id":2867351,"coord":{"lon":7.88333,"lat":51.950001}},{"displayName":"Müstair, CH","country":"CH","name":"Müstair","_id":2659525,"coord":{"lon":10.44624,"lat":46.626831}},{"displayName":"Müstert, DE","country":"DE","name":"Müstert","_id":2867347,"coord":{"lon":6.93333,"lat":49.866669}},{"displayName":"Müswangen, CH","country":"CH","name":"Müswangen","_id":7302240,"coord":{"lon":8.28914,"lat":47.238281}},{"displayName":"Mützel, DE","country":"DE","name":"Mützel","_id":2867304,"coord":{"lon":12.18333,"lat":52.383331}},{"displayName":"Mützenich, DE","country":"DE","name":"Mützenich","_id":2867296,"coord":{"lon":6.21667,"lat":50.566669}},{"displayName":"Mützenich, DE","country":"DE","name":"Mützenich","_id":6554574,"coord":{"lon":6.26667,"lat":50.25}},{"displayName":"Mützlitz, DE","country":"DE","name":"Mützlitz","_id":2867288,"coord":{"lon":12.51667,"lat":52.549999}},{"displayName":"Mākū, IR","country":"IR","name":"Mākū","_id":6672193,"coord":{"lon":44.4809,"lat":39.294399}},{"displayName":"Mālpils Novads, LV","country":"LV","name":"Mālpils Novads","_id":7628364,"coord":{"lon":24.973061,"lat":56.994438}},{"displayName":"Māmā’ī, IR","country":"IR","name":"Māmā’ī","_id":39161,"coord":{"lon":54.397739,"lat":36.892578}},{"displayName":"Mānikganj, BD","country":"BD","name":"Mānikganj","_id":1348441,"coord":{"lon":90.012497,"lat":23.85528}},{"displayName":"Mānpur, IN","country":"IN","name":"Mānpur","_id":1263629,"coord":{"lon":77.283333,"lat":27.983334}},{"displayName":"Mānpur, IN","country":"IN","name":"Mānpur","_id":1263630,"coord":{"lon":76.683334,"lat":26.966667}},{"displayName":"Mārith, TN","country":"TN","name":"Mārith","_id":2469174,"coord":{"lon":10.28536,"lat":33.617939}},{"displayName":"Mārkā, JO","country":"JO","name":"Mārkā","_id":248174,"coord":{"lon":35.98333,"lat":31.98333}},{"displayName":"Mārupe, LV","country":"LV","name":"Mārupe","_id":864723,"coord":{"lon":24.046667,"lat":56.900276}},{"displayName":"Mārupes Novads, LV","country":"LV","name":"Mārupes Novads","_id":7628319,"coord":{"lon":23.958891,"lat":56.886391}},{"displayName":"Măcicaşu, RO","country":"RO","name":"Măcicaşu","_id":674231,"coord":{"lon":23.566669,"lat":46.900002}},{"displayName":"Mēta, ET","country":"ET","name":"Mēta","_id":330814,"coord":{"lon":41.5075,"lat":9.34556}},{"displayName":"Mędrzechów, PL","country":"PL","name":"Mędrzechów","_id":7532646,"coord":{"lon":20.968201,"lat":50.279598}},{"displayName":"Mīr ‘Alā, AF","country":"AF","name":"Mīr ‘Alā","_id":1423348,"coord":{"lon":69.168083,"lat":35.05928}},{"displayName":"Mīānūr Kalā, AF","country":"AF","name":"Mīānūr Kalā","_id":1438158,"coord":{"lon":69.252777,"lat":33.628132}},{"displayName":"Mława, PL","country":"PL","name":"Mława","_id":7532889,"coord":{"lon":20.381201,"lat":53.134102}},{"displayName":"Młyny, PL","country":"PL","name":"Młyny","_id":3091609,"coord":{"lon":19.25,"lat":50.099998}},{"displayName":"Mŭrchaevo, BG","country":"BG","name":"Mŭrchaevo","_id":728921,"coord":{"lon":23.183331,"lat":42.599998}},{"displayName":"M’dik, MA","country":"MA","name":"M’dik","_id":2542898,"coord":{"lon":-5.32285,"lat":35.681561}},{"displayName":"N. S. das Graças, BR","country":"BR","name":"N. S. das Graças","_id":3754131,"coord":{"lon":-60.021111,"lat":-3.11083}},{"displayName":"Na Bon, TH","country":"TH","name":"Na Bon","_id":1151958,"coord":{"lon":99.594719,"lat":8.26167}},{"displayName":"Na Chaluai, TH","country":"TH","name":"Na Chaluai","_id":1608570,"coord":{"lon":105.244781,"lat":14.52046}},{"displayName":"Na Chueak, TH","country":"TH","name":"Na Chueak","_id":1608568,"coord":{"lon":103.031837,"lat":15.79338}},{"displayName":"Na Chueak, TH","country":"TH","name":"Na Chueak","_id":7510974,"coord":{"lon":103.031113,"lat":15.79911}},{"displayName":"Na Di, TH","country":"TH","name":"Na Di","_id":1616464,"coord":{"lon":101.781891,"lat":14.11517}},{"displayName":"Na Dun, TH","country":"TH","name":"Na Dun","_id":1595865,"coord":{"lon":103.227814,"lat":15.71668}},{"displayName":"Na Haeo, TH","country":"TH","name":"Na Haeo","_id":1616445,"coord":{"lon":101.068077,"lat":17.485359}},{"displayName":"Na Kae, TH","country":"TH","name":"Na Kae","_id":1608551,"coord":{"lon":104.500809,"lat":16.94644}},{"displayName":"Na Khu, TH","country":"TH","name":"Na Khu","_id":1616379,"coord":{"lon":104.02626,"lat":16.76384}},{"displayName":"Na Klang, TH","country":"TH","name":"Na Klang","_id":1604654,"coord":{"lon":102.188858,"lat":17.307199}},{"displayName":"Na Klang, TH","country":"TH","name":"Na Klang","_id":1608521,"coord":{"lon":102.188858,"lat":17.307199}},{"displayName":"Na Mom, TH","country":"TH","name":"Na Mom","_id":1600983,"coord":{"lon":100.556831,"lat":6.95856}},{"displayName":"Na Mom, TH","country":"TH","name":"Na Mom","_id":7096430,"coord":{"lon":100.556831,"lat":6.95856}},{"displayName":"Na Mon, TH","country":"TH","name":"Na Mon","_id":1608484,"coord":{"lon":103.787109,"lat":16.57653}},{"displayName":"Na Muen, TH","country":"TH","name":"Na Muen","_id":1608457,"coord":{"lon":100.660469,"lat":18.18931}},{"displayName":"Na Muen, TH","country":"TH","name":"Na Muen","_id":7510915,"coord":{"lon":100.65847,"lat":18.190001}},{"displayName":"Na Noi, TH","country":"TH","name":"Na Noi","_id":1608418,"coord":{"lon":100.714172,"lat":18.326389}},{"displayName":"Na Pho, TH","country":"TH","name":"Na Pho","_id":1608415,"coord":{"lon":102.95462,"lat":15.64113}},{"displayName":"Na Tan, TH","country":"TH","name":"Na Tan","_id":1600814,"coord":{"lon":105.293182,"lat":15.89749}},{"displayName":"Na Thawi, TH","country":"TH","name":"Na Thawi","_id":1608402,"coord":{"lon":100.691391,"lat":6.74192}},{"displayName":"Na Thom, TH","country":"TH","name":"Na Thom","_id":1616090,"coord":{"lon":104.09082,"lat":17.78491}},{"displayName":"Na Wa, TH","country":"TH","name":"Na Wa","_id":1608399,"coord":{"lon":104.100563,"lat":17.4897}},{"displayName":"Na Wang, TH","country":"TH","name":"Na Wang","_id":7510952,"coord":{"lon":102.0783,"lat":17.32444}},{"displayName":"Na Yai Am, TH","country":"TH","name":"Na Yai Am","_id":1616066,"coord":{"lon":101.822563,"lat":12.78153}},{"displayName":"Na Yia, TH","country":"TH","name":"Na Yia","_id":1616060,"coord":{"lon":105.059937,"lat":15.06367}},{"displayName":"Na Yung, TH","country":"TH","name":"Na Yung","_id":1600752,"coord":{"lon":102.149811,"lat":17.89747}},{"displayName":"Naagas, PH","country":"PH","name":"Naagas","_id":1698802,"coord":{"lon":123.678101,"lat":13.4357}},{"displayName":"Naaldwijk, NL","country":"NL","name":"Naaldwijk","_id":2750523,"coord":{"lon":4.20972,"lat":51.994171}},{"displayName":"Naale, IL","country":"IL","name":"Naale","_id":8199389,"coord":{"lon":35.065529,"lat":31.96236}},{"displayName":"Naama, DZ","country":"DZ","name":"Naama","_id":2486523,"coord":{"lon":-0.31667,"lat":33.26667}},{"displayName":"Naama, EG","country":"EG","name":"Naama","_id":7280514,"coord":{"lon":34.329529,"lat":27.913811}},{"displayName":"Naantali, FI","country":"FI","name":"Naantali","_id":645212,"coord":{"lon":22.033331,"lat":60.450001}},{"displayName":"Naantali, FI","country":"FI","name":"Naantali","_id":645211,"coord":{"lon":22.024281,"lat":60.467442}},{"displayName":"Naarden, NL","country":"NL","name":"Naarden","_id":2750521,"coord":{"lon":5.1625,"lat":52.29583}},{"displayName":"Naarmonts, BE","country":"BE","name":"Naarmonts","_id":2790506,"coord":{"lon":4.2,"lat":50.683331}},{"displayName":"Naas, AT","country":"AT","name":"Naas","_id":7873569,"coord":{"lon":15.58568,"lat":47.251362}},{"displayName":"Naas, AT","country":"AT","name":"Naas","_id":2770966,"coord":{"lon":15.6,"lat":47.23333}},{"displayName":"Naas, IE","country":"IE","name":"Naas","_id":2962334,"coord":{"lon":-6.66694,"lat":53.215832}},{"displayName":"Naawan, PH","country":"PH","name":"Naawan","_id":1699010,"coord":{"lon":124.288887,"lat":8.43444}},{"displayName":"Nabagram, IN","country":"IN","name":"Nabagram","_id":1349357,"coord":{"lon":88.509171,"lat":22.288059}},{"displayName":"Nabais, PT","country":"PT","name":"Nabais","_id":8012120,"coord":{"lon":-7.56274,"lat":40.529289}},{"displayName":"Nabais, PT","country":"PT","name":"Nabais","_id":2737229,"coord":{"lon":-7.55526,"lat":40.519901}},{"displayName":"Nabangig, PH","country":"PH","name":"Nabangig","_id":1698985,"coord":{"lon":123.950302,"lat":12.0989}},{"displayName":"Nabannagan, PH","country":"PH","name":"Nabannagan","_id":1698914,"coord":{"lon":121.533752,"lat":18.071489}},{"displayName":"Nabari, JP","country":"JP","name":"Nabari","_id":1856293,"coord":{"lon":136.083328,"lat":34.616669}},{"displayName":"Nabas, PH","country":"PH","name":"Nabas","_id":1698976,"coord":{"lon":122.086998,"lat":11.831}},{"displayName":"Nabatiye et Tahta, LB","country":"LB","name":"Nabatiye et Tahta","_id":278913,"coord":{"lon":35.483891,"lat":33.378891}},{"displayName":"Nabawa, AU","country":"AU","name":"Nabawa","_id":2065092,"coord":{"lon":114.783333,"lat":-28.5}},{"displayName":"Nabburg, DE","country":"DE","name":"Nabburg","_id":2867262,"coord":{"lon":12.17861,"lat":49.453609}},{"displayName":"Naberera, TZ","country":"TZ","name":"Naberera","_id":152042,"coord":{"lon":36.933331,"lat":-4.2}},{"displayName":"Naberezhnyy, RU","country":"RU","name":"Naberezhnyy","_id":840911,"coord":{"lon":39.621387,"lat":45.215832}},{"displayName":"Naberezhnyye Chelny, RU","country":"RU","name":"Naberezhnyye Chelny","_id":523750,"coord":{"lon":52.42889,"lat":55.756111}},{"displayName":"Nabesna, US","country":"US","name":"Nabesna","_id":5869541,"coord":{"lon":-143.008606,"lat":62.371941}},{"displayName":"Nabeul, TN","country":"TN","name":"Nabeul","_id":2468579,"coord":{"lon":10.73763,"lat":36.456059}},{"displayName":"Nabha, IN","country":"IN","name":"Nabha","_id":1262319,"coord":{"lon":76.148613,"lat":30.37472}},{"displayName":"Nabiac, AU","country":"AU","name":"Nabiac","_id":2155892,"coord":{"lon":152.383331,"lat":-32.099998}},{"displayName":"Nabinagar, BD","country":"BD","name":"Nabinagar","_id":1193823,"coord":{"lon":90.973328,"lat":23.89167}},{"displayName":"Nabinagar, IN","country":"IN","name":"Nabinagar","_id":1262318,"coord":{"lon":84.116669,"lat":24.616671}},{"displayName":"Nabire, ID","country":"ID","name":"Nabire","_id":1634614,"coord":{"lon":135.483337,"lat":-3.36667}},{"displayName":"Nabisar, PK","country":"PK","name":"Nabisar","_id":1169580,"coord":{"lon":69.641861,"lat":25.068541}},{"displayName":"Nablus, PS","country":"PS","name":"Nablus","_id":282615,"coord":{"lon":35.25444,"lat":32.221111}},{"displayName":"Nabo, PT","country":"PT","name":"Nabo","_id":8011596,"coord":{"lon":-7.13328,"lat":41.262321}},{"displayName":"Nabo, PT","country":"PT","name":"Nabo","_id":2737228,"coord":{"lon":-7.14399,"lat":41.268478}},{"displayName":"Naboomspruit, ZA","country":"ZA","name":"Naboomspruit","_id":972206,"coord":{"lon":28.716669,"lat":-24.51667}},{"displayName":"Nabowla, AU","country":"AU","name":"Nabowla","_id":2155887,"coord":{"lon":147.366669,"lat":-41.166672}},{"displayName":"Nabua, PH","country":"PH","name":"Nabua","_id":1698923,"coord":{"lon":123.333328,"lat":13.38333}},{"displayName":"Nabua, PH","country":"PH","name":"Nabua","_id":1698921,"coord":{"lon":123.372398,"lat":13.4075}},{"displayName":"Nabulao, PH","country":"PH","name":"Nabulao","_id":1698905,"coord":{"lon":122.457703,"lat":9.6616}},{"displayName":"Nabunturan, PH","country":"PH","name":"Nabunturan","_id":1698888,"coord":{"lon":126.01667,"lat":7.58333}},{"displayName":"Nabunturan, PH","country":"PH","name":"Nabunturan","_id":1698887,"coord":{"lon":125.966393,"lat":7.60778}},{"displayName":"Nacajuca, MX","country":"MX","name":"Nacajuca","_id":3522865,"coord":{"lon":-93.01667,"lat":18.133329}},{"displayName":"Nacaome, HN","country":"HN","name":"Nacaome","_id":3604522,"coord":{"lon":-87.487503,"lat":13.53611}},{"displayName":"Naceradec, CZ","country":"CZ","name":"Naceradec","_id":3070129,"coord":{"lon":14.90633,"lat":49.61018}},{"displayName":"Nachalovo, RU","country":"RU","name":"Nachalovo","_id":523734,"coord":{"lon":48.201279,"lat":46.338001}},{"displayName":"Nachingwea, TZ","country":"TZ","name":"Nachingwea","_id":877702,"coord":{"lon":38.76667,"lat":-10.38333}},{"displayName":"Nachod, CZ","country":"CZ","name":"Nachod","_id":3070122,"coord":{"lon":16.162889,"lat":50.416698}},{"displayName":"Nachrodt-Wiblingwerde, DE","country":"DE","name":"Nachrodt-Wiblingwerde","_id":6553139,"coord":{"lon":7.62917,"lat":51.3167}},{"displayName":"Nachrodt-Wiblingwerde, DE","country":"DE","name":"Nachrodt-Wiblingwerde","_id":2867252,"coord":{"lon":7.61667,"lat":51.316669}},{"displayName":"Nachterstedt, DE","country":"DE","name":"Nachterstedt","_id":2867245,"coord":{"lon":11.33489,"lat":51.800812}},{"displayName":"Nachtmanderscheid, LU","country":"LU","name":"Nachtmanderscheid","_id":2960245,"coord":{"lon":6.12944,"lat":49.94833}},{"displayName":"Nachtsheim, DE","country":"DE","name":"Nachtsheim","_id":6553772,"coord":{"lon":7.06667,"lat":50.3167}},{"displayName":"Nachtsheim, DE","country":"DE","name":"Nachtsheim","_id":2867240,"coord":{"lon":7.06667,"lat":50.316669}},{"displayName":"Nacimiento, CL","country":"CL","name":"Nacimiento","_id":3879123,"coord":{"lon":-72.666672,"lat":-37.5}},{"displayName":"Nacimiento, ES","country":"ES","name":"Nacimiento","_id":2513390,"coord":{"lon":-2.64846,"lat":37.106152}},{"displayName":"Naciria, DZ","country":"DZ","name":"Naciria","_id":2486505,"coord":{"lon":3.83163,"lat":36.74625}},{"displayName":"Nack, DE","country":"DE","name":"Nack","_id":6554867,"coord":{"lon":8.00278,"lat":49.746399}},{"displayName":"Nack, DE","country":"DE","name":"Nack","_id":2867237,"coord":{"lon":8.00278,"lat":49.746391}},{"displayName":"Nacka Kommun, SE","country":"SE","name":"Nacka Kommun","_id":2690578,"coord":{"lon":18.17551,"lat":59.310768}},{"displayName":"Nacka, SE","country":"SE","name":"Nacka","_id":2690580,"coord":{"lon":18.163719,"lat":59.310532}},{"displayName":"Nackawic, CA","country":"CA","name":"Nackawic","_id":6085444,"coord":{"lon":-67.218903,"lat":45.993408}},{"displayName":"Nackenheim, DE","country":"DE","name":"Nackenheim","_id":6555287,"coord":{"lon":8.33675,"lat":49.920448}},{"displayName":"Nackenheim, DE","country":"DE","name":"Nackenheim","_id":2867229,"coord":{"lon":8.33889,"lat":49.915279}},{"displayName":"Naco, HN","country":"HN","name":"Naco","_id":3604518,"coord":{"lon":-88.183327,"lat":15.38333}},{"displayName":"Naco, MX","country":"MX","name":"Naco","_id":3995171,"coord":{"lon":-109.948334,"lat":31.334721}},{"displayName":"Naco, US","country":"US","name":"Naco","_id":5306112,"coord":{"lon":-109.948128,"lat":31.335381}},{"displayName":"Nacogdoches County, US","country":"US","name":"Nacogdoches County","_id":4713738,"coord":{"lon":-94.633537,"lat":31.60018}},{"displayName":"Nacogdoches, US","country":"US","name":"Nacogdoches","_id":4713735,"coord":{"lon":-94.655487,"lat":31.60351}},{"displayName":"Nacozari Viejo, MX","country":"MX","name":"Nacozari Viejo","_id":3995155,"coord":{"lon":-109.650002,"lat":30.4}},{"displayName":"Nacton, GB","country":"GB","name":"Nacton","_id":2641918,"coord":{"lon":1.23589,"lat":52.01825}},{"displayName":"Nada, CN","country":"CN","name":"Nada","_id":1800234,"coord":{"lon":109.578598,"lat":19.52257}},{"displayName":"Nadadores, MX","country":"MX","name":"Nadadores","_id":3995154,"coord":{"lon":-101.599998,"lat":27.049999}},{"displayName":"Nadadouro, PT","country":"PT","name":"Nadadouro","_id":8012344,"coord":{"lon":-9.19178,"lat":39.418449}},{"displayName":"Nadaillat, FR","country":"FR","name":"Nadaillat","_id":2991056,"coord":{"lon":3.03317,"lat":45.690128}},{"displayName":"Nadalj, RS","country":"RS","name":"Nadalj","_id":3194608,"coord":{"lon":19.92194,"lat":45.506939}},{"displayName":"Nadapuram, IN","country":"IN","name":"Nadapuram","_id":1262302,"coord":{"lon":75.666672,"lat":11.7}},{"displayName":"Nadarzyn, PL","country":"PL","name":"Nadarzyn","_id":764194,"coord":{"lon":20.80776,"lat":52.094379}},{"displayName":"Nadaun, IN","country":"IN","name":"Nadaun","_id":1262300,"coord":{"lon":76.349998,"lat":31.783331}},{"displayName":"Nadbai, IN","country":"IN","name":"Nadbai","_id":1262296,"coord":{"lon":77.199997,"lat":27.23333}},{"displayName":"Nades, FR","country":"FR","name":"Nades","_id":6425417,"coord":{"lon":2.98333,"lat":46.166672}},{"displayName":"Nades, FR","country":"FR","name":"Nades","_id":2991053,"coord":{"lon":2.96939,"lat":46.159199}},{"displayName":"Nades, RO","country":"RO","name":"Nades","_id":672551,"coord":{"lon":24.73333,"lat":46.316669}},{"displayName":"Nadeyeno, RU","country":"RU","name":"Nadeyeno","_id":816677,"coord":{"lon":35.506111,"lat":54.49139}},{"displayName":"Nadezhda, RU","country":"RU","name":"Nadezhda","_id":523715,"coord":{"lon":44.599998,"lat":44.099998}},{"displayName":"Nadezhdino, RU","country":"RU","name":"Nadezhdino","_id":559198,"coord":{"lon":38.433613,"lat":55.490276}},{"displayName":"Nadi, FJ","country":"FJ","name":"Nadi","_id":2202064,"coord":{"lon":177.416672,"lat":-17.799999}},{"displayName":"Nadiad, IN","country":"IN","name":"Nadiad","_id":1262292,"coord":{"lon":72.866669,"lat":22.700001}},{"displayName":"Nadigaon, IN","country":"IN","name":"Nadigaon","_id":1262291,"coord":{"lon":79.033333,"lat":26.116671}},{"displayName":"Nadiket, UG","country":"UG","name":"Nadiket","_id":228512,"coord":{"lon":34.650002,"lat":2.51667}},{"displayName":"Nadil, AZ","country":"AZ","name":"Nadil","_id":585407,"coord":{"lon":46.288891,"lat":40.74139}},{"displayName":"Nadlac, RO","country":"RO","name":"Nadlac","_id":672546,"coord":{"lon":20.75,"lat":46.166672}},{"displayName":"Nador, MA","country":"MA","name":"Nador","_id":2541472,"coord":{"lon":-3.0,"lat":35.0}},{"displayName":"Nador, MA","country":"MA","name":"Nador","_id":6547050,"coord":{"lon":-2.93621,"lat":35.17498}},{"displayName":"Nador, MA","country":"MA","name":"Nador","_id":2541479,"coord":{"lon":-2.92866,"lat":35.174042}},{"displayName":"Nadovrazhino, RU","country":"RU","name":"Nadovrazhino","_id":6417886,"coord":{"lon":37.116669,"lat":55.914722}},{"displayName":"Nadrag, RO","country":"RO","name":"Nadrag","_id":672544,"coord":{"lon":22.183331,"lat":45.650002}},{"displayName":"Nadrensee, DE","country":"DE","name":"Nadrensee","_id":6548470,"coord":{"lon":14.35,"lat":53.333302}},{"displayName":"Nadrensee, DE","country":"DE","name":"Nadrensee","_id":2867206,"coord":{"lon":14.35,"lat":53.333328}},{"displayName":"Nadtochiv, UA","country":"UA","name":"Nadtochiv","_id":812803,"coord":{"lon":36.098888,"lat":49.963058}},{"displayName":"Nadudvar, HU","country":"HU","name":"Nadudvar","_id":717449,"coord":{"lon":21.16667,"lat":47.416672}},{"displayName":"Nadur, MT","country":"MT","name":"Nadur","_id":2562687,"coord":{"lon":14.29417,"lat":36.037781}},{"displayName":"Naduvattam, IN","country":"IN","name":"Naduvattam","_id":1262284,"coord":{"lon":76.566673,"lat":11.48333}},{"displayName":"Nadvirna, UA","country":"UA","name":"Nadvirna","_id":700507,"coord":{"lon":24.569361,"lat":48.6348}},{"displayName":"Nadvoitsy, RU","country":"RU","name":"Nadvoitsy","_id":523662,"coord":{"lon":34.316669,"lat":63.866669}},{"displayName":"Nadychi, UA","country":"UA","name":"Nadychi","_id":700500,"coord":{"lon":24.0793,"lat":49.979519}},{"displayName":"Nadym, RU","country":"RU","name":"Nadym","_id":1498087,"coord":{"lon":72.51667,"lat":65.533333}},{"displayName":"Nadzab, PG","country":"PG","name":"Nadzab","_id":2090136,"coord":{"lon":146.739258,"lat":-6.56729}},{"displayName":"Nadzhigo, RU","country":"RU","name":"Nadzhigo","_id":523644,"coord":{"lon":39.263889,"lat":44.048889}},{"displayName":"Nae, ID","country":"ID","name":"Nae","_id":7381978,"coord":{"lon":118.981598,"lat":-8.5646}},{"displayName":"Naebugis, ID","country":"ID","name":"Naebugis","_id":7586854,"coord":{"lon":119.006897,"lat":-8.5774}},{"displayName":"Naendorf, DE","country":"DE","name":"Naendorf","_id":2867204,"coord":{"lon":7.2,"lat":52.150002}},{"displayName":"Naeni, RO","country":"RO","name":"Naeni","_id":672540,"coord":{"lon":26.48333,"lat":45.099998}},{"displayName":"Naenikon / Naenikon (Dorfkern), CH","country":"CH","name":"Naenikon / Naenikon (Dorfkern)","_id":6294555,"coord":{"lon":8.69254,"lat":47.370991}},{"displayName":"Naerbo, NO","country":"NO","name":"Naerbo","_id":3145080,"coord":{"lon":5.65,"lat":58.666672}},{"displayName":"Naerhong, CN","country":"CN","name":"Naerhong","_id":2035613,"coord":{"lon":126.991531,"lat":42.691391}},{"displayName":"Naerpes, FI","country":"FI","name":"Naerpes","_id":645081,"coord":{"lon":21.33707,"lat":62.472832}},{"displayName":"Naeso, KR","country":"KR","name":"Naeso","_id":1925936,"coord":{"lon":128.520004,"lat":35.249722}},{"displayName":"Naestved, DK","country":"DK","name":"Naestved","_id":2616038,"coord":{"lon":11.76092,"lat":55.229919}},{"displayName":"Nafada, NG","country":"NG","name":"Nafada","_id":2329562,"coord":{"lon":11.3327,"lat":11.0956}},{"displayName":"Nafels, CH","country":"CH","name":"Nafels","_id":2659516,"coord":{"lon":9.06411,"lat":47.099751}},{"displayName":"Nafferton, GB","country":"GB","name":"Nafferton","_id":2641915,"coord":{"lon":-0.38976,"lat":54.019169}},{"displayName":"Nafpaktos, GR","country":"GR","name":"Nafpaktos","_id":256639,"coord":{"lon":21.827499,"lat":38.39167}},{"displayName":"Nafplio, GR","country":"GR","name":"Nafplio","_id":256637,"coord":{"lon":22.805281,"lat":37.568279}},{"displayName":"Nafria de Ucero, ES","country":"ES","name":"Nafria de Ucero","_id":3115787,"coord":{"lon":-3.09499,"lat":41.722729}},{"displayName":"Nafría de Ucero, ES","country":"ES","name":"Nafría de Ucero","_id":6361168,"coord":{"lon":-3.10085,"lat":41.721458}},{"displayName":"Naftalan City, AZ","country":"AZ","name":"Naftalan City","_id":828300,"coord":{"lon":46.716671,"lat":40.48333}},{"displayName":"Naftalan, AZ","country":"AZ","name":"Naftalan","_id":585400,"coord":{"lon":46.825001,"lat":40.506672}},{"displayName":"Naftel, FR","country":"FR","name":"Naftel","_id":2991050,"coord":{"lon":-1.13241,"lat":48.609928}},{"displayName":"Naga City, PH","country":"PH","name":"Naga City","_id":1698822,"coord":{"lon":123.183327,"lat":13.61667}},{"displayName":"Naga, PH","country":"PH","name":"Naga","_id":1698829,"coord":{"lon":123.181389,"lat":13.61917}},{"displayName":"Naga, PH","country":"PH","name":"Naga","_id":1698842,"coord":{"lon":123.716667,"lat":10.25}},{"displayName":"Naga, PH","country":"PH","name":"Naga","_id":1698839,"coord":{"lon":123.758003,"lat":10.20898}},{"displayName":"Naga, PH","country":"PH","name":"Naga","_id":1698840,"coord":{"lon":122.750832,"lat":7.77028}},{"displayName":"Nagahama, JP","country":"JP","name":"Nagahama","_id":1856243,"coord":{"lon":136.266663,"lat":35.383331}},{"displayName":"Nagahamamachi, JP","country":"JP","name":"Nagahamamachi","_id":1856239,"coord":{"lon":131.616669,"lat":33.23333}},{"displayName":"Nagai, JP","country":"JP","name":"Nagai","_id":2111781,"coord":{"lon":140.035004,"lat":38.103611}},{"displayName":"Nagamangala, IN","country":"IN","name":"Nagamangala","_id":1262266,"coord":{"lon":76.7575,"lat":12.81556}},{"displayName":"Nagambie, AU","country":"AU","name":"Nagambie","_id":2155878,"coord":{"lon":145.166672,"lat":-36.783329}},{"displayName":"Nagano-ken, JP","country":"JP","name":"Nagano-ken","_id":1856210,"coord":{"lon":138.040771,"lat":36.13464}},{"displayName":"Nagano-shi, JP","country":"JP","name":"Nagano-shi","_id":1856215,"coord":{"lon":138.181107,"lat":36.65139}},{"displayName":"Naganohara, JP","country":"JP","name":"Naganohara","_id":1856212,"coord":{"lon":138.633331,"lat":36.549999}},{"displayName":"Nagao, JP","country":"JP","name":"Nagao","_id":1856207,"coord":{"lon":134.166672,"lat":34.26667}},{"displayName":"Nagaoka, JP","country":"JP","name":"Nagaoka","_id":1856199,"coord":{"lon":138.850006,"lat":37.450001}},{"displayName":"Nagappattinam, IN","country":"IN","name":"Nagappattinam","_id":1262260,"coord":{"lon":79.833328,"lat":10.76667}},{"displayName":"Nagar Karnul, IN","country":"IN","name":"Nagar Karnul","_id":1262230,"coord":{"lon":78.324707,"lat":16.4821}},{"displayName":"Nagar, IN","country":"IN","name":"Nagar","_id":1262253,"coord":{"lon":77.099998,"lat":27.433331}},{"displayName":"Nagar, IN","country":"IN","name":"Nagar","_id":1443470,"coord":{"lon":77.055283,"lat":31.226391}},{"displayName":"Nagar, IN","country":"IN","name":"Nagar","_id":1262252,"coord":{"lon":77.166672,"lat":32.116669}},{"displayName":"Nagara Tengah, ID","country":"ID","name":"Nagara Tengah","_id":7920342,"coord":{"lon":107.883598,"lat":-7.1934}},{"displayName":"Nagaracinta, ID","country":"ID","name":"Nagaracinta","_id":7912043,"coord":{"lon":107.814301,"lat":-7.2928}},{"displayName":"Nagarakembang, ID","country":"ID","name":"Nagarakembang","_id":8052239,"coord":{"lon":108.334198,"lat":-7.0397}},{"displayName":"Nagarasari, ID","country":"ID","name":"Nagarasari","_id":8023847,"coord":{"lon":108.221298,"lat":-7.3003}},{"displayName":"Nagareyama, JP","country":"JP","name":"Nagareyama","_id":1856184,"coord":{"lon":139.902664,"lat":35.8563}},{"displayName":"Nagari, IN","country":"IN","name":"Nagari","_id":1262240,"coord":{"lon":79.583328,"lat":13.33333}},{"displayName":"Nagaria Ahīrān, IN","country":"IN","name":"Nagaria Ahīrān","_id":6994417,"coord":{"lon":79.663101,"lat":27.7101}},{"displayName":"Nagarkot, NP","country":"NP","name":"Nagarkot","_id":7800118,"coord":{"lon":85.503098,"lat":27.713699}},{"displayName":"Nagarkot, NP","country":"NP","name":"Nagarkot","_id":1283018,"coord":{"lon":85.51667,"lat":27.700001}},{"displayName":"Nagarote, NI","country":"NI","name":"Nagarote","_id":3617522,"coord":{"lon":-86.564743,"lat":12.26593}},{"displayName":"Nagasaki-ken, JP","country":"JP","name":"Nagasaki-ken","_id":1856156,"coord":{"lon":129.611084,"lat":33.23344}},{"displayName":"Nagasaki-shi, JP","country":"JP","name":"Nagasaki-shi","_id":1856177,"coord":{"lon":129.873611,"lat":32.74472}},{"displayName":"Nagasari, ID","country":"ID","name":"Nagasari","_id":7848741,"coord":{"lon":106.959198,"lat":-7.3722}},{"displayName":"Nagasu, JP","country":"JP","name":"Nagasu","_id":2111756,"coord":{"lon":140.516663,"lat":36.283329}},{"displayName":"Nagatino, RU","country":"RU","name":"Nagatino","_id":520077,"coord":{"lon":37.683334,"lat":55.683334}},{"displayName":"Nagatino-Sadovniki, RU","country":"RU","name":"Nagatino-Sadovniki","_id":499540,"coord":{"lon":37.655556,"lat":55.672222}},{"displayName":"Nagato, JP","country":"JP","name":"Nagato","_id":1899102,"coord":{"lon":131.199997,"lat":34.383331}},{"displayName":"Nagaur, IN","country":"IN","name":"Nagaur","_id":1262216,"coord":{"lon":73.73333,"lat":27.200001}},{"displayName":"Nagbacalan, PH","country":"PH","name":"Nagbacalan","_id":1698783,"coord":{"lon":120.523499,"lat":18.1159}},{"displayName":"Nagbalaye, PH","country":"PH","name":"Nagbalaye","_id":1698777,"coord":{"lon":122.8759,"lat":9.2492}},{"displayName":"Nagbukel, PH","country":"PH","name":"Nagbukel","_id":1698750,"coord":{"lon":120.524696,"lat":17.4471}},{"displayName":"Nagcarlan, PH","country":"PH","name":"Nagcarlan","_id":1698741,"coord":{"lon":121.416672,"lat":14.13333}},{"displayName":"Nagcarlan, PH","country":"PH","name":"Nagcarlan","_id":1698740,"coord":{"lon":121.416496,"lat":14.1364}},{"displayName":"Nagda, IN","country":"IN","name":"Nagda","_id":1262209,"coord":{"lon":75.416672,"lat":23.450001}},{"displayName":"Nagel, DE","country":"DE","name":"Nagel","_id":2867198,"coord":{"lon":11.91667,"lat":49.98333}},{"displayName":"Nagel, DE","country":"DE","name":"Nagel","_id":6556826,"coord":{"lon":11.9167,"lat":49.983299}},{"displayName":"Nagel, DE","country":"DE","name":"Nagel","_id":2867197,"coord":{"lon":11.25,"lat":50.183331}},{"displayName":"Nagem, LU","country":"LU","name":"Nagem","_id":2960244,"coord":{"lon":5.85778,"lat":49.789169}},{"displayName":"Nagercoil, IN","country":"IN","name":"Nagercoil","_id":1262204,"coord":{"lon":77.433327,"lat":8.16667}},{"displayName":"Nages-et-Solorgues, FR","country":"FR","name":"Nages-et-Solorgues","_id":6431347,"coord":{"lon":4.23333,"lat":43.783329}},{"displayName":"Nages-et-Solorgues, FR","country":"FR","name":"Nages-et-Solorgues","_id":2991046,"coord":{"lon":4.23027,"lat":43.7901}},{"displayName":"Nageswari, BD","country":"BD","name":"Nageswari","_id":1185160,"coord":{"lon":89.692993,"lat":25.968809}},{"displayName":"Naghalin, PH","country":"PH","name":"Naghalin","_id":1698728,"coord":{"lon":124.567101,"lat":11.1456}},{"displayName":"Naghbī, SA","country":"SA","name":"Naghbī","_id":103665,"coord":{"lon":42.25,"lat":17.73333}},{"displayName":"Naghvarevi, GE","country":"GE","name":"Naghvarevi","_id":612012,"coord":{"lon":44.76178,"lat":41.352718}},{"displayName":"Nagiba, PH","country":"PH","name":"Nagiba","_id":1698722,"coord":{"lon":121.274323,"lat":13.33018}},{"displayName":"Nagibina, RU","country":"RU","name":"Nagibina","_id":1498077,"coord":{"lon":63.2672,"lat":56.602798}},{"displayName":"Nagina, IN","country":"IN","name":"Nagina","_id":1262200,"coord":{"lon":78.449997,"lat":29.450001}},{"displayName":"Nagireddipalli, IN","country":"IN","name":"Nagireddipalli","_id":1262196,"coord":{"lon":79.099998,"lat":14.26667}},{"displayName":"Nagla Dhīmar, IN","country":"IN","name":"Nagla Dhīmar","_id":1262191,"coord":{"lon":78.033333,"lat":27.183332}},{"displayName":"Naglowice, PL","country":"PL","name":"Naglowice","_id":764168,"coord":{"lon":20.106609,"lat":50.678349}},{"displayName":"Nago, IT","country":"IT","name":"Nago","_id":3172402,"coord":{"lon":10.87338,"lat":45.872898}},{"displayName":"Nago, JP","country":"JP","name":"Nago","_id":1856068,"coord":{"lon":127.976112,"lat":26.58806}},{"displayName":"Nagod, IN","country":"IN","name":"Nagod","_id":1262187,"coord":{"lon":80.599998,"lat":24.566669}},{"displayName":"Nagold, DE","country":"DE","name":"Nagold","_id":2867164,"coord":{"lon":8.72366,"lat":48.549801}},{"displayName":"Nagornaya, RU","country":"RU","name":"Nagornaya","_id":523605,"coord":{"lon":55.004719,"lat":60.018059}},{"displayName":"Nagornovo, RU","country":"RU","name":"Nagornovo","_id":523600,"coord":{"lon":41.863056,"lat":56.630833}},{"displayName":"Nagornoye, RU","country":"RU","name":"Nagornoye","_id":6417876,"coord":{"lon":37.627499,"lat":55.904167}},{"displayName":"Nagornoye, UA","country":"UA","name":"Nagornoye","_id":700490,"coord":{"lon":33.799999,"lat":44.799999}},{"displayName":"Nagornyy, RU","country":"RU","name":"Nagornyy","_id":472732,"coord":{"lon":37.616669,"lat":55.650002}},{"displayName":"Nagornyy, RU","country":"RU","name":"Nagornyy","_id":2131859,"coord":{"lon":179.266663,"lat":63.066669}},{"displayName":"Nagornyy, RU","country":"RU","name":"Nagornyy","_id":1498067,"coord":{"lon":83.549797,"lat":52.795898}},{"displayName":"Nagorsk, RU","country":"RU","name":"Nagorsk","_id":523583,"coord":{"lon":50.807781,"lat":59.317219}},{"displayName":"Nagorskoye, RU","country":"RU","name":"Nagorskoye","_id":523580,"coord":{"lon":41.066666,"lat":57.700001}},{"displayName":"Nagothana, IN","country":"IN","name":"Nagothana","_id":1262183,"coord":{"lon":73.133331,"lat":18.533331}},{"displayName":"Nagoya-shi, JP","country":"JP","name":"Nagoya-shi","_id":1856057,"coord":{"lon":136.906403,"lat":35.181469}},{"displayName":"Nagpandayan, PH","country":"PH","name":"Nagpandayan","_id":1698695,"coord":{"lon":120.765999,"lat":15.5997}},{"displayName":"Nagpur Division, IN","country":"IN","name":"Nagpur Division","_id":8131500,"coord":{"lon":79.107483,"lat":21.149111}},{"displayName":"Nagpur, IN","country":"IN","name":"Nagpur","_id":1262180,"coord":{"lon":79.099998,"lat":21.15}},{"displayName":"Nagqu, CN","country":"CN","name":"Nagqu","_id":1280517,"coord":{"lon":92.0,"lat":31.5}},{"displayName":"Nagrak, ID","country":"ID","name":"Nagrak","_id":1634593,"coord":{"lon":106.465103,"lat":-6.8954}},{"displayName":"Nagrak, ID","country":"ID","name":"Nagrak","_id":7845398,"coord":{"lon":106.553101,"lat":-7.3356}},{"displayName":"Nagrak, ID","country":"ID","name":"Nagrak","_id":7852426,"coord":{"lon":107.596298,"lat":-7.446}},{"displayName":"Nagrak, ID","country":"ID","name":"Nagrak","_id":8069754,"coord":{"lon":108.694603,"lat":-7.5632}},{"displayName":"Nagraksari, ID","country":"ID","name":"Nagraksari","_id":7845133,"coord":{"lon":106.622803,"lat":-7.279}},{"displayName":"Nagram, IN","country":"IN","name":"Nagram","_id":1262168,"coord":{"lon":81.133331,"lat":26.616671}},{"displayName":"Nagreg, ID","country":"ID","name":"Nagreg","_id":1990171,"coord":{"lon":106.335564,"lat":-6.17889}},{"displayName":"Nagreg, ID","country":"ID","name":"Nagreg","_id":7779880,"coord":{"lon":106.0056,"lat":-6.2556}},{"displayName":"Nagreg, ID","country":"ID","name":"Nagreg","_id":7781721,"coord":{"lon":106.089073,"lat":-6.21943}},{"displayName":"Nagrog Wetan, ID","country":"ID","name":"Nagrog Wetan","_id":7920719,"coord":{"lon":107.946899,"lat":-7.2071}},{"displayName":"Nagrog, ID","country":"ID","name":"Nagrog","_id":7780422,"coord":{"lon":106.034203,"lat":-6.3182}},{"displayName":"Nagrog, ID","country":"ID","name":"Nagrog","_id":7914051,"coord":{"lon":107.983803,"lat":-7.6598}},{"displayName":"Nagrog, ID","country":"ID","name":"Nagrog","_id":8017214,"coord":{"lon":108.030098,"lat":-7.3896}},{"displayName":"Nagrog, ID","country":"ID","name":"Nagrog","_id":8042299,"coord":{"lon":107.229698,"lat":-7.0347}},{"displayName":"Nagrok, ID","country":"ID","name":"Nagrok","_id":8022501,"coord":{"lon":108.164597,"lat":-7.3754}},{"displayName":"Nagrota, IN","country":"IN","name":"Nagrota","_id":1262162,"coord":{"lon":76.083328,"lat":32.049999}},{"displayName":"Nagrumboan, PH","country":"PH","name":"Nagrumboan","_id":1698673,"coord":{"lon":121.710831,"lat":16.90222}},{"displayName":"Nags Head, US","country":"US","name":"Nags Head","_id":4481427,"coord":{"lon":-75.624062,"lat":35.95739}},{"displayName":"Nagsaing, PH","country":"PH","name":"Nagsaing","_id":1698658,"coord":{"lon":120.341904,"lat":15.976}},{"displayName":"Nagtipunan, PH","country":"PH","name":"Nagtipunan","_id":1698621,"coord":{"lon":121.599998,"lat":16.216669}},{"displayName":"Nagu, FI","country":"FI","name":"Nagu","_id":645165,"coord":{"lon":21.909719,"lat":60.193748}},{"displayName":"Nagua, DO","country":"DO","name":"Nagua","_id":3496021,"coord":{"lon":-69.847397,"lat":19.3832}},{"displayName":"Naguabo Municipio, PR","country":"PR","name":"Naguabo Municipio","_id":4566397,"coord":{"lon":-65.75988,"lat":18.23135}},{"displayName":"Naguabo, PR","country":"PR","name":"Naguabo","_id":4566396,"coord":{"lon":-65.734879,"lat":18.21162}},{"displayName":"Naguanagua, VE","country":"VE","name":"Naguanagua","_id":3631614,"coord":{"lon":-68.018608,"lat":10.26}},{"displayName":"Naguelguel, PH","country":"PH","name":"Naguelguel","_id":1698606,"coord":{"lon":120.263496,"lat":16.005301}},{"displayName":"Naguilayan, PH","country":"PH","name":"Naguilayan","_id":1698599,"coord":{"lon":120.290298,"lat":16.0023}},{"displayName":"Naguilian, PH","country":"PH","name":"Naguilian","_id":1698595,"coord":{"lon":121.837044,"lat":17.023149}},{"displayName":"Naguilian, PH","country":"PH","name":"Naguilian","_id":1698596,"coord":{"lon":120.396667,"lat":16.53389}},{"displayName":"Nagutskoye, RU","country":"RU","name":"Nagutskoye","_id":523560,"coord":{"lon":42.876202,"lat":44.441502}},{"displayName":"Nagwa, IN","country":"IN","name":"Nagwa","_id":1262154,"coord":{"lon":70.916664,"lat":20.716667}},{"displayName":"Nagyatad, HU","country":"HU","name":"Nagyatad","_id":3047819,"coord":{"lon":17.35788,"lat":46.22961}},{"displayName":"Nagybajom, HU","country":"HU","name":"Nagybajom","_id":3047811,"coord":{"lon":17.511471,"lat":46.392319}},{"displayName":"Nagybaracska, HU","country":"HU","name":"Nagybaracska","_id":3047804,"coord":{"lon":18.905899,"lat":46.04248}},{"displayName":"Nagycenk, HU","country":"HU","name":"Nagycenk","_id":3047781,"coord":{"lon":16.697321,"lat":47.604351}},{"displayName":"Nagycserkesz, HU","country":"HU","name":"Nagycserkesz","_id":717406,"coord":{"lon":21.533331,"lat":47.966671}},{"displayName":"Nagydobos, HU","country":"HU","name":"Nagydobos","_id":717400,"coord":{"lon":22.304239,"lat":48.05759}},{"displayName":"Nagydorog, HU","country":"HU","name":"Nagydorog","_id":3047765,"coord":{"lon":18.655649,"lat":46.627491}},{"displayName":"Nagyecsed, HU","country":"HU","name":"Nagyecsed","_id":717397,"coord":{"lon":22.3916,"lat":47.865471}},{"displayName":"Nagygajla, HU","country":"HU","name":"Nagygajla","_id":717357,"coord":{"lon":20.91667,"lat":47.816669}},{"displayName":"Nagyhalasz, HU","country":"HU","name":"Nagyhalasz","_id":717345,"coord":{"lon":21.76667,"lat":48.133331}},{"displayName":"Nagyigmand, HU","country":"HU","name":"Nagyigmand","_id":3047689,"coord":{"lon":18.081301,"lat":47.640942}},{"displayName":"Nagykallo, HU","country":"HU","name":"Nagykallo","_id":717281,"coord":{"lon":21.84082,"lat":47.874908}},{"displayName":"Nagykanizsa, HU","country":"HU","name":"Nagykanizsa","_id":3047679,"coord":{"lon":16.991039,"lat":46.453468}},{"displayName":"Nagykata, HU","country":"HU","name":"Nagykata","_id":3047669,"coord":{"lon":19.744101,"lat":47.415138}},{"displayName":"Nagykoros, HU","country":"HU","name":"Nagykoros","_id":3047651,"coord":{"lon":19.77857,"lat":47.034191}},{"displayName":"Nagykovacsi, HU","country":"HU","name":"Nagykovacsi","_id":3047646,"coord":{"lon":19.01667,"lat":47.650002}},{"displayName":"Nagymanyok, HU","country":"HU","name":"Nagymanyok","_id":3047622,"coord":{"lon":18.454889,"lat":46.27911}},{"displayName":"Nagymaros, HU","country":"HU","name":"Nagymaros","_id":3047619,"coord":{"lon":18.959841,"lat":47.792801}},{"displayName":"Nagyoroszi, HU","country":"HU","name":"Nagyoroszi","_id":3047606,"coord":{"lon":19.0905,"lat":48.005032}},{"displayName":"Nagyrabe, HU","country":"HU","name":"Nagyrabe","_id":717172,"coord":{"lon":21.33333,"lat":47.200001}},{"displayName":"Nagyrede, HU","country":"HU","name":"Nagyrede","_id":3047574,"coord":{"lon":19.84819,"lat":47.76543}},{"displayName":"Nagyszenas, HU","country":"HU","name":"Nagyszenas","_id":717130,"coord":{"lon":20.66667,"lat":46.683331}},{"displayName":"Nagyszőllő, HU","country":"HU","name":"Nagyszőllő","_id":717118,"coord":{"lon":22.066669,"lat":48.183331}},{"displayName":"Nagytarcsa, HU","country":"HU","name":"Nagytarcsa","_id":3047509,"coord":{"lon":19.28343,"lat":47.531281}},{"displayName":"Nagłowice, PL","country":"PL","name":"Nagłowice","_id":7532709,"coord":{"lon":20.1273,"lat":50.654099}},{"displayName":"Naha-shi, JP","country":"JP","name":"Naha-shi","_id":1856035,"coord":{"lon":127.681107,"lat":26.2125}},{"displayName":"Nahan, IN","country":"IN","name":"Nahan","_id":1262151,"coord":{"lon":77.300003,"lat":30.549999}},{"displayName":"Nahant, US","country":"US","name":"Nahant","_id":4944875,"coord":{"lon":-70.918938,"lat":42.426491}},{"displayName":"Nahari, JP","country":"JP","name":"Nahari","_id":1856033,"coord":{"lon":134.016663,"lat":33.416672}},{"displayName":"Nahariyya, IL","country":"IL","name":"Nahariyya","_id":294117,"coord":{"lon":35.09409,"lat":33.005859}},{"displayName":"Naharlagun, IN","country":"IN","name":"Naharlagun","_id":7302855,"coord":{"lon":93.695183,"lat":27.10467}},{"displayName":"Naharros, ES","country":"ES","name":"Naharros","_id":3115784,"coord":{"lon":-2.51003,"lat":40.053242}},{"displayName":"Nahavand, IR","country":"IR","name":"Nahavand","_id":122915,"coord":{"lon":48.376999,"lat":34.188499}},{"displayName":"Nahawan, PH","country":"PH","name":"Nahawan","_id":1698561,"coord":{"lon":124.048401,"lat":9.9711}},{"displayName":"Nahe, DE","country":"DE","name":"Nahe","_id":6552119,"coord":{"lon":10.1333,"lat":53.799999}},{"displayName":"Nahe, DE","country":"DE","name":"Nahe","_id":2867160,"coord":{"lon":10.13333,"lat":53.799999}},{"displayName":"Nahf, IL","country":"IL","name":"Nahf","_id":294114,"coord":{"lon":35.316669,"lat":32.933331}},{"displayName":"Nahhalin, PS","country":"PS","name":"Nahhalin","_id":282593,"coord":{"lon":35.120811,"lat":31.685591}},{"displayName":"Nahiyat al Fuhud, IQ","country":"IQ","name":"Nahiyat al Fuhud","_id":99439,"coord":{"lon":46.722778,"lat":30.969721}},{"displayName":"Nahiyat Ali ash Sharqi, IQ","country":"IQ","name":"Nahiyat Ali ash Sharqi","_id":7374646,"coord":{"lon":46.749279,"lat":32.122871}},{"displayName":"Nahiyat as Sab Biyar, SY","country":"SY","name":"Nahiyat as Sab Biyar","_id":7905767,"coord":{"lon":38.008179,"lat":33.53228}},{"displayName":"Nahiyat ash Shinafiyah, IQ","country":"IQ","name":"Nahiyat ash Shinafiyah","_id":98589,"coord":{"lon":44.66016,"lat":31.58737}},{"displayName":"Nahiyat Atbah, IQ","country":"IQ","name":"Nahiyat Atbah","_id":7326105,"coord":{"lon":48.014381,"lat":30.482929}},{"displayName":"Nahiyat Bahar, IQ","country":"IQ","name":"Nahiyat Bahar","_id":7326104,"coord":{"lon":48.39769,"lat":30.17864}},{"displayName":"Nahiyat Ghammas, IQ","country":"IQ","name":"Nahiyat Ghammas","_id":99434,"coord":{"lon":44.619598,"lat":31.743111}},{"displayName":"Nahiyat Hiran, IQ","country":"IQ","name":"Nahiyat Hiran","_id":7097617,"coord":{"lon":44.488152,"lat":36.278992}},{"displayName":"Nahiyat Hiran, IQ","country":"IQ","name":"Nahiyat Hiran","_id":7097618,"coord":{"lon":44.492828,"lat":36.280079}},{"displayName":"Nahiyat Saddat al Hindiyah, IQ","country":"IQ","name":"Nahiyat Saddat al Hindiyah","_id":91812,"coord":{"lon":44.280281,"lat":32.714722}},{"displayName":"Nahkela, FI","country":"FI","name":"Nahkela","_id":645161,"coord":{"lon":24.950001,"lat":60.400002}},{"displayName":"Nahmitz, DE","country":"DE","name":"Nahmitz","_id":2867149,"coord":{"lon":12.72509,"lat":52.3367}},{"displayName":"Nahorkatiya, IN","country":"IN","name":"Nahorkatiya","_id":1262140,"coord":{"lon":95.333328,"lat":27.283331}},{"displayName":"Nahr-e Shāhī, AF","country":"AF","name":"Nahr-e Shāhī","_id":1473022,"coord":{"lon":70.491814,"lat":34.414822}},{"displayName":"Nahrendorf, DE","country":"DE","name":"Nahrendorf","_id":6552684,"coord":{"lon":10.81381,"lat":53.173889}},{"displayName":"Nahrendorf, DE","country":"DE","name":"Nahrendorf","_id":2867146,"coord":{"lon":10.81381,"lat":53.173889}},{"displayName":"Nahrin, AF","country":"AF","name":"Nahrin","_id":1132495,"coord":{"lon":69.13343,"lat":36.064899}},{"displayName":"Nahuala, GT","country":"GT","name":"Nahuala","_id":3592286,"coord":{"lon":-91.316673,"lat":14.85}},{"displayName":"Nahuatzen, MX","country":"MX","name":"Nahuatzen","_id":3995146,"coord":{"lon":-101.833328,"lat":19.700001}},{"displayName":"Nahuizalco, SV","country":"SV","name":"Nahuizalco","_id":3584297,"coord":{"lon":-89.736671,"lat":13.7775}},{"displayName":"Nahunta, US","country":"US","name":"Nahunta","_id":4211775,"coord":{"lon":-81.981232,"lat":31.20439}},{"displayName":"Nai Harn, TH","country":"TH","name":"Nai Harn","_id":7302494,"coord":{"lon":98.30661,"lat":7.77859}},{"displayName":"Naibaroc, TL","country":"TL","name":"Naibaroc","_id":1943673,"coord":{"lon":126.376106,"lat":-8.88194}},{"displayName":"Naic, PH","country":"PH","name":"Naic","_id":1698549,"coord":{"lon":120.800003,"lat":14.3}},{"displayName":"Naic, PH","country":"PH","name":"Naic","_id":1698548,"coord":{"lon":120.76609,"lat":14.31812}},{"displayName":"Naica, MX","country":"MX","name":"Naica","_id":3995142,"coord":{"lon":-105.48333,"lat":27.85}},{"displayName":"Naicam, CA","country":"CA","name":"Naicam","_id":6085582,"coord":{"lon":-104.501022,"lat":52.416721}},{"displayName":"Naidong, CN","country":"CN","name":"Naidong","_id":8067345,"coord":{"lon":91.76667,"lat":29.26667}},{"displayName":"Naie, JP","country":"JP","name":"Naie","_id":2129073,"coord":{"lon":141.887787,"lat":43.418331}},{"displayName":"Naifaru, MV","country":"MV","name":"Naifaru","_id":1337616,"coord":{"lon":73.365707,"lat":5.44438}},{"displayName":"Naigarhi, IN","country":"IN","name":"Naigarhi","_id":1262134,"coord":{"lon":81.783333,"lat":24.783331}},{"displayName":"Naihati, IN","country":"IN","name":"Naihati","_id":1262131,"coord":{"lon":88.416939,"lat":22.902781}},{"displayName":"Naila, DE","country":"DE","name":"Naila","_id":2867138,"coord":{"lon":11.7,"lat":50.316669}},{"displayName":"Naili, PH","country":"PH","name":"Naili","_id":1698542,"coord":{"lon":122.176498,"lat":11.7666}},{"displayName":"Nailloux, FR","country":"FR","name":"Nailloux","_id":6431733,"coord":{"lon":1.6244,"lat":43.355701}},{"displayName":"Nailloux, FR","country":"FR","name":"Nailloux","_id":2991040,"coord":{"lon":1.62302,"lat":43.357182}},{"displayName":"Nailong, PH","country":"PH","name":"Nailong","_id":1698538,"coord":{"lon":124.038498,"lat":11.0537}},{"displayName":"Nailsea, GB","country":"GB","name":"Nailsea","_id":7298888,"coord":{"lon":-2.77756,"lat":51.424}},{"displayName":"Nailsea, GB","country":"GB","name":"Nailsea","_id":2641913,"coord":{"lon":-2.75847,"lat":51.432388}},{"displayName":"Nailsworth, GB","country":"GB","name":"Nailsworth","_id":2641912,"coord":{"lon":-2.2199,"lat":51.693821}},{"displayName":"Nain, JM","country":"JM","name":"Nain","_id":3489344,"coord":{"lon":-77.598679,"lat":17.961201}},{"displayName":"Naini Tal, IN","country":"IN","name":"Naini Tal","_id":1262117,"coord":{"lon":79.446861,"lat":29.39743}},{"displayName":"Nainpur, IN","country":"IN","name":"Nainpur","_id":1262116,"coord":{"lon":80.116669,"lat":22.433331}},{"displayName":"Naintre, FR","country":"FR","name":"Naintre","_id":2991036,"coord":{"lon":0.48683,"lat":46.763538}},{"displayName":"Naintré, FR","country":"FR","name":"Naintré","_id":6445314,"coord":{"lon":0.48333,"lat":46.76667}},{"displayName":"Nainwa, IN","country":"IN","name":"Nainwa","_id":1262115,"coord":{"lon":75.849998,"lat":25.76667}},{"displayName":"Naiola, ID","country":"ID","name":"Naiola","_id":7439611,"coord":{"lon":124.505501,"lat":-9.548}},{"displayName":"Nairitz, DE","country":"DE","name":"Nairitz","_id":2867134,"coord":{"lon":11.75,"lat":49.849998}},{"displayName":"Nairn, GB","country":"GB","name":"Nairn","_id":2641910,"coord":{"lon":-3.87973,"lat":57.58094}},{"displayName":"Nairne, AU","country":"AU","name":"Nairne","_id":2065078,"coord":{"lon":138.899994,"lat":-35.033329}},{"displayName":"Nairobi Province, KE","country":"KE","name":"Nairobi Province","_id":184742,"coord":{"lon":36.833328,"lat":-1.28333}},{"displayName":"Nairobi South, KE","country":"KE","name":"Nairobi South","_id":184736,"coord":{"lon":36.833328,"lat":-1.31667}},{"displayName":"Nairobi, KE","country":"KE","name":"Nairobi","_id":184745,"coord":{"lon":36.816669,"lat":-1.28333}},{"displayName":"Naisano Dua, ID","country":"ID","name":"Naisano Dua","_id":1947261,"coord":{"lon":123.770279,"lat":-9.59806}},{"displayName":"Naisud, PH","country":"PH","name":"Naisud","_id":1698532,"coord":{"lon":122.193901,"lat":11.8058}},{"displayName":"Naitōbokujō, JP","country":"JP","name":"Naitōbokujō","_id":2129072,"coord":{"lon":144.216675,"lat":43.049999}},{"displayName":"Naivasha, KE","country":"KE","name":"Naivasha","_id":184707,"coord":{"lon":36.435909,"lat":-0.71667}},{"displayName":"Naizin, FR","country":"FR","name":"Naizin","_id":6437319,"coord":{"lon":-2.83333,"lat":47.98333}},{"displayName":"Naizin, FR","country":"FR","name":"Naizin","_id":2991030,"coord":{"lon":-2.83287,"lat":47.989929}},{"displayName":"Naj Hammadi, EG","country":"EG","name":"Naj Hammadi","_id":351434,"coord":{"lon":32.241421,"lat":26.04949}},{"displayName":"Najafabad, IR","country":"IR","name":"Najafabad","_id":418606,"coord":{"lon":51.366798,"lat":32.634399}},{"displayName":"Najd al Jumai, YE","country":"YE","name":"Najd al Jumai","_id":30696,"coord":{"lon":44.324139,"lat":13.91581}},{"displayName":"Najeng, ID","country":"ID","name":"Najeng","_id":7852865,"coord":{"lon":106.949799,"lat":-7.2359}},{"displayName":"Najera, ES","country":"ES","name":"Najera","_id":3115780,"coord":{"lon":-2.72865,"lat":42.418221}},{"displayName":"Naji, CN","country":"CN","name":"Naji","_id":2035677,"coord":{"lon":123.48333,"lat":48.099998}},{"displayName":"Najiaying, CN","country":"CN","name":"Najiaying","_id":6824328,"coord":{"lon":102.738861,"lat":24.18252}},{"displayName":"Najibabad, IN","country":"IN","name":"Najibabad","_id":1262109,"coord":{"lon":78.333328,"lat":29.633329}},{"displayName":"Najin, KP","country":"KP","name":"Najin","_id":2042645,"coord":{"lon":130.300278,"lat":42.24889}},{"displayName":"Najran, SA","country":"SA","name":"Najran","_id":103630,"coord":{"lon":44.127659,"lat":17.492399}},{"displayName":"Naju, KR","country":"KR","name":"Naju","_id":1840536,"coord":{"lon":126.717499,"lat":35.028332}},{"displayName":"Naj‘ al Khuţbah, EG","country":"EG","name":"Naj‘ al Khuţbah","_id":351483,"coord":{"lon":32.633331,"lat":25.683331}},{"displayName":"Naj‘ Tinjār, EG","country":"EG","name":"Naj‘ Tinjār","_id":351388,"coord":{"lon":32.866669,"lat":24.0}},{"displayName":"Naka, JP","country":"JP","name":"Naka","_id":2111749,"coord":{"lon":140.166672,"lat":36.049999}},{"displayName":"Naka-gōchi, JP","country":"JP","name":"Naka-gōchi","_id":1855973,"coord":{"lon":131.333328,"lat":34.01667}},{"displayName":"Naka-mobetsu, JP","country":"JP","name":"Naka-mobetsu","_id":2129052,"coord":{"lon":143.366669,"lat":44.283329}},{"displayName":"Nakagawa, JP","country":"JP","name":"Nakagawa","_id":1855987,"coord":{"lon":137.033325,"lat":35.066669}},{"displayName":"Nakagawa, JP","country":"JP","name":"Nakagawa","_id":2129063,"coord":{"lon":142.057785,"lat":44.78611}},{"displayName":"Nakai, JP","country":"JP","name":"Nakai","_id":1855947,"coord":{"lon":134.533325,"lat":34.98333}},{"displayName":"Nakai, JP","country":"JP","name":"Nakai","_id":1907116,"coord":{"lon":139.158615,"lat":35.96833}},{"displayName":"Nakaichi, JP","country":"JP","name":"Nakaichi","_id":1855944,"coord":{"lon":131.483337,"lat":34.166672}},{"displayName":"Nakaizumi, JP","country":"JP","name":"Nakaizumi","_id":1855939,"coord":{"lon":137.850006,"lat":34.700001}},{"displayName":"Nakajima, JP","country":"JP","name":"Nakajima","_id":1855933,"coord":{"lon":137.216675,"lat":36.716671}},{"displayName":"Nakama, FJ","country":"FJ","name":"Nakama","_id":2202999,"coord":{"lon":179.350006,"lat":-16.48333}},{"displayName":"Nakama, JP","country":"JP","name":"Nakama","_id":1855907,"coord":{"lon":130.699997,"lat":33.816669}},{"displayName":"Nakambala, ZM","country":"ZM","name":"Nakambala","_id":902344,"coord":{"lon":27.77994,"lat":-15.83244}},{"displayName":"Nakamura, JP","country":"JP","name":"Nakamura","_id":1855891,"coord":{"lon":132.933334,"lat":32.98333}},{"displayName":"Nakamura, JP","country":"JP","name":"Nakamura","_id":1855882,"coord":{"lon":137.916672,"lat":36.150002}},{"displayName":"Nakano, JP","country":"JP","name":"Nakano","_id":1855863,"coord":{"lon":138.366669,"lat":36.75}},{"displayName":"Nakanojo, JP","country":"JP","name":"Nakanojo","_id":1855852,"coord":{"lon":138.850006,"lat":36.583328}},{"displayName":"Nakanoku, JP","country":"JP","name":"Nakanoku","_id":1855847,"coord":{"lon":131.310883,"lat":25.94562}},{"displayName":"Nakanosawa, JP","country":"JP","name":"Nakanosawa","_id":2129048,"coord":{"lon":141.550003,"lat":42.966671}},{"displayName":"Nakapiripirit, UG","country":"UG","name":"Nakapiripirit","_id":448226,"coord":{"lon":34.783329,"lat":1.91667}},{"displayName":"Nakaseke District, UG","country":"UG","name":"Nakaseke District","_id":7056294,"coord":{"lon":32.189678,"lat":1.04063}},{"displayName":"Nakaseke, UG","country":"UG","name":"Nakaseke","_id":228429,"coord":{"lon":32.384998,"lat":0.75167}},{"displayName":"Nakasongola, UG","country":"UG","name":"Nakasongola","_id":228418,"coord":{"lon":32.45639,"lat":1.30889}},{"displayName":"Nakatsu, JP","country":"JP","name":"Nakatsu","_id":1855757,"coord":{"lon":131.188293,"lat":33.59811}},{"displayName":"Nakatsu, JP","country":"JP","name":"Nakatsu","_id":1855756,"coord":{"lon":137.716675,"lat":34.799999}},{"displayName":"Nakatsugawa, JP","country":"JP","name":"Nakatsugawa","_id":1855753,"coord":{"lon":137.5,"lat":35.48333}},{"displayName":"Nakatunguru, TZ","country":"TZ","name":"Nakatunguru","_id":152009,"coord":{"lon":33.066669,"lat":-2.11667}},{"displayName":"Nakayama, JP","country":"JP","name":"Nakayama","_id":1855730,"coord":{"lon":139.949997,"lat":35.716671}},{"displayName":"Nakayama, JP","country":"JP","name":"Nakayama","_id":2111713,"coord":{"lon":140.218323,"lat":38.121391}},{"displayName":"Nakhabino, RU","country":"RU","name":"Nakhabino","_id":523553,"coord":{"lon":37.181389,"lat":55.851391}},{"displayName":"Nakhchivan Autonomous Republic, AZ","country":"AZ","name":"Nakhchivan Autonomous Republic","_id":147435,"coord":{"lon":45.418171,"lat":39.209911}},{"displayName":"Nakhchivan, AZ","country":"AZ","name":"Nakhchivan","_id":147429,"coord":{"lon":45.41222,"lat":39.208889}},{"displayName":"Nakhlëstovo, RU","country":"RU","name":"Nakhlëstovo","_id":523544,"coord":{"lon":36.352219,"lat":52.65472}},{"displayName":"Nakhodka, RU","country":"RU","name":"Nakhodka","_id":2019528,"coord":{"lon":132.894714,"lat":42.833328}},{"displayName":"Nakhon Chai Si, TH","country":"TH","name":"Nakhon Chai Si","_id":1608545,"coord":{"lon":100.184509,"lat":13.80126}},{"displayName":"Nakhon Luang, TH","country":"TH","name":"Nakhon Luang","_id":1608541,"coord":{"lon":100.608322,"lat":14.46281}},{"displayName":"Nakhon Nayok, TH","country":"TH","name":"Nakhon Nayok","_id":1608539,"coord":{"lon":101.212952,"lat":14.20463}},{"displayName":"Nakhon Pathom, TH","country":"TH","name":"Nakhon Pathom","_id":1608534,"coord":{"lon":100.044273,"lat":13.8196}},{"displayName":"Nakhon Phanom, TH","country":"TH","name":"Nakhon Phanom","_id":1608531,"coord":{"lon":104.778557,"lat":17.41081}},{"displayName":"Nakhon Ratchasima, TH","country":"TH","name":"Nakhon Ratchasima","_id":1608529,"coord":{"lon":102.101959,"lat":14.97066}},{"displayName":"Nakhon Sawan, TH","country":"TH","name":"Nakhon Sawan","_id":1608527,"coord":{"lon":100.137169,"lat":15.70472}},{"displayName":"Nakhon Si Thammarat, TH","country":"TH","name":"Nakhon Si Thammarat","_id":1151933,"coord":{"lon":99.966667,"lat":8.43333}},{"displayName":"Nakhon Thai, TH","country":"TH","name":"Nakhon Thai","_id":1608524,"coord":{"lon":100.837387,"lat":17.100559}},{"displayName":"Nakhoy, RU","country":"RU","name":"Nakhoy","_id":523536,"coord":{"lon":46.783333,"lat":51.283333}},{"displayName":"Nakijin, JP","country":"JP","name":"Nakijin","_id":1855713,"coord":{"lon":127.971672,"lat":26.675831}},{"displayName":"Nakina, CA","country":"CA","name":"Nakina","_id":6085647,"coord":{"lon":-86.710709,"lat":50.178928}},{"displayName":"Nakkila, FI","country":"FI","name":"Nakkila","_id":645150,"coord":{"lon":21.91667,"lat":61.383331}},{"displayName":"Nakkila, FI","country":"FI","name":"Nakkila","_id":645148,"coord":{"lon":22.0,"lat":61.366669}},{"displayName":"Naklo nad Notecia, PL","country":"PL","name":"Naklo nad Notecia","_id":3091150,"coord":{"lon":17.60181,"lat":53.142139}},{"displayName":"Naklo, CZ","country":"CZ","name":"Naklo","_id":3070071,"coord":{"lon":17.12969,"lat":49.654621}},{"displayName":"Naklo, PL","country":"PL","name":"Naklo","_id":3091153,"coord":{"lon":18.11817,"lat":50.57975}},{"displayName":"Naklo, PL","country":"PL","name":"Naklo","_id":3091154,"coord":{"lon":18.910561,"lat":50.436901}},{"displayName":"Naklo, SI","country":"SI","name":"Naklo","_id":3194595,"coord":{"lon":14.31722,"lat":46.272781}},{"displayName":"Nakodar, IN","country":"IN","name":"Nakodar","_id":1262097,"coord":{"lon":75.473328,"lat":31.12583}},{"displayName":"Nakonde, ZM","country":"ZM","name":"Nakonde","_id":175555,"coord":{"lon":32.744999,"lat":-9.34213}},{"displayName":"Nakovo, RS","country":"RS","name":"Nakovo","_id":787743,"coord":{"lon":20.567221,"lat":45.87389}},{"displayName":"Naksalbari, IN","country":"IN","name":"Naksalbari","_id":1262092,"coord":{"lon":88.216667,"lat":26.683331}},{"displayName":"Nakskov, DK","country":"DK","name":"Nakskov","_id":2616599,"coord":{"lon":11.12839,"lat":54.837341}},{"displayName":"Nakur, IN","country":"IN","name":"Nakur","_id":1262089,"coord":{"lon":77.300003,"lat":29.91667}},