[{"displayName":"Niwai, IN","country":"IN","name":"Niwai","_id":1261614,"coord":{"lon":75.916672,"lat":26.35}},{"displayName":"Niwari, IN","country":"IN","name":"Niwari","_id":1261262,"coord":{"lon":77.533333,"lat":28.883329}},{"displayName":"Niwen, ID","country":"ID","name":"Niwen","_id":7036823,"coord":{"lon":112.595497,"lat":-8.0003}},{"displayName":"Niwiska, PL","country":"PL","name":"Niwiska","_id":7532377,"coord":{"lon":21.630301,"lat":50.2388}},{"displayName":"Niwiska, PL","country":"PL","name":"Niwiska","_id":763823,"coord":{"lon":21.63036,"lat":50.224918}},{"displayName":"Niwot, US","country":"US","name":"Niwot","_id":5580305,"coord":{"lon":-105.170822,"lat":40.10387}},{"displayName":"Nixa, US","country":"US","name":"Nixa","_id":4400648,"coord":{"lon":-93.29435,"lat":37.043388}},{"displayName":"Nixi, CN","country":"CN","name":"Nixi","_id":1799209,"coord":{"lon":116.864059,"lat":29.79221}},{"displayName":"Nixi, CN","country":"CN","name":"Nixi","_id":6643965,"coord":{"lon":99.576401,"lat":28.02422}},{"displayName":"Nixon, US","country":"US","name":"Nixon","_id":4714829,"coord":{"lon":-97.764442,"lat":29.26746}},{"displayName":"Nixon, US","country":"US","name":"Nixon","_id":5203468,"coord":{"lon":-79.929497,"lat":40.783401}},{"displayName":"Niyang, CN","country":"CN","name":"Niyang","_id":1799206,"coord":{"lon":105.821388,"lat":33.819439}},{"displayName":"Nizamabad, IN","country":"IN","name":"Nizamabad","_id":1261258,"coord":{"lon":78.116669,"lat":18.66667}},{"displayName":"Nizamabad, IN","country":"IN","name":"Nizamabad","_id":1261257,"coord":{"lon":83.058891,"lat":26.05056}},{"displayName":"Nizami, AM","country":"AM","name":"Nizami","_id":823813,"coord":{"lon":44.40453,"lat":40.091141}},{"displayName":"Nizao, DO","country":"DO","name":"Nizao","_id":3495811,"coord":{"lon":-70.199997,"lat":18.25}},{"displayName":"Nizbor, CZ","country":"CZ","name":"Nizbor","_id":3069738,"coord":{"lon":14.00237,"lat":49.99995}},{"displayName":"Nizerolles, FR","country":"FR","name":"Nizerolles","_id":6425424,"coord":{"lon":3.63333,"lat":46.099998}},{"displayName":"Nizerolles, FR","country":"FR","name":"Nizerolles","_id":2990319,"coord":{"lon":3.63823,"lat":46.098141}},{"displayName":"Nizhegorodskaya Oblast’, RU","country":"RU","name":"Nizhegorodskaya Oblast’","_id":559838,"coord":{"lon":45.0,"lat":56.0}},{"displayName":"Nizhegorodskaya, RU","country":"RU","name":"Nizhegorodskaya","_id":521192,"coord":{"lon":39.923401,"lat":44.269199}},{"displayName":"Nizhi, CN","country":"CN","name":"Nizhi","_id":1898681,"coord":{"lon":122.17556,"lat":30.304171}},{"displayName":"Nizhne-Derevyannoye, RU","country":"RU","name":"Nizhne-Derevyannoye","_id":521149,"coord":{"lon":34.633331,"lat":61.616669}},{"displayName":"Nizhne-Gremyachiy, KZ","country":"KZ","name":"Nizhne-Gremyachiy","_id":608740,"coord":{"lon":50.950001,"lat":51.349998}},{"displayName":"Nizhne-Romashkovo, RU","country":"RU","name":"Nizhne-Romashkovo","_id":521054,"coord":{"lon":37.333332,"lat":55.733334}},{"displayName":"Nizhneangarsk, RU","country":"RU","name":"Nizhneangarsk","_id":2019199,"coord":{"lon":109.550003,"lat":55.783329}},{"displayName":"Nizhnechirkina, RU","country":"RU","name":"Nizhnechirkina","_id":2019180,"coord":{"lon":102.143799,"lat":53.901299}},{"displayName":"Nizhnedevitsk, RU","country":"RU","name":"Nizhnedevitsk","_id":521148,"coord":{"lon":38.3657,"lat":51.541901}},{"displayName":"Nizhnedneprovsk, UA","country":"UA","name":"Nizhnedneprovsk","_id":700022,"coord":{"lon":35.066666,"lat":48.5}},{"displayName":"Nizhneglebovka, RU","country":"RU","name":"Nizhneglebovka","_id":521136,"coord":{"lon":39.943611,"lat":46.645832}},{"displayName":"Nizhnegoveynyy, RU","country":"RU","name":"Nizhnegoveynyy","_id":520627,"coord":{"lon":40.34211,"lat":48.28447}},{"displayName":"Nizhneivkino, RU","country":"RU","name":"Nizhneivkino","_id":521123,"coord":{"lon":49.52137,"lat":58.193981}},{"displayName":"Nizhnekalinovskiy, RU","country":"RU","name":"Nizhnekalinovskiy","_id":520372,"coord":{"lon":42.789165,"lat":48.59222}},{"displayName":"Nizhnekamsk, RU","country":"RU","name":"Nizhnekamsk","_id":521118,"coord":{"lon":51.824471,"lat":55.63657}},{"displayName":"Nizhneosinovskiy, RU","country":"RU","name":"Nizhneosinovskiy","_id":521072,"coord":{"lon":42.784721,"lat":48.625557}},{"displayName":"Nizhnepavlovka, RU","country":"RU","name":"Nizhnepavlovka","_id":520278,"coord":{"lon":54.80146,"lat":51.713242}},{"displayName":"Nizhnesortymskiy, RU","country":"RU","name":"Nizhnesortymskiy","_id":7287775,"coord":{"lon":71.760292,"lat":62.439651}},{"displayName":"Nizhnetroitskiy, RU","country":"RU","name":"Nizhnetroitskiy","_id":521031,"coord":{"lon":53.683289,"lat":54.33852}},{"displayName":"Nizhneudinsk, RU","country":"RU","name":"Nizhneudinsk","_id":1497549,"coord":{"lon":99.027603,"lat":54.9076}},{"displayName":"Nizhnevartovsk, RU","country":"RU","name":"Nizhnevartovsk","_id":1497543,"coord":{"lon":76.553101,"lat":60.934399}},{"displayName":"Nizhnevo, RU","country":"RU","name":"Nizhnevo","_id":521020,"coord":{"lon":37.099998,"lat":56.533329}},{"displayName":"Nizhneye Akcherino, RU","country":"RU","name":"Nizhneye Akcherino","_id":521002,"coord":{"lon":46.283333,"lat":56.216667}},{"displayName":"Nizhneye Armyanskoye Ushchel’ye, GE","country":"GE","name":"Nizhneye Armyanskoye Ushchel’ye","_id":823895,"coord":{"lon":40.791943,"lat":43.084167}},{"displayName":"Nizhneye Dzhemete, RU","country":"RU","name":"Nizhneye Dzhemete","_id":520977,"coord":{"lon":37.32111,"lat":44.921391}},{"displayName":"Nizhneye Kazanishche, RU","country":"RU","name":"Nizhneye Kazanishche","_id":520955,"coord":{"lon":47.160271,"lat":42.763691}},{"displayName":"Nizhneye Khoroshovo, RU","country":"RU","name":"Nizhneye Khoroshovo","_id":520948,"coord":{"lon":38.793331,"lat":55.144444}},{"displayName":"Nizhneye Myachkovo, RU","country":"RU","name":"Nizhneye Myachkovo","_id":520907,"coord":{"lon":37.973331,"lat":55.541111}},{"displayName":"Nizhneye Orekhovo, RU","country":"RU","name":"Nizhneye Orekhovo","_id":805616,"coord":{"lon":39.7775,"lat":43.707222}},{"displayName":"Nizhneye Shakhlovo, RU","country":"RU","name":"Nizhneye Shakhlovo","_id":520865,"coord":{"lon":37.264999,"lat":55.019722}},{"displayName":"Nizhneye Somovo, RU","country":"RU","name":"Nizhneye Somovo","_id":816234,"coord":{"lon":35.694443,"lat":54.354168}},{"displayName":"Nizhneye Velino, RU","country":"RU","name":"Nizhneye Velino","_id":520841,"coord":{"lon":38.211388,"lat":55.433887}},{"displayName":"Nizhniy Airgul’, UA","country":"UA","name":"Nizhniy Airgul’","_id":699996,"coord":{"lon":33.950001,"lat":44.599998}},{"displayName":"Nizhniy Arkhyz, RU","country":"RU","name":"Nizhniy Arkhyz","_id":520806,"coord":{"lon":41.455559,"lat":43.676331}},{"displayName":"Nizhniy Baskunchak, RU","country":"RU","name":"Nizhniy Baskunchak","_id":520798,"coord":{"lon":46.831051,"lat":48.21978}},{"displayName":"Nizhniy Bessovets, RU","country":"RU","name":"Nizhniy Bessovets","_id":520794,"coord":{"lon":34.166672,"lat":61.883331}},{"displayName":"Nizhniy Bestyakh, RU","country":"RU","name":"Nizhniy Bestyakh","_id":2019167,"coord":{"lon":129.908615,"lat":61.959438}},{"displayName":"Nizhniy Cherek, RU","country":"RU","name":"Nizhniy Cherek","_id":520784,"coord":{"lon":43.913891,"lat":43.513062}},{"displayName":"Nizhniy Chir, RU","country":"RU","name":"Nizhniy Chir","_id":520783,"coord":{"lon":43.086498,"lat":48.35973}},{"displayName":"Nizhniy Chorgun’, UA","country":"UA","name":"Nizhniy Chorgun’","_id":699992,"coord":{"lon":33.683334,"lat":44.533333}},{"displayName":"Nizhniy Dzhengutay, RU","country":"RU","name":"Nizhniy Dzhengutay","_id":520775,"coord":{"lon":47.244881,"lat":42.700081}},{"displayName":"Nizhniy Ingash, RU","country":"RU","name":"Nizhniy Ingash","_id":1497497,"coord":{"lon":96.529999,"lat":56.200001}},{"displayName":"Nizhniy Kislyay, RU","country":"RU","name":"Nizhniy Kislyay","_id":520599,"coord":{"lon":40.171902,"lat":50.849701}},{"displayName":"Nizhniy Krasnyy Yar, RU","country":"RU","name":"Nizhniy Krasnyy Yar","_id":520588,"coord":{"lon":45.302776,"lat":56.150833}},{"displayName":"Nizhniy Kuranakh, RU","country":"RU","name":"Nizhniy Kuranakh","_id":2019135,"coord":{"lon":125.486938,"lat":58.835281}},{"displayName":"Nizhniy Kurkuzhin, RU","country":"RU","name":"Nizhniy Kurkuzhin","_id":538711,"coord":{"lon":43.34972,"lat":43.748329}},{"displayName":"Nizhniy Lomov, RU","country":"RU","name":"Nizhniy Lomov","_id":520574,"coord":{"lon":43.67664,"lat":53.530411}},{"displayName":"Nizhniy Mamon, RU","country":"RU","name":"Nizhniy Mamon","_id":520564,"coord":{"lon":40.508301,"lat":50.193699}},{"displayName":"Nizhniy Novgorod, RU","country":"RU","name":"Nizhniy Novgorod","_id":520555,"coord":{"lon":44.002048,"lat":56.328674}},{"displayName":"Nizhniy Odes, RU","country":"RU","name":"Nizhniy Odes","_id":520552,"coord":{"lon":54.85598,"lat":63.644508}},{"displayName":"Nizhniy Tagil, RU","country":"RU","name":"Nizhniy Tagil","_id":520494,"coord":{"lon":59.965,"lat":57.919441}},{"displayName":"Nizhniy Tsasuchey, RU","country":"RU","name":"Nizhniy Tsasuchey","_id":2019118,"coord":{"lon":115.133331,"lat":50.51667}},{"displayName":"Nizhniy Ufaley, RU","country":"RU","name":"Nizhniy Ufaley","_id":520473,"coord":{"lon":59.984169,"lat":55.915279}},{"displayName":"Nizhniye Achaluki, RU","country":"RU","name":"Nizhniye Achaluki","_id":520769,"coord":{"lon":44.759079,"lat":43.402802}},{"displayName":"Nizhniye Kotly, RU","country":"RU","name":"Nizhniye Kotly","_id":520718,"coord":{"lon":37.611668,"lat":55.68639}},{"displayName":"Nizhniye Pam”yaly, RU","country":"RU","name":"Nizhniye Pam”yaly","_id":827556,"coord":{"lon":48.040558,"lat":56.104443}},{"displayName":"Nizhniye Partizany, UA","country":"UA","name":"Nizhniye Partizany","_id":699989,"coord":{"lon":34.083328,"lat":44.833328}},{"displayName":"Nizhniye Sergi, RU","country":"RU","name":"Nizhniye Sergi","_id":520667,"coord":{"lon":59.303329,"lat":56.661388}},{"displayName":"Nizhniye Velemi, RU","country":"RU","name":"Nizhniye Velemi","_id":6415490,"coord":{"lon":37.357498,"lat":55.028057}},{"displayName":"Nizhniye Vyazovyye, RU","country":"RU","name":"Nizhniye Vyazovyye","_id":520642,"coord":{"lon":48.524761,"lat":55.798771}},{"displayName":"Nizhnyanka, UA","country":"UA","name":"Nizhnyanka","_id":699967,"coord":{"lon":35.916672,"lat":48.666672}},{"displayName":"Nizhnyaya Krynka, UA","country":"UA","name":"Nizhnyaya Krynka","_id":699956,"coord":{"lon":38.160641,"lat":48.113499}},{"displayName":"Nizhnyaya Maktama, RU","country":"RU","name":"Nizhnyaya Maktama","_id":483044,"coord":{"lon":52.433334,"lat":54.849998}},{"displayName":"Nizhnyaya Maktama, RU","country":"RU","name":"Nizhnyaya Maktama","_id":520318,"coord":{"lon":52.428101,"lat":54.86356}},{"displayName":"Nizhnyaya Omka, RU","country":"RU","name":"Nizhnyaya Omka","_id":1497406,"coord":{"lon":74.942558,"lat":55.433762}},{"displayName":"Nizhnyaya Pel’shma, RU","country":"RU","name":"Nizhnyaya Pel’shma","_id":520273,"coord":{"lon":43.24778,"lat":60.144169}},{"displayName":"Nizhnyaya Poyma, RU","country":"RU","name":"Nizhnyaya Poyma","_id":1497397,"coord":{"lon":97.193329,"lat":56.16222}},{"displayName":"Nizhnyaya Salda, RU","country":"RU","name":"Nizhnyaya Salda","_id":1497393,"coord":{"lon":60.7202,"lat":58.07756}},{"displayName":"Nizhnyaya Tavda, RU","country":"RU","name":"Nizhnyaya Tavda","_id":1497376,"coord":{"lon":66.172501,"lat":57.673061}},{"displayName":"Nizhnyaya Toz’ma, RU","country":"RU","name":"Nizhnyaya Toz’ma","_id":520209,"coord":{"lon":45.316666,"lat":60.599998}},{"displayName":"Nizhnyaya Tura, RU","country":"RU","name":"Nizhnyaya Tura","_id":520204,"coord":{"lon":59.811798,"lat":58.629299}},{"displayName":"Nizhyn, UA","country":"UA","name":"Nizhyn","_id":699942,"coord":{"lon":31.886881,"lat":51.048012}},{"displayName":"Nizip, TR","country":"TR","name":"Nizip","_id":303798,"coord":{"lon":37.79417,"lat":37.00972}},{"displayName":"Nizovtsy, BY","country":"BY","name":"Nizovtsy","_id":812490,"coord":{"lon":30.239721,"lat":54.25111}},{"displayName":"Nizwa, OM","country":"OM","name":"Nizwa","_id":286987,"coord":{"lon":57.533329,"lat":22.933331}},{"displayName":"Nizza di Sicilia, IT","country":"IT","name":"Nizza di Sicilia","_id":2524003,"coord":{"lon":15.41189,"lat":37.994961}},{"displayName":"Nizza Monferrato, IT","country":"IT","name":"Nizza Monferrato","_id":3172253,"coord":{"lon":8.35394,"lat":44.773849}},{"displayName":"Nißma, DE","country":"DE","name":"Nißma","_id":2862360,"coord":{"lon":12.27765,"lat":51.01759}},{"displayName":"Nißmitz, DE","country":"DE","name":"Nißmitz","_id":2862359,"coord":{"lon":11.76667,"lat":51.200001}},{"displayName":"Niévroz, FR","country":"FR","name":"Niévroz","_id":6618060,"coord":{"lon":5.0642,"lat":45.826199}},{"displayName":"Niāmi Kalag, PK","country":"PK","name":"Niāmi Kalag","_id":1336846,"coord":{"lon":63.461388,"lat":25.853611}},{"displayName":"Niğde, TR","country":"TR","name":"Niğde","_id":303826,"coord":{"lon":34.75,"lat":37.833328}},{"displayName":"Nişf Atrīb, EG","country":"EG","name":"Nişf Atrīb","_id":351022,"coord":{"lon":31.183331,"lat":30.466669}},{"displayName":"Nižné Nemecké, SK","country":"SK","name":"Nižné Nemecké","_id":724048,"coord":{"lon":22.25,"lat":48.650002}},{"displayName":"Njardvik, IS","country":"IS","name":"Njardvik","_id":3414222,"coord":{"lon":-22.5145,"lat":63.9809}},{"displayName":"Njegoševo, RS","country":"RS","name":"Njegoševo","_id":3194480,"coord":{"lon":19.75222,"lat":45.763329}},{"displayName":"Njeru, UG","country":"UG","name":"Njeru","_id":227812,"coord":{"lon":33.173061,"lat":0.41861}},{"displayName":"Njinikom, CM","country":"CM","name":"Njinikom","_id":2224212,"coord":{"lon":10.28333,"lat":6.23333}},{"displayName":"Njivice, HR","country":"HR","name":"Njivice","_id":3194475,"coord":{"lon":14.53861,"lat":45.158058}},{"displayName":"Njombe, TZ","country":"TZ","name":"Njombe","_id":151479,"coord":{"lon":34.76667,"lat":-9.33333}},{"displayName":"Njurundabommen, SE","country":"SE","name":"Njurundabommen","_id":2689580,"coord":{"lon":17.383539,"lat":62.26339}},{"displayName":"Nkan, CM","country":"CM","name":"Nkan","_id":2224162,"coord":{"lon":12.66667,"lat":2.66667}},{"displayName":"Nkana, ZM","country":"ZM","name":"Nkana","_id":900813,"coord":{"lon":28.204741,"lat":-12.82633}},{"displayName":"Nkawkaw, GH","country":"GH","name":"Nkawkaw","_id":2297313,"coord":{"lon":-0.7662,"lat":6.55121}},{"displayName":"Nkhata Bay, MW","country":"MW","name":"Nkhata Bay","_id":924732,"coord":{"lon":34.29073,"lat":-11.60659}},{"displayName":"Nkhongue, MW","country":"MW","name":"Nkhongue","_id":924716,"coord":{"lon":33.46146,"lat":-13.51094}},{"displayName":"Nkhotakota District, MW","country":"MW","name":"Nkhotakota District","_id":924703,"coord":{"lon":34.082981,"lat":-12.80417}},{"displayName":"Nkhotakota, MW","country":"MW","name":"Nkhotakota","_id":924705,"coord":{"lon":34.296139,"lat":-12.92744}},{"displayName":"Nkoaranga, TZ","country":"TZ","name":"Nkoaranga","_id":151445,"coord":{"lon":36.799999,"lat":-3.33333}},{"displayName":"Nkokola, MW","country":"MW","name":"Nkokola","_id":924682,"coord":{"lon":34.166672,"lat":-14.16667}},{"displayName":"Nkongsamba, CM","country":"CM","name":"Nkongsamba","_id":2223763,"coord":{"lon":9.9404,"lat":4.9547}},{"displayName":"Nkoteng, CM","country":"CM","name":"Nkoteng","_id":2223734,"coord":{"lon":12.03333,"lat":4.51667}},{"displayName":"Nkoutaba, CM","country":"CM","name":"Nkoutaba","_id":7110232,"coord":{"lon":10.74339,"lat":5.63075}},{"displayName":"Nkove, TZ","country":"TZ","name":"Nkove","_id":151424,"coord":{"lon":30.85,"lat":-7.95}},{"displayName":"Nkowakowa, ZA","country":"ZA","name":"Nkowakowa","_id":970341,"coord":{"lon":30.287081,"lat":-23.887819}},{"displayName":"Nkoyaphiri, BW","country":"BW","name":"Nkoyaphiri","_id":1106215,"coord":{"lon":25.83139,"lat":-24.632219}},{"displayName":"Nkpor, NG","country":"NG","name":"Nkpor","_id":2328811,"coord":{"lon":6.84458,"lat":6.15164}},{"displayName":"Nkwerre, NG","country":"NG","name":"Nkwerre","_id":2328790,"coord":{"lon":7.10627,"lat":5.75555}},{"displayName":"Nlongo, CM","country":"CM","name":"Nlongo","_id":2223638,"coord":{"lon":9.93333,"lat":4.95}},{"displayName":"Nlorong, ID","country":"ID","name":"Nlorong","_id":7333189,"coord":{"lon":111.462502,"lat":-7.0009}},{"displayName":"Nnewi, NG","country":"NG","name":"Nnewi","_id":2328765,"coord":{"lon":6.91478,"lat":6.01986}},{"displayName":"No Kunda, GM","country":"GM","name":"No Kunda","_id":2412355,"coord":{"lon":-15.83333,"lat":13.56667}},{"displayName":"Noa, ID","country":"ID","name":"Noa","_id":7414453,"coord":{"lon":120.200302,"lat":-8.5305}},{"displayName":"Noabo, CD","country":"CD","name":"Noabo","_id":8145527,"coord":{"lon":27.39897,"lat":2.45988}},{"displayName":"Noaillan, FR","country":"FR","name":"Noaillan","_id":6432327,"coord":{"lon":-0.36667,"lat":44.48333}},{"displayName":"Noaillan, FR","country":"FR","name":"Noaillan","_id":2990311,"coord":{"lon":-0.3664,"lat":44.480572}},{"displayName":"Noailles, FR","country":"FR","name":"Noailles","_id":6438864,"coord":{"lon":2.2,"lat":49.333328}},{"displayName":"Noailles, FR","country":"FR","name":"Noailles","_id":2990307,"coord":{"lon":2.20024,"lat":49.328659}},{"displayName":"Noale, IT","country":"IT","name":"Noale","_id":3172252,"coord":{"lon":12.07194,"lat":45.553329}},{"displayName":"Noalejo, ES","country":"ES","name":"Noalejo","_id":6358514,"coord":{"lon":-3.64986,"lat":37.538879}},{"displayName":"Noalejo, ES","country":"ES","name":"Noalejo","_id":2513217,"coord":{"lon":-3.65615,"lat":37.53017}},{"displayName":"Noalhat, FR","country":"FR","name":"Noalhat","_id":6440112,"coord":{"lon":3.45,"lat":45.916672}},{"displayName":"Noalhat, FR","country":"FR","name":"Noalhat","_id":2990303,"coord":{"lon":3.45634,"lat":45.91666}},{"displayName":"Noamundi, IN","country":"IN","name":"Noamundi","_id":1261242,"coord":{"lon":85.533333,"lat":22.15}},{"displayName":"Noank, US","country":"US","name":"Noank","_id":4839568,"coord":{"lon":-71.990631,"lat":41.327881}},{"displayName":"Noardburgum, NL","country":"NL","name":"Noardburgum","_id":2749992,"coord":{"lon":6.00523,"lat":53.221352}},{"displayName":"Noarlunga, AU","country":"AU","name":"Noarlunga","_id":2064655,"coord":{"lon":138.5,"lat":-35.183331}},{"displayName":"Noasca, IT","country":"IT","name":"Noasca","_id":3172251,"coord":{"lon":7.31571,"lat":45.45335}},{"displayName":"Nobber, IE","country":"IE","name":"Nobber","_id":2962217,"coord":{"lon":-6.75056,"lat":53.822781}},{"displayName":"Nobby, AU","country":"AU","name":"Nobby","_id":2155218,"coord":{"lon":151.899994,"lat":-27.866671}},{"displayName":"Nobbys Creek, AU","country":"AU","name":"Nobbys Creek","_id":2155211,"coord":{"lon":153.333328,"lat":-28.299999}},{"displayName":"Nobdenitz, DE","country":"DE","name":"Nobdenitz","_id":2862326,"coord":{"lon":12.28333,"lat":50.866669}},{"displayName":"Nobel, CA","country":"CA","name":"Nobel","_id":6088734,"coord":{"lon":-80.09967,"lat":45.416801}},{"displayName":"Nobeoka, JP","country":"JP","name":"Nobeoka","_id":1855095,"coord":{"lon":131.666672,"lat":32.583328}},{"displayName":"Nobitz, DE","country":"DE","name":"Nobitz","_id":6550552,"coord":{"lon":12.4909,"lat":50.9748}},{"displayName":"Nobitz, DE","country":"DE","name":"Nobitz","_id":2862322,"coord":{"lon":12.48605,"lat":50.976212}},{"displayName":"Noble County, US","country":"US","name":"Noble County","_id":4924192,"coord":{"lon":-85.424423,"lat":41.395599}},{"displayName":"Noble Lake, CA","country":"CA","name":"Noble Lake","_id":6088757,"coord":{"lon":-99.701141,"lat":49.504219}},{"displayName":"Noble Park, AU","country":"AU","name":"Noble Park","_id":2155204,"coord":{"lon":145.166672,"lat":-37.966671}},{"displayName":"Noble, US","country":"US","name":"Noble","_id":4543733,"coord":{"lon":-97.394753,"lat":35.13924}},{"displayName":"Nobleboro, US","country":"US","name":"Nobleboro","_id":4973402,"coord":{"lon":-69.485046,"lat":44.079521}},{"displayName":"Nobleford, CA","country":"CA","name":"Nobleford","_id":6088748,"coord":{"lon":-113.051857,"lat":49.883308}},{"displayName":"Noblejas, ES","country":"ES","name":"Noblejas","_id":6361775,"coord":{"lon":-3.42577,"lat":40.002529}},{"displayName":"Noblejas, ES","country":"ES","name":"Noblejas","_id":2513216,"coord":{"lon":-3.44001,"lat":39.98061}},{"displayName":"Nobles County, US","country":"US","name":"Nobles County","_id":5039323,"coord":{"lon":-95.76696,"lat":43.66663}},{"displayName":"Noblesville, US","country":"US","name":"Noblesville","_id":4924198,"coord":{"lon":-86.008598,"lat":40.045589}},{"displayName":"Noboribetsu, JP","country":"JP","name":"Noboribetsu","_id":2128894,"coord":{"lon":141.173065,"lat":42.451389}},{"displayName":"Nobres, BR","country":"BR","name":"Nobres","_id":3456277,"coord":{"lon":-56.327499,"lat":-14.72028}},{"displayName":"Nobsa, CO","country":"CO","name":"Nobsa","_id":3673829,"coord":{"lon":-72.940987,"lat":5.76978}},{"displayName":"Nocaima, CO","country":"CO","name":"Nocaima","_id":3673826,"coord":{"lon":-74.377998,"lat":5.06983}},{"displayName":"Nocara, IT","country":"IT","name":"Nocara","_id":3172250,"coord":{"lon":16.48189,"lat":40.099411}},{"displayName":"Nocatee, US","country":"US","name":"Nocatee","_id":7315235,"coord":{"lon":-81.402832,"lat":30.0832}},{"displayName":"Nocatee, US","country":"US","name":"Nocatee","_id":4166047,"coord":{"lon":-81.882309,"lat":27.16033}},{"displayName":"Nocciano, IT","country":"IT","name":"Nocciano","_id":3172249,"coord":{"lon":13.9841,"lat":42.333038}},{"displayName":"Noce, IT","country":"IT","name":"Noce","_id":2524002,"coord":{"lon":13.33333,"lat":38.116669}},{"displayName":"Noceco, ES","country":"ES","name":"Noceco","_id":3115440,"coord":{"lon":-3.48042,"lat":43.091499}},{"displayName":"Nocelo da Pena, ES","country":"ES","name":"Nocelo da Pena","_id":3115417,"coord":{"lon":-7.57902,"lat":42.061909}},{"displayName":"Nocera Inferiore, IT","country":"IT","name":"Nocera Inferiore","_id":6541687,"coord":{"lon":14.64014,"lat":40.752209}},{"displayName":"Nocera Inferiore, IT","country":"IT","name":"Nocera Inferiore","_id":3172244,"coord":{"lon":14.64014,"lat":40.752209}},{"displayName":"Nocera Superiore, IT","country":"IT","name":"Nocera Superiore","_id":3172243,"coord":{"lon":14.67294,"lat":40.742111}},{"displayName":"Nocera Superiore, IT","country":"IT","name":"Nocera Superiore","_id":6540699,"coord":{"lon":14.67294,"lat":40.742111}},{"displayName":"Nocera Terinese, IT","country":"IT","name":"Nocera Terinese","_id":6541954,"coord":{"lon":16.168591,"lat":39.034389}},{"displayName":"Nocera Terinese, IT","country":"IT","name":"Nocera Terinese","_id":2524000,"coord":{"lon":16.168591,"lat":39.034389}},{"displayName":"Nocera Umbra, IT","country":"IT","name":"Nocera Umbra","_id":3172242,"coord":{"lon":12.78717,"lat":43.111549}},{"displayName":"Noceto, IT","country":"IT","name":"Noceto","_id":6541831,"coord":{"lon":10.17128,"lat":44.811359}},{"displayName":"Noceto, IT","country":"IT","name":"Noceto","_id":3172241,"coord":{"lon":10.17128,"lat":44.811359}},{"displayName":"Nochebuena, CO","country":"CO","name":"Nochebuena","_id":3736146,"coord":{"lon":-75.489441,"lat":3.255}},{"displayName":"Nocher, LU","country":"LU","name":"Nocher","_id":2960221,"coord":{"lon":5.97917,"lat":49.947498}},{"displayName":"Nochern, DE","country":"DE","name":"Nochern","_id":6554075,"coord":{"lon":7.71667,"lat":50.166698}},{"displayName":"Nochern, DE","country":"DE","name":"Nochern","_id":2862319,"coord":{"lon":7.71667,"lat":50.166672}},{"displayName":"Nochistlan, MX","country":"MX","name":"Nochistlan","_id":3994912,"coord":{"lon":-102.849998,"lat":21.366671}},{"displayName":"Nochling, AT","country":"AT","name":"Nochling","_id":2770472,"coord":{"lon":14.98123,"lat":48.224331}},{"displayName":"Noci, IT","country":"IT","name":"Noci","_id":3172240,"coord":{"lon":17.131701,"lat":40.79073}},{"displayName":"Noci, IT","country":"IT","name":"Noci","_id":6541938,"coord":{"lon":17.131701,"lat":40.79073}},{"displayName":"Nociglia, IT","country":"IT","name":"Nociglia","_id":3172239,"coord":{"lon":18.326031,"lat":40.039219}},{"displayName":"Nockenthal, DE","country":"DE","name":"Nockenthal","_id":2862314,"coord":{"lon":7.25,"lat":49.716671}},{"displayName":"Nockwitz, DE","country":"DE","name":"Nockwitz","_id":2862312,"coord":{"lon":12.23333,"lat":51.433331}},{"displayName":"Nocona, US","country":"US","name":"Nocona","_id":4714865,"coord":{"lon":-97.725861,"lat":33.78677}},{"displayName":"Nocrich, RO","country":"RO","name":"Nocrich","_id":672176,"coord":{"lon":24.450001,"lat":45.900002}},{"displayName":"Nocupetaro, MX","country":"MX","name":"Nocupetaro","_id":3994911,"coord":{"lon":-101.150002,"lat":19.049999}},{"displayName":"Noda, DE","country":"DE","name":"Noda","_id":2862311,"coord":{"lon":11.01667,"lat":51.066669}},{"displayName":"Noda, JP","country":"JP","name":"Noda","_id":1855078,"coord":{"lon":139.858063,"lat":35.941109}},{"displayName":"Nodebo, DK","country":"DK","name":"Nodebo","_id":2616423,"coord":{"lon":12.34685,"lat":55.978771}},{"displayName":"Nodeirinho, PT","country":"PT","name":"Nodeirinho","_id":2265523,"coord":{"lon":-8.23594,"lat":39.930111}},{"displayName":"Nodeland, NO","country":"NO","name":"Nodeland","_id":3144534,"coord":{"lon":7.83576,"lat":58.15517}},{"displayName":"Nodinge-Nol, SE","country":"SE","name":"Nodinge-Nol","_id":3336569,"coord":{"lon":12.05591,"lat":57.91259}},{"displayName":"Nods, CH","country":"CH","name":"Nods","_id":7286657,"coord":{"lon":7.0833,"lat":47.123219}},{"displayName":"Nods, CH","country":"CH","name":"Nods","_id":2659444,"coord":{"lon":7.08105,"lat":47.113708}},{"displayName":"Noe, FR","country":"FR","name":"Noe","_id":2990294,"coord":{"lon":1.27709,"lat":43.358139}},{"displayName":"Noel, US","country":"US","name":"Noel","_id":4400673,"coord":{"lon":-94.485222,"lat":36.545631}},{"displayName":"Noen Kham, TH","country":"TH","name":"Noen Kham","_id":1155989,"coord":{"lon":99.938988,"lat":14.9501}},{"displayName":"Noen Maprang, TH","country":"TH","name":"Noen Maprang","_id":1608371,"coord":{"lon":100.633331,"lat":16.566669}},{"displayName":"Noen Sa-nga, TH","country":"TH","name":"Noen Sa-nga","_id":7510950,"coord":{"lon":102.001282,"lat":15.56428}},{"displayName":"Noepoli, IT","country":"IT","name":"Noepoli","_id":3172236,"coord":{"lon":16.329679,"lat":40.086811}},{"displayName":"Noer, DE","country":"DE","name":"Noer","_id":6551893,"coord":{"lon":10.0,"lat":54.466702}},{"displayName":"Noer, DE","country":"DE","name":"Noer","_id":2862304,"coord":{"lon":10.0,"lat":54.466671}},{"displayName":"Noerdange, LU","country":"LU","name":"Noerdange","_id":2960219,"coord":{"lon":5.92611,"lat":49.742222}},{"displayName":"Noerdlingen, DE","country":"DE","name":"Noerdlingen","_id":2861914,"coord":{"lon":10.48868,"lat":48.851219}},{"displayName":"Noertzange, LU","country":"LU","name":"Noertzange","_id":2960217,"coord":{"lon":6.05611,"lat":49.509171}},{"displayName":"Noetinger, AR","country":"AR","name":"Noetinger","_id":3843026,"coord":{"lon":-62.31126,"lat":-32.365971}},{"displayName":"Noeux-les-Mines, FR","country":"FR","name":"Noeux-les-Mines","_id":2990287,"coord":{"lon":2.66667,"lat":50.48333}},{"displayName":"Noez, ES","country":"ES","name":"Noez","_id":6361776,"coord":{"lon":-4.15544,"lat":39.739651}},{"displayName":"Noez, ES","country":"ES","name":"Noez","_id":2513215,"coord":{"lon":-4.18408,"lat":39.74094}},{"displayName":"Nof Ayalon, IL","country":"IL","name":"Nof Ayalon","_id":8199379,"coord":{"lon":34.99081,"lat":31.871111}},{"displayName":"Nofoalii, WS","country":"WS","name":"Nofoalii","_id":4035174,"coord":{"lon":-171.958725,"lat":-13.8217}},{"displayName":"Nogal de las Huertas, ES","country":"ES","name":"Nogal de las Huertas","_id":6360068,"coord":{"lon":-4.63612,"lat":42.389381}},{"displayName":"Nogal de las Huertas, ES","country":"ES","name":"Nogal de las Huertas","_id":3115409,"coord":{"lon":-4.64156,"lat":42.392551}},{"displayName":"Nogales de Pisuerga, ES","country":"ES","name":"Nogales de Pisuerga","_id":3115407,"coord":{"lon":-4.30548,"lat":42.670471}},{"displayName":"Nogales, CL","country":"CL","name":"Nogales","_id":3878575,"coord":{"lon":-71.23333,"lat":-32.716671}},{"displayName":"Nogales, ES","country":"ES","name":"Nogales","_id":3115408,"coord":{"lon":-5.46333,"lat":42.509102}},{"displayName":"Nogales, ES","country":"ES","name":"Nogales","_id":6355957,"coord":{"lon":-6.73052,"lat":38.60392}},{"displayName":"Nogales, ES","country":"ES","name":"Nogales","_id":2513214,"coord":{"lon":-6.74901,"lat":38.586288}},{"displayName":"Nogales, MX","country":"MX","name":"Nogales","_id":3522696,"coord":{"lon":-97.166672,"lat":18.816669}},{"displayName":"Nogales, US","country":"US","name":"Nogales","_id":5306611,"coord":{"lon":-110.93425,"lat":31.34038}},{"displayName":"Nogamerzin-Yurt, RU","country":"RU","name":"Nogamerzin-Yurt","_id":571702,"coord":{"lon":44.888889,"lat":43.65361}},{"displayName":"Nogara, IT","country":"IT","name":"Nogara","_id":3172235,"coord":{"lon":11.06579,"lat":45.17308}},{"displayName":"Nogaredo, IT","country":"IT","name":"Nogaredo","_id":6534631,"coord":{"lon":11.02388,"lat":45.912998}},{"displayName":"Nogarejas, ES","country":"ES","name":"Nogarejas","_id":3115405,"coord":{"lon":-6.13916,"lat":42.187439}},{"displayName":"Nogaro, FR","country":"FR","name":"Nogaro","_id":6432039,"coord":{"lon":-0.03333,"lat":43.76667}},{"displayName":"Nogaro, FR","country":"FR","name":"Nogaro","_id":2990284,"coord":{"lon":-0.03293,"lat":43.75856}},{"displayName":"Nogarole Rocca, IT","country":"IT","name":"Nogarole Rocca","_id":3172232,"coord":{"lon":10.88379,"lat":45.291882}},{"displayName":"Nogarole Vicentino, IT","country":"IT","name":"Nogarole Vicentino","_id":6535584,"coord":{"lon":11.28829,"lat":45.560188}},{"displayName":"Nogata, JP","country":"JP","name":"Nogata","_id":1855066,"coord":{"lon":130.733337,"lat":33.73333}},{"displayName":"Nogent, FR","country":"FR","name":"Nogent","_id":6616998,"coord":{"lon":5.3459,"lat":48.0294}},{"displayName":"Nogent, FR","country":"FR","name":"Nogent","_id":2990280,"coord":{"lon":5.35,"lat":48.033329}},{"displayName":"Nogent-le-Bas, FR","country":"FR","name":"Nogent-le-Bas","_id":2990276,"coord":{"lon":5.33323,"lat":48.019741}},{"displayName":"Nogent-le-Phaye, FR","country":"FR","name":"Nogent-le-Phaye","_id":6430826,"coord":{"lon":1.5776,"lat":48.446999}},{"displayName":"Nogent-le-Phaye, FR","country":"FR","name":"Nogent-le-Phaye","_id":2990274,"coord":{"lon":1.57777,"lat":48.445278}},{"displayName":"Nogent-le-Roi, FR","country":"FR","name":"Nogent-le-Roi","_id":6430827,"coord":{"lon":1.53333,"lat":48.650002}},{"displayName":"Nogent-le-Roi, FR","country":"FR","name":"Nogent-le-Roi","_id":2990273,"coord":{"lon":1.52933,"lat":48.64785}},{"displayName":"Nogent-le-Rotrou, FR","country":"FR","name":"Nogent-le-Rotrou","_id":6430828,"coord":{"lon":0.83333,"lat":48.316669}},{"displayName":"Nogent-le-Rotrou, FR","country":"FR","name":"Nogent-le-Rotrou","_id":2990272,"coord":{"lon":0.83333,"lat":48.316669}},{"displayName":"Nogent-sur-Marne, FR","country":"FR","name":"Nogent-sur-Marne","_id":6452026,"coord":{"lon":2.48333,"lat":48.833328}},{"displayName":"Nogent-sur-Marne, FR","country":"FR","name":"Nogent-sur-Marne","_id":2990265,"coord":{"lon":2.48333,"lat":48.833328}},{"displayName":"Nogent-sur-Oise, FR","country":"FR","name":"Nogent-sur-Oise","_id":6438865,"coord":{"lon":2.46667,"lat":49.26667}},{"displayName":"Nogent-sur-Oise, FR","country":"FR","name":"Nogent-sur-Oise","_id":2990264,"coord":{"lon":2.47074,"lat":49.27158}},{"displayName":"Nogent-sur-Seine, FR","country":"FR","name":"Nogent-sur-Seine","_id":6426495,"coord":{"lon":3.5036,"lat":48.493801}},{"displayName":"Nogent-sur-Seine, FR","country":"FR","name":"Nogent-sur-Seine","_id":2990263,"coord":{"lon":3.5,"lat":48.48333}},{"displayName":"Nogent-sur-Vernisson, FR","country":"FR","name":"Nogent-sur-Vernisson","_id":6434672,"coord":{"lon":2.75,"lat":47.849998}},{"displayName":"Nogent-sur-Vernisson, FR","country":"FR","name":"Nogent-sur-Vernisson","_id":2990261,"coord":{"lon":2.74266,"lat":47.846031}},{"displayName":"Nogentel, FR","country":"FR","name":"Nogentel","_id":6425106,"coord":{"lon":3.4,"lat":49.01667}},{"displayName":"Nogentel, FR","country":"FR","name":"Nogentel","_id":2990281,"coord":{"lon":3.4025,"lat":49.017502}},{"displayName":"Noggerup, AU","country":"AU","name":"Noggerup","_id":2064645,"coord":{"lon":116.166672,"lat":-33.583328}},{"displayName":"Noghera, IT","country":"IT","name":"Noghera","_id":3172231,"coord":{"lon":12.35667,"lat":45.52306}},{"displayName":"Noginsk, RU","country":"RU","name":"Noginsk","_id":520068,"coord":{"lon":38.443802,"lat":55.86647}},{"displayName":"Noginsk-9, RU","country":"RU","name":"Noginsk-9","_id":7601828,"coord":{"lon":38.50013,"lat":56.066811}},{"displayName":"Nogir, RU","country":"RU","name":"Nogir","_id":520065,"coord":{"lon":44.636501,"lat":43.081619}},{"displayName":"Nogliki, RU","country":"RU","name":"Nogliki","_id":2122783,"coord":{"lon":143.166672,"lat":51.833328}},{"displayName":"Nogoonnuur, MN","country":"MN","name":"Nogoonnuur","_id":1515468,"coord":{"lon":90.242043,"lat":49.616268}},{"displayName":"Nogosari, ID","country":"ID","name":"Nogosari","_id":1633900,"coord":{"lon":113.293602,"lat":-8.1882}},{"displayName":"Noguchi, JP","country":"JP","name":"Noguchi","_id":2111594,"coord":{"lon":140.333328,"lat":36.549999}},{"displayName":"Nogueira da Regedoura, PT","country":"PT","name":"Nogueira da Regedoura","_id":8014893,"coord":{"lon":-8.57988,"lat":41.00592}},{"displayName":"Nogueira da Regedoura, PT","country":"PT","name":"Nogueira da Regedoura","_id":2737137,"coord":{"lon":-8.59195,"lat":41.005299}},{"displayName":"Nogueira de Ramuin, ES","country":"ES","name":"Nogueira de Ramuin","_id":3115394,"coord":{"lon":-7.74982,"lat":42.417122}},{"displayName":"Nogueira de Ramuín, ES","country":"ES","name":"Nogueira de Ramuín","_id":6359870,"coord":{"lon":-7.70591,"lat":42.398788}},{"displayName":"Nogueira do Cravo, PT","country":"PT","name":"Nogueira do Cravo","_id":8014686,"coord":{"lon":-8.45046,"lat":40.887058}},{"displayName":"Nogueira do Cravo, PT","country":"PT","name":"Nogueira do Cravo","_id":8014840,"coord":{"lon":-7.88756,"lat":40.333889}},{"displayName":"Nogueira do Cravo, PT","country":"PT","name":"Nogueira do Cravo","_id":2737134,"coord":{"lon":-7.88321,"lat":40.337151}},{"displayName":"Nogueira, PT","country":"PT","name":"Nogueira","_id":8012750,"coord":{"lon":-8.58461,"lat":41.234032}},{"displayName":"Nogueira, PT","country":"PT","name":"Nogueira","_id":2737150,"coord":{"lon":-8.58685,"lat":41.242458}},{"displayName":"Nogueiró, PT","country":"PT","name":"Nogueiró","_id":8011061,"coord":{"lon":-8.38679,"lat":41.544552}},{"displayName":"Nogueras, ES","country":"ES","name":"Nogueras","_id":6361570,"coord":{"lon":-1.07575,"lat":41.146702}},{"displayName":"Nogueras, ES","country":"ES","name":"Nogueras","_id":3115386,"coord":{"lon":-1.06708,"lat":41.13475}},{"displayName":"Nogueruelas, ES","country":"ES","name":"Nogueruelas","_id":6361571,"coord":{"lon":-0.62245,"lat":40.252659}},{"displayName":"Nogueruelas, ES","country":"ES","name":"Nogueruelas","_id":3115383,"coord":{"lon":-0.63606,"lat":40.236221}},{"displayName":"Nogushi, RU","country":"RU","name":"Nogushi","_id":520057,"coord":{"lon":58.650299,"lat":55.979401}},{"displayName":"Nohanent, FR","country":"FR","name":"Nohanent","_id":6440113,"coord":{"lon":3.06667,"lat":45.816669}},{"displayName":"Nohanent, FR","country":"FR","name":"Nohanent","_id":2990257,"coord":{"lon":3.05658,"lat":45.810032}},{"displayName":"Nohar, IN","country":"IN","name":"Nohar","_id":1261234,"coord":{"lon":74.76667,"lat":29.183331}},{"displayName":"Nohaval, IE","country":"IE","name":"Nohaval","_id":2962216,"coord":{"lon":-8.40694,"lat":51.72472}},{"displayName":"Noheda, ES","country":"ES","name":"Noheda","_id":3115379,"coord":{"lon":-2.25399,"lat":40.179741}},{"displayName":"Nohen, DE","country":"DE","name":"Nohen","_id":6553621,"coord":{"lon":7.25,"lat":49.633301}},{"displayName":"Nohen, DE","country":"DE","name":"Nohen","_id":2862295,"coord":{"lon":7.25,"lat":49.633331}},{"displayName":"Nohfelden, DE","country":"DE","name":"Nohfelden","_id":6547535,"coord":{"lon":7.0808,"lat":49.575901}},{"displayName":"Nohfelden, DE","country":"DE","name":"Nohfelden","_id":2862294,"coord":{"lon":7.14283,"lat":49.586929}},{"displayName":"Nohic, FR","country":"FR","name":"Nohic","_id":6445012,"coord":{"lon":1.43333,"lat":43.883331}},{"displayName":"Nohic, FR","country":"FR","name":"Nohic","_id":2990250,"coord":{"lon":1.43741,"lat":43.889702}},{"displayName":"Nohl, CH","country":"CH","name":"Nohl","_id":2659443,"coord":{"lon":8.60785,"lat":47.669498}},{"displayName":"Nohn, DE","country":"DE","name":"Nohn","_id":6554705,"coord":{"lon":6.78333,"lat":50.333302}},{"displayName":"Nohn, DE","country":"DE","name":"Nohn","_id":2862292,"coord":{"lon":6.78333,"lat":50.333328}},{"displayName":"Nohra, DE","country":"DE","name":"Nohra","_id":6550271,"coord":{"lon":11.2333,"lat":50.966702}},{"displayName":"Nohra, DE","country":"DE","name":"Nohra","_id":2862289,"coord":{"lon":11.23333,"lat":50.966671}},{"displayName":"Nohra, DE","country":"DE","name":"Nohra","_id":6549850,"coord":{"lon":10.7207,"lat":51.479}},{"displayName":"Nohra, DE","country":"DE","name":"Nohra","_id":2862288,"coord":{"lon":10.7,"lat":51.433331}},{"displayName":"Noia, ES","country":"ES","name":"Noia","_id":3115331,"coord":{"lon":-8.88734,"lat":42.785831}},{"displayName":"Noicattaro, IT","country":"IT","name":"Noicattaro","_id":6537554,"coord":{"lon":16.98959,"lat":41.033829}},{"displayName":"Noicattaro, IT","country":"IT","name":"Noicattaro","_id":3172228,"coord":{"lon":16.98959,"lat":41.033829}},{"displayName":"Noida, IN","country":"IN","name":"Noida","_id":7279746,"coord":{"lon":77.330002,"lat":28.58}},{"displayName":"Noidans-les-Vesoul, FR","country":"FR","name":"Noidans-les-Vesoul","_id":2990247,"coord":{"lon":6.12571,"lat":47.612991}},{"displayName":"Noidans-lès-Vesoul, FR","country":"FR","name":"Noidans-lès-Vesoul","_id":6442043,"coord":{"lon":6.13333,"lat":47.616669}},{"displayName":"Nointot, FR","country":"FR","name":"Nointot","_id":6443362,"coord":{"lon":0.48333,"lat":49.599998}},{"displayName":"Nointot, FR","country":"FR","name":"Nointot","_id":2990240,"coord":{"lon":0.47674,"lat":49.598221}},{"displayName":"Noiraigue, CH","country":"CH","name":"Noiraigue","_id":2659442,"coord":{"lon":6.72462,"lat":46.956219}},{"displayName":"Noiretable, FR","country":"FR","name":"Noiretable","_id":2990214,"coord":{"lon":3.76276,"lat":45.818001}},{"displayName":"Noirmoutier-en-l\u0027Île, FR","country":"FR","name":"Noirmoutier-en-l\u0027Île","_id":6445160,"coord":{"lon":-2.25,"lat":47.0}},{"displayName":"Noirmoutier-en-l\u0027Île, FR","country":"FR","name":"Noirmoutier-en-l\u0027Île","_id":2990205,"coord":{"lon":-2.27374,"lat":46.99733}},{"displayName":"Noirpalu, FR","country":"FR","name":"Noirpalu","_id":2990199,"coord":{"lon":-1.32988,"lat":48.79166}},{"displayName":"Noirétable, FR","country":"FR","name":"Noirétable","_id":6434213,"coord":{"lon":3.76667,"lat":45.816669}},{"displayName":"Noiseau, FR","country":"FR","name":"Noiseau","_id":6452027,"coord":{"lon":2.55,"lat":48.783329}},{"displayName":"Noiseau, FR","country":"FR","name":"Noiseau","_id":2990195,"coord":{"lon":2.54892,"lat":48.77589}},{"displayName":"Noisiel, FR","country":"FR","name":"Noisiel","_id":6443774,"coord":{"lon":2.63333,"lat":48.849998}},{"displayName":"Noisiel, FR","country":"FR","name":"Noisiel","_id":2990192,"coord":{"lon":2.62435,"lat":48.848679}},{"displayName":"Noisy-le-Grand, FR","country":"FR","name":"Noisy-le-Grand","_id":6451999,"coord":{"lon":2.56667,"lat":48.849998}},{"displayName":"Noisy-le-Grand, FR","country":"FR","name":"Noisy-le-Grand","_id":2990189,"coord":{"lon":2.56266,"lat":48.849789}},{"displayName":"Noisy-le-Roi, FR","country":"FR","name":"Noisy-le-Roi","_id":6444042,"coord":{"lon":2.06667,"lat":48.849998}},{"displayName":"Noisy-le-Roi, FR","country":"FR","name":"Noisy-le-Roi","_id":2990188,"coord":{"lon":2.06345,"lat":48.844452}},{"displayName":"Noisy-le-Sec, FR","country":"FR","name":"Noisy-le-Sec","_id":6452000,"coord":{"lon":2.46667,"lat":48.883331}},{"displayName":"Noisy-le-Sec, FR","country":"FR","name":"Noisy-le-Sec","_id":2990187,"coord":{"lon":2.46451,"lat":48.891479}},{"displayName":"Noisy-sur-Ecole, FR","country":"FR","name":"Noisy-sur-Ecole","_id":2990185,"coord":{"lon":2.50804,"lat":48.367008}},{"displayName":"Noisy-sur-École, FR","country":"FR","name":"Noisy-sur-École","_id":6443776,"coord":{"lon":2.5,"lat":48.366669}},{"displayName":"Noite Negra, BR","country":"BR","name":"Noite Negra","_id":3456273,"coord":{"lon":-51.416672,"lat":-22.26667}},{"displayName":"Noizay, FR","country":"FR","name":"Noizay","_id":6433070,"coord":{"lon":0.9,"lat":47.416672}},{"displayName":"Noizay, FR","country":"FR","name":"Noizay","_id":2990183,"coord":{"lon":0.89201,"lat":47.421879}},{"displayName":"Noja, ES","country":"ES","name":"Noja","_id":6360693,"coord":{"lon":-3.51571,"lat":43.485939}},{"displayName":"Noja, ES","country":"ES","name":"Noja","_id":3115376,"coord":{"lon":-3.52306,"lat":43.48917}},{"displayName":"Nojorid, RO","country":"RO","name":"Nojorid","_id":672171,"coord":{"lon":21.883329,"lat":46.98333}},{"displayName":"Nokaneng, BW","country":"BW","name":"Nokaneng","_id":933211,"coord":{"lon":22.26667,"lat":-19.66667}},{"displayName":"Nokesville, US","country":"US","name":"Nokesville","_id":4776181,"coord":{"lon":-77.579712,"lat":38.69873}},{"displayName":"Nokha, IN","country":"IN","name":"Nokha","_id":1261227,"coord":{"lon":73.416672,"lat":27.6}},{"displayName":"Nokia, FI","country":"FI","name":"Nokia","_id":644451,"coord":{"lon":23.5,"lat":61.466671}},{"displayName":"Nokia, FI","country":"FI","name":"Nokia","_id":644450,"coord":{"lon":23.5,"lat":61.466671}},{"displayName":"Nokomis, CA","country":"CA","name":"Nokomis","_id":6088895,"coord":{"lon":-105.001137,"lat":51.500069}},{"displayName":"Nokomis, US","country":"US","name":"Nokomis","_id":4166049,"coord":{"lon":-82.44426,"lat":27.119221}},{"displayName":"Nokomis, US","country":"US","name":"Nokomis","_id":4245744,"coord":{"lon":-89.28508,"lat":39.301159}},{"displayName":"Nola, CF","country":"CF","name":"Nola","_id":2383827,"coord":{"lon":16.040001,"lat":3.52716}},{"displayName":"Nola, IT","country":"IT","name":"Nola","_id":6541905,"coord":{"lon":14.53294,"lat":40.922009}},{"displayName":"Nola, IT","country":"IT","name":"Nola","_id":3172227,"coord":{"lon":14.53294,"lat":40.922009}},{"displayName":"Nolan County, US","country":"US","name":"Nolan County","_id":5527151,"coord":{"lon":-100.417053,"lat":32.300121}},{"displayName":"Nolanville, US","country":"US","name":"Nolanville","_id":4714895,"coord":{"lon":-97.605568,"lat":31.078791}},{"displayName":"Nolay, ES","country":"ES","name":"Nolay","_id":6361172,"coord":{"lon":-2.34514,"lat":41.522518}},{"displayName":"Nolay, ES","country":"ES","name":"Nolay","_id":3115374,"coord":{"lon":-2.35061,"lat":41.52721}},{"displayName":"Nolay, FR","country":"FR","name":"Nolay","_id":6616086,"coord":{"lon":4.634,"lat":46.952099}},{"displayName":"Nolay, FR","country":"FR","name":"Nolay","_id":2990177,"coord":{"lon":4.63405,"lat":46.952019}},{"displayName":"Nolby, SE","country":"SE","name":"Nolby","_id":2689520,"coord":{"lon":17.369169,"lat":62.287498}},{"displayName":"Nole, IT","country":"IT","name":"Nole","_id":3172226,"coord":{"lon":7.57312,"lat":45.241249}},{"displayName":"Nolensville, US","country":"US","name":"Nolensville","_id":4645738,"coord":{"lon":-86.669441,"lat":35.95229}},{"displayName":"Nolhac, FR","country":"FR","name":"Nolhac","_id":2990173,"coord":{"lon":3.81968,"lat":45.10725}},{"displayName":"Nolhaga, SE","country":"SE","name":"Nolhaga","_id":2689513,"coord":{"lon":12.51746,"lat":57.93367}},{"displayName":"Noli, IT","country":"IT","name":"Noli","_id":3172225,"coord":{"lon":8.41458,"lat":44.206081}},{"displayName":"Noling, PH","country":"PH","name":"Noling","_id":1697439,"coord":{"lon":124.099808,"lat":6.65984}},{"displayName":"Nolinsk, RU","country":"RU","name":"Nolinsk","_id":520041,"coord":{"lon":49.936291,"lat":57.55962}},{"displayName":"Nomaglio, IT","country":"IT","name":"Nomaglio","_id":3172222,"coord":{"lon":7.86032,"lat":45.53616}},{"displayName":"Nomain, FR","country":"FR","name":"Nomain","_id":6438388,"coord":{"lon":3.25,"lat":50.5}},{"displayName":"Nomain, FR","country":"FR","name":"Nomain","_id":2990167,"coord":{"lon":3.24991,"lat":50.498569}},{"displayName":"Nomarchía Anatolikís Attikís, GR","country":"GR","name":"Nomarchía Anatolikís Attikís","_id":445406,"coord":{"lon":23.799999,"lat":38.049999}},{"displayName":"Nomarchía Athínas, GR","country":"GR","name":"Nomarchía Athínas","_id":445408,"coord":{"lon":23.75,"lat":37.966671}},{"displayName":"Nomarchía Dytikís Attikís, GR","country":"GR","name":"Nomarchía Dytikís Attikís","_id":445407,"coord":{"lon":23.39333,"lat":38.06485}},{"displayName":"Nombela, ES","country":"ES","name":"Nombela","_id":6361777,"coord":{"lon":-4.5294,"lat":40.131962}},{"displayName":"Nombela, ES","country":"ES","name":"Nombela","_id":3115373,"coord":{"lon":-4.50223,"lat":40.1553}},{"displayName":"Nomborn, DE","country":"DE","name":"Nomborn","_id":6554162,"coord":{"lon":7.91667,"lat":50.4333}},{"displayName":"Nomborn, DE","country":"DE","name":"Nomborn","_id":2862249,"coord":{"lon":7.91667,"lat":50.433331}},{"displayName":"Nombre de Dios, MX","country":"MX","name":"Nombre de Dios","_id":3994863,"coord":{"lon":-104.23333,"lat":23.85}},{"displayName":"Nombre de Jesus, HN","country":"HN","name":"Nombre de Jesus","_id":3604414,"coord":{"lon":-86.683327,"lat":15.35}},{"displayName":"Nombrevilla, ES","country":"ES","name":"Nombrevilla","_id":6362875,"coord":{"lon":-1.34995,"lat":41.105141}},{"displayName":"Nombrevilla, ES","country":"ES","name":"Nombrevilla","_id":3115372,"coord":{"lon":-1.35904,"lat":41.1073}},{"displayName":"Nomdieu, FR","country":"FR","name":"Nomdieu","_id":6435024,"coord":{"lon":0.48333,"lat":44.099998}},{"displayName":"Nomdieu, FR","country":"FR","name":"Nomdieu","_id":2990166,"coord":{"lon":0.47486,"lat":44.095181}},{"displayName":"Nome Census Area, US","country":"US","name":"Nome Census Area","_id":5870134,"coord":{"lon":-163.750565,"lat":64.833328}},{"displayName":"Nome, AU","country":"AU","name":"Nome","_id":2155175,"coord":{"lon":146.916672,"lat":-19.383329}},{"displayName":"Nome, US","country":"US","name":"Nome","_id":5870133,"coord":{"lon":-165.406387,"lat":64.501106}},{"displayName":"Nomeny, FR","country":"FR","name":"Nomeny","_id":6614332,"coord":{"lon":6.2261,"lat":48.889801}},{"displayName":"Nomeny, FR","country":"FR","name":"Nomeny","_id":2990164,"coord":{"lon":6.23333,"lat":48.900002}},{"displayName":"Nomexy, FR","country":"FR","name":"Nomexy","_id":6445663,"coord":{"lon":6.38333,"lat":48.299999}},{"displayName":"Nomexy, FR","country":"FR","name":"Nomexy","_id":2990163,"coord":{"lon":6.38572,"lat":48.307411}},{"displayName":"Nomgon, MN","country":"MN","name":"Nomgon","_id":2029816,"coord":{"lon":105.665817,"lat":49.2001}},{"displayName":"Nomi, IT","country":"IT","name":"Nomi","_id":3172220,"coord":{"lon":11.07188,"lat":45.9286}},{"displayName":"Nommay, FR","country":"FR","name":"Nommay","_id":6429917,"coord":{"lon":6.85,"lat":47.533329}},{"displayName":"Nommay, FR","country":"FR","name":"Nommay","_id":2990162,"coord":{"lon":6.84219,"lat":47.5378}},{"displayName":"Nommern, LU","country":"LU","name":"Nommern","_id":6693294,"coord":{"lon":6.17472,"lat":49.786942}},{"displayName":"Nommern, LU","country":"LU","name":"Nommern","_id":2960216,"coord":{"lon":6.17472,"lat":49.786942}},{"displayName":"Nompatelize, FR","country":"FR","name":"Nompatelize","_id":6445664,"coord":{"lon":6.85,"lat":48.333328}},{"displayName":"Nompatelize, FR","country":"FR","name":"Nompatelize","_id":2990161,"coord":{"lon":6.85194,"lat":48.3255}},{"displayName":"Nomwin Municipality, FM","country":"FM","name":"Nomwin Municipality","_id":7626972,"coord":{"lon":151.744995,"lat":8.43}},{"displayName":"Nomwin, FM","country":"FM","name":"Nomwin","_id":7644931,"coord":{"lon":151.748001,"lat":8.43}},{"displayName":"Nomós Achaḯas, GR","country":"GR","name":"Nomós Achaḯas","_id":265491,"coord":{"lon":22.0,"lat":38.0}},{"displayName":"Nomós Aitolías kai Akarnanías, GR","country":"GR","name":"Nomós Aitolías kai Akarnanías","_id":265508,"coord":{"lon":21.5,"lat":38.5}},{"displayName":"Nomós Argolídos, GR","country":"GR","name":"Nomós Argolídos","_id":264673,"coord":{"lon":22.83333,"lat":37.666672}},{"displayName":"Nomós Arkadías, GR","country":"GR","name":"Nomós Arkadías","_id":264644,"coord":{"lon":22.25,"lat":37.583328}},{"displayName":"Nomós Attikís, GR","country":"GR","name":"Nomós Attikís","_id":264353,"coord":{"lon":23.5,"lat":38.083328}},{"displayName":"Nomós Chalkidikís, GR","country":"GR","name":"Nomós Chalkidikís","_id":735804,"coord":{"lon":23.5,"lat":40.416672}},{"displayName":"Nomós Chaniás, GR","country":"GR","name":"Nomós Chaniás","_id":260096,"coord":{"lon":24.0,"lat":35.333328}},{"displayName":"Nomós Dodekanísou, GR","country":"GR","name":"Nomós Dodekanísou","_id":263021,"coord":{"lon":27.08333,"lat":36.833328}},{"displayName":"Nomós Drámas, GR","country":"GR","name":"Nomós Drámas","_id":736363,"coord":{"lon":24.25,"lat":41.25}},{"displayName":"Nomós Evrytanías, GR","country":"GR","name":"Nomós Evrytanías","_id":262572,"coord":{"lon":21.66667,"lat":39.0}},{"displayName":"Nomós Evvoías, GR","country":"GR","name":"Nomós Evvoías","_id":262564,"coord":{"lon":24.0,"lat":38.5}},{"displayName":"Nomós Florínis, GR","country":"GR","name":"Nomós Florínis","_id":736228,"coord":{"lon":21.41667,"lat":40.75}},{"displayName":"Nomós Fokídos, GR","country":"GR","name":"Nomós Fokídos","_id":262322,"coord":{"lon":22.25,"lat":38.5}},{"displayName":"Nomós Fthiótidos, GR","country":"GR","name":"Nomós Fthiótidos","_id":262187,"coord":{"lon":22.41667,"lat":38.833328}},{"displayName":"Nomós Grevenón, GR","country":"GR","name":"Nomós Grevenón","_id":736149,"coord":{"lon":21.41667,"lat":40.083328}},{"displayName":"Nomós Ileías, GR","country":"GR","name":"Nomós Ileías","_id":261797,"coord":{"lon":21.58333,"lat":37.75}},{"displayName":"Nomós Imathías, GR","country":"GR","name":"Nomós Imathías","_id":736120,"coord":{"lon":22.25,"lat":40.5}},{"displayName":"Nomós Ioannínon, GR","country":"GR","name":"Nomós Ioannínon","_id":261777,"coord":{"lon":20.66667,"lat":39.75}},{"displayName":"Nomós Irakleíou, GR","country":"GR","name":"Nomós Irakleíou","_id":261741,"coord":{"lon":25.16667,"lat":35.166672}},{"displayName":"Nomós Kardhítsas, GR","country":"GR","name":"Nomós Kardhítsas","_id":260988,"coord":{"lon":21.75,"lat":39.333328}},{"displayName":"Nomós Kastoriás, GR","country":"GR","name":"Nomós Kastoriás","_id":735925,"coord":{"lon":21.16667,"lat":40.5}},{"displayName":"Nomós Kaválas, GR","country":"GR","name":"Nomós Kaválas","_id":735857,"coord":{"lon":24.5,"lat":41.0}},{"displayName":"Nomós Kefallinías, GR","country":"GR","name":"Nomós Kefallinías","_id":260310,"coord":{"lon":20.5,"lat":38.25}},{"displayName":"Nomós Kerkýras, GR","country":"GR","name":"Nomós Kerkýras","_id":2463676,"coord":{"lon":19.75,"lat":39.666672}},{"displayName":"Nomós Kilkís, GR","country":"GR","name":"Nomós Kilkís","_id":735735,"coord":{"lon":22.66667,"lat":41.0}},{"displayName":"Nomós Korinthías, GR","country":"GR","name":"Nomós Korinthías","_id":259290,"coord":{"lon":22.66667,"lat":37.916672}},{"displayName":"Nomós Kozánis, GR","country":"GR","name":"Nomós Kozánis","_id":735562,"coord":{"lon":21.716669,"lat":40.333328}},{"displayName":"Nomós Kykládon, GR","country":"GR","name":"Nomós Kykládon","_id":259819,"coord":{"lon":24.91667,"lat":37.416672}},{"displayName":"Nomós Lakonías, GR","country":"GR","name":"Nomós Lakonías","_id":258657,"coord":{"lon":22.58333,"lat":37.0}},{"displayName":"Nomós Larísis, GR","country":"GR","name":"Nomós Larísis","_id":258575,"coord":{"lon":22.5,"lat":39.5}},{"displayName":"Nomós Lasithíou, GR","country":"GR","name":"Nomós Lasithíou","_id":258569,"coord":{"lon":25.83333,"lat":35.083328}},{"displayName":"Nomós Lésvou, GR","country":"GR","name":"Nomós Lésvou","_id":258465,"coord":{"lon":26.33333,"lat":39.166672}},{"displayName":"Nomós Magnisías, GR","country":"GR","name":"Nomós Magnisías","_id":258013,"coord":{"lon":22.75,"lat":39.25}},{"displayName":"Nomós Messinías, GR","country":"GR","name":"Nomós Messinías","_id":257149,"coord":{"lon":21.83333,"lat":37.25}},{"displayName":"Nomós Pierías, GR","country":"GR","name":"Nomós Pierías","_id":734649,"coord":{"lon":22.41667,"lat":40.25}},{"displayName":"Nomós Piraiós, GR","country":"GR","name":"Nomós Piraiós","_id":406101,"coord":{"lon":23.41667,"lat":37.5}},{"displayName":"Nomós Prevézis, GR","country":"GR","name":"Nomós Prevézis","_id":254695,"coord":{"lon":20.66667,"lat":39.166672}},{"displayName":"Nomós Péllis, GR","country":"GR","name":"Nomós Péllis","_id":734725,"coord":{"lon":22.25,"lat":40.833328}},{"displayName":"Nomós Rethýmnis, GR","country":"GR","name":"Nomós Rethýmnis","_id":254353,"coord":{"lon":24.58333,"lat":35.25}},{"displayName":"Nomós Rodópis, GR","country":"GR","name":"Nomós Rodópis","_id":734375,"coord":{"lon":25.5,"lat":41.083328}},{"displayName":"Nomós Serrón, GR","country":"GR","name":"Nomós Serrón","_id":734329,"coord":{"lon":23.5,"lat":41.166672}},{"displayName":"Nomós Sámou, GR","country":"GR","name":"Nomós Sámou","_id":254112,"coord":{"lon":26.75,"lat":37.75}},{"displayName":"Nomós Thesprotías, GR","country":"GR","name":"Nomós Thesprotías","_id":252941,"coord":{"lon":20.33333,"lat":39.5}},{"displayName":"Nomós Thessaloníkis, GR","country":"GR","name":"Nomós Thessaloníkis","_id":734075,"coord":{"lon":23.0,"lat":40.666672}},{"displayName":"Nomós Voiotías, GR","country":"GR","name":"Nomós Voiotías","_id":251851,"coord":{"lon":23.0,"lat":38.333328}},{"displayName":"Nomós Xánthis, GR","country":"GR","name":"Nomós Xánthis","_id":733839,"coord":{"lon":24.83333,"lat":41.166672}},{"displayName":"Nomós Zakýnthou, GR","country":"GR","name":"Nomós Zakýnthou","_id":251276,"coord":{"lon":20.75,"lat":37.75}},{"displayName":"Nomós Ártas, GR","country":"GR","name":"Nomós Ártas","_id":264545,"coord":{"lon":21.0,"lat":39.166672}},{"displayName":"Nomós Évrou, GR","country":"GR","name":"Nomós Évrou","_id":736287,"coord":{"lon":26.0,"lat":41.0}},{"displayName":"Non Daeng, TH","country":"TH","name":"Non Daeng","_id":7510961,"coord":{"lon":102.540253,"lat":15.41061}},{"displayName":"Non Din Daeng, TH","country":"TH","name":"Non Din Daeng","_id":7510956,"coord":{"lon":102.748138,"lat":14.31353}},{"displayName":"Non Kho, TH","country":"TH","name":"Non Kho","_id":1608142,"coord":{"lon":104.72522,"lat":14.91666}},{"displayName":"Non Narai, TH","country":"TH","name":"Non Narai","_id":7510986,"coord":{"lon":103.91333,"lat":15.23764}},{"displayName":"Non Sa-at, TH","country":"TH","name":"Non Sa-at","_id":1608140,"coord":{"lon":102.8937,"lat":16.979139}},{"displayName":"Non Sang, TH","country":"TH","name":"Non Sang","_id":1608139,"coord":{"lon":102.566422,"lat":16.8687}},{"displayName":"Non Sila, TH","country":"TH","name":"Non Sila","_id":7510964,"coord":{"lon":102.66983,"lat":15.97439}},{"displayName":"Non Sung, TH","country":"TH","name":"Non Sung","_id":1608136,"coord":{"lon":102.256943,"lat":15.18014}},{"displayName":"Non Suwan, TH","country":"TH","name":"Non Suwan","_id":1599410,"coord":{"lon":102.596893,"lat":14.58044}},{"displayName":"Non Thai, TH","country":"TH","name":"Non Thai","_id":1608131,"coord":{"lon":102.035812,"lat":15.19811}},{"displayName":"Nonancourt, FR","country":"FR","name":"Nonancourt","_id":6615063,"coord":{"lon":1.2,"lat":48.76667}},{"displayName":"Nonancourt, FR","country":"FR","name":"Nonancourt","_id":2990158,"coord":{"lon":1.19799,"lat":48.770859}},{"displayName":"Nonant-le-Pin, FR","country":"FR","name":"Nonant-le-Pin","_id":6439191,"coord":{"lon":0.21667,"lat":48.700001}},{"displayName":"Nonant-le-Pin, FR","country":"FR","name":"Nonant-le-Pin","_id":2990156,"coord":{"lon":0.22026,"lat":48.706219}},{"displayName":"Nonantola, IT","country":"IT","name":"Nonantola","_id":3172217,"coord":{"lon":11.0321,"lat":44.676071}},{"displayName":"Nonaspe, ES","country":"ES","name":"Nonaspe","_id":6362876,"coord":{"lon":0.24856,"lat":41.21463}},{"displayName":"Nonaspe, ES","country":"ES","name":"Nonaspe","_id":3115370,"coord":{"lon":0.24775,"lat":41.208809}},{"displayName":"None, IT","country":"IT","name":"None","_id":3172215,"coord":{"lon":7.54012,"lat":44.93314}},{"displayName":"Nonette, FR","country":"FR","name":"Nonette","_id":6440114,"coord":{"lon":3.28333,"lat":45.48333}},{"displayName":"Nonette, FR","country":"FR","name":"Nonette","_id":2990148,"coord":{"lon":3.2811,"lat":45.478062}},{"displayName":"Nong Bua Daeng, TH","country":"TH","name":"Nong Bua Daeng","_id":1600500,"coord":{"lon":101.802307,"lat":16.08256}},{"displayName":"Nong Bua Daeng, TH","country":"TH","name":"Nong Bua Daeng","_id":7510938,"coord":{"lon":101.802307,"lat":16.08256}},{"displayName":"Nong Bua Lamphu, TH","country":"TH","name":"Nong Bua Lamphu","_id":1608269,"coord":{"lon":102.440681,"lat":17.20406}},{"displayName":"Nong Bua Rawe, TH","country":"TH","name":"Nong Bua Rawe","_id":1608267,"coord":{"lon":101.759918,"lat":15.74939}},{"displayName":"Nong Bua, TH","country":"TH","name":"Nong Bua","_id":1608286,"coord":{"lon":100.585808,"lat":15.86458}},{"displayName":"Nong Bunnak, TH","country":"TH","name":"Nong Bunnak","_id":7510946,"coord":{"lon":102.365639,"lat":14.73947}},{"displayName":"Nong Chang, TH","country":"TH","name":"Nong Chang","_id":1151730,"coord":{"lon":99.841469,"lat":15.39147}},{"displayName":"Nong Chik, TH","country":"TH","name":"Nong Chik","_id":1608263,"coord":{"lon":101.178032,"lat":6.84356}},{"displayName":"Nong Chok, TH","country":"TH","name":"Nong Chok","_id":1608258,"coord":{"lon":100.86216,"lat":13.85585}},{"displayName":"Nong Don, TH","country":"TH","name":"Nong Don","_id":1615758,"coord":{"lon":100.709396,"lat":14.68488}},{"displayName":"Nong Han, TH","country":"TH","name":"Nong Han","_id":1608251,"coord":{"lon":103.105331,"lat":17.36083}},{"displayName":"Nong Hi, TH","country":"TH","name":"Nong Hi","_id":1600444,"coord":{"lon":103.994843,"lat":15.61117}},{"displayName":"Nong Hin, TH","country":"TH","name":"Nong Hin","_id":1600435,"coord":{"lon":101.857887,"lat":17.12356}},{"displayName":"Nong Hong, TH","country":"TH","name":"Nong Hong","_id":1608247,"coord":{"lon":102.684013,"lat":14.84782}},{"displayName":"Nong Khae, TH","country":"TH","name":"Nong Khae","_id":1608239,"coord":{"lon":100.867332,"lat":14.34062}},{"displayName":"Nong Khaem, TH","country":"TH","name":"Nong Khaem","_id":1608236,"coord":{"lon":100.349228,"lat":13.70528}},{"displayName":"Nong Khai, TH","country":"TH","name":"Nong Khai","_id":1608232,"coord":{"lon":102.741997,"lat":17.878469}},{"displayName":"Nong Khayang, TH","country":"TH","name":"Nong Khayang","_id":1151710,"coord":{"lon":99.92939,"lat":15.364}},{"displayName":"Nong Ki, TH","country":"TH","name":"Nong Ki","_id":1608222,"coord":{"lon":102.538002,"lat":14.68679}},{"displayName":"Nong Kung Si, TH","country":"TH","name":"Nong Kung Si","_id":1595679,"coord":{"lon":103.300003,"lat":16.65}},{"displayName":"Nong Mamong, TH","country":"TH","name":"Nong Mamong","_id":1155740,"coord":{"lon":99.866402,"lat":15.27613}},{"displayName":"Nong Muang Khai, TH","country":"TH","name":"Nong Muang Khai","_id":1615380,"coord":{"lon":100.18911,"lat":18.263969}},{"displayName":"Nong Muang, TH","country":"TH","name":"Nong Muang","_id":1600129,"coord":{"lon":100.655563,"lat":15.24592}},{"displayName":"Nong Na Kham, TH","country":"TH","name":"Nong Na Kham","_id":1600104,"coord":{"lon":102.336472,"lat":16.8043}},{"displayName":"Nong Phai, TH","country":"TH","name":"Nong Phai","_id":1608191,"coord":{"lon":101.061829,"lat":15.99025}},{"displayName":"Nong Phok, TH","country":"TH","name":"Nong Phok","_id":1608188,"coord":{"lon":104.202469,"lat":16.310061}},{"displayName":"Nong Prue, TH","country":"TH","name":"Nong Prue","_id":1155656,"coord":{"lon":99.457832,"lat":14.60784}},{"displayName":"Nong Prue, TH","country":"TH","name":"Nong Prue","_id":7510878,"coord":{"lon":99.450333,"lat":14.61144}},{"displayName":"Nong Ruea, TH","country":"TH","name":"Nong Ruea","_id":1608177,"coord":{"lon":102.433388,"lat":16.49333}},{"displayName":"Nong Saeng, TH","country":"TH","name":"Nong Saeng","_id":1608173,"coord":{"lon":102.780807,"lat":17.167391}},{"displayName":"Nong Saeng, TH","country":"TH","name":"Nong Saeng","_id":1608174,"coord":{"lon":100.784309,"lat":14.49208}},{"displayName":"Nong Suea, TH","country":"TH","name":"Nong Suea","_id":1608163,"coord":{"lon":100.825027,"lat":14.13478}},{"displayName":"Nong Suea, TH","country":"TH","name":"Nong Suea","_id":7510911,"coord":{"lon":100.825027,"lat":14.13478}},{"displayName":"Nong Sung, TH","country":"TH","name":"Nong Sung","_id":1608160,"coord":{"lon":104.347122,"lat":16.48299}},{"displayName":"Nong Wua So, TH","country":"TH","name":"Nong Wua So","_id":1599641,"coord":{"lon":102.572723,"lat":17.162609}},{"displayName":"Nong Wua So, TH","country":"TH","name":"Nong Wua So","_id":7510968,"coord":{"lon":102.572723,"lat":17.162609}},{"displayName":"Nong Ya Plong, TH","country":"TH","name":"Nong Ya Plong","_id":1151664,"coord":{"lon":99.697227,"lat":13.16288}},{"displayName":"Nong Yai, TH","country":"TH","name":"Nong Yai","_id":1608148,"coord":{"lon":101.372261,"lat":13.15515}},{"displayName":"Nong Yasai, TH","country":"TH","name":"Nong Yasai","_id":7510891,"coord":{"lon":99.910728,"lat":14.77988}},{"displayName":"Nongan, CN","country":"CN","name":"Nongan","_id":2035565,"coord":{"lon":125.168472,"lat":44.381981}},{"displayName":"Nongkosewu, ID","country":"ID","name":"Nongkosewu","_id":7081818,"coord":{"lon":112.764,"lat":-8.0461}},{"displayName":"Nongpoh, IN","country":"IN","name":"Nongpoh","_id":1261208,"coord":{"lon":91.883331,"lat":25.9}},{"displayName":"Nongstoin, IN","country":"IN","name":"Nongstoin","_id":1261205,"coord":{"lon":91.26667,"lat":25.51667}},{"displayName":"Nonio, IT","country":"IT","name":"Nonio","_id":6535735,"coord":{"lon":8.37752,"lat":45.845772}},{"displayName":"Nonnenberg, DE","country":"DE","name":"Nonnenberg","_id":2862220,"coord":{"lon":7.28333,"lat":50.700001}},{"displayName":"Nonnenhorn, DE","country":"DE","name":"Nonnenhorn","_id":6557197,"coord":{"lon":9.61667,"lat":47.583302}},{"displayName":"Nonnenhorn, DE","country":"DE","name":"Nonnenhorn","_id":2862202,"coord":{"lon":9.61038,"lat":47.57386}},{"displayName":"Nonnewitz, DE","country":"DE","name":"Nonnewitz","_id":2862178,"coord":{"lon":12.11667,"lat":51.083328}},{"displayName":"Nonnweiler, DE","country":"DE","name":"Nonnweiler","_id":6547536,"coord":{"lon":6.95,"lat":49.616699}},{"displayName":"Nonnweiler, DE","country":"DE","name":"Nonnweiler","_id":2862174,"coord":{"lon":6.95,"lat":49.616669}},{"displayName":"Nonoai, BR","country":"BR","name":"Nonoai","_id":3456272,"coord":{"lon":-52.771389,"lat":-27.36167}},{"displayName":"Nonoava, MX","country":"MX","name":"Nonoava","_id":3994858,"coord":{"lon":-106.73333,"lat":27.466669}},{"displayName":"Nonoichi, JP","country":"JP","name":"Nonoichi","_id":1854979,"coord":{"lon":136.616669,"lat":36.533329}},{"displayName":"Nonrod, DE","country":"DE","name":"Nonrod","_id":2862173,"coord":{"lon":8.81972,"lat":49.758888}},{"displayName":"Nonsan, KR","country":"KR","name":"Nonsan","_id":1840211,"coord":{"lon":127.084717,"lat":36.203892}},{"displayName":"Nontron, FR","country":"FR","name":"Nontron","_id":6453831,"coord":{"lon":0.66667,"lat":45.533329}},{"displayName":"Nontron, FR","country":"FR","name":"Nontron","_id":2990140,"coord":{"lon":0.66667,"lat":45.533329}},{"displayName":"Noo, EE","country":"EE","name":"Noo","_id":589933,"coord":{"lon":26.5375,"lat":58.275558}},{"displayName":"Noojee, AU","country":"AU","name":"Noojee","_id":2155164,"coord":{"lon":146.0,"lat":-37.916672}},{"displayName":"Nook, AU","country":"AU","name":"Nook","_id":2155163,"coord":{"lon":146.333328,"lat":-41.316669}},{"displayName":"Nooksack, US","country":"US","name":"Nooksack","_id":5804860,"coord":{"lon":-122.321548,"lat":48.92762}},{"displayName":"Noonday, US","country":"US","name":"Noonday","_id":4714912,"coord":{"lon":-95.406067,"lat":32.23571}},{"displayName":"Noorabad, PK","country":"PK","name":"Noorabad","_id":1453226,"coord":{"lon":71.96656,"lat":34.251949}},{"displayName":"Noorat, AU","country":"AU","name":"Noorat","_id":2155145,"coord":{"lon":142.949997,"lat":-38.200001}},{"displayName":"Noord, AW","country":"AW","name":"Noord","_id":3577159,"coord":{"lon":-70.01667,"lat":12.56667}},{"displayName":"Noord-Scharwoude, NL","country":"NL","name":"Noord-Scharwoude","_id":2749835,"coord":{"lon":4.81111,"lat":52.69833}},{"displayName":"Noorder-Paarl, ZA","country":"ZA","name":"Noorder-Paarl","_id":3363613,"coord":{"lon":18.965521,"lat":-33.704681}},{"displayName":"Noorderhoogebrug, NL","country":"NL","name":"Noorderhoogebrug","_id":2749931,"coord":{"lon":6.56806,"lat":53.245831}},{"displayName":"Noordhorn, NL","country":"NL","name":"Noordhorn","_id":2749875,"coord":{"lon":6.39583,"lat":53.261669}},{"displayName":"Noordwijk aan Zee, NL","country":"NL","name":"Noordwijk aan Zee","_id":2749813,"coord":{"lon":4.43472,"lat":52.243328}},{"displayName":"Noordwijk-Binnen, NL","country":"NL","name":"Noordwijk-Binnen","_id":2749812,"coord":{"lon":4.44722,"lat":52.235828}},{"displayName":"Noordwijkerhout, NL","country":"NL","name":"Noordwijkerhout","_id":2749811,"coord":{"lon":4.49306,"lat":52.261669}},{"displayName":"Noordwolde, NL","country":"NL","name":"Noordwolde","_id":2749807,"coord":{"lon":6.14153,"lat":52.889641}},{"displayName":"Noorinbee, AU","country":"AU","name":"Noorinbee","_id":2155143,"coord":{"lon":149.166672,"lat":-37.51667}},{"displayName":"Noormarkku, FI","country":"FI","name":"Noormarkku","_id":644436,"coord":{"lon":21.86846,"lat":61.592739}},{"displayName":"Noosa Heads, AU","country":"AU","name":"Noosa Heads","_id":2155135,"coord":{"lon":153.149994,"lat":-26.383329}},{"displayName":"Nopala, MX","country":"MX","name":"Nopala","_id":3522658,"coord":{"lon":-99.650002,"lat":20.25}},{"displayName":"Nopalucan de la Granja, MX","country":"MX","name":"Nopalucan de la Granja","_id":3522645,"coord":{"lon":-97.816673,"lat":19.216669}},{"displayName":"Nopphitam, TH","country":"TH","name":"Nopphitam","_id":1118429,"coord":{"lon":99.748779,"lat":8.72206}},{"displayName":"Nopphitam, TH","country":"TH","name":"Nopphitam","_id":7510889,"coord":{"lon":99.752724,"lat":8.71928}},{"displayName":"Nor Aresh, AM","country":"AM","name":"Nor Aresh","_id":616353,"coord":{"lon":44.52618,"lat":40.14101}},{"displayName":"Nor Armavir, AM","country":"AM","name":"Nor Armavir","_id":616352,"coord":{"lon":43.99242,"lat":40.085629}},{"displayName":"Nor Geghi, AM","country":"AM","name":"Nor Geghi","_id":616341,"coord":{"lon":44.580269,"lat":40.321049}},{"displayName":"Nor Gyugh, AM","country":"AM","name":"Nor Gyugh","_id":616340,"coord":{"lon":44.6563,"lat":40.2673}},{"displayName":"Nor Sasunik, AM","country":"AM","name":"Nor Sasunik","_id":823793,"coord":{"lon":44.339569,"lat":40.248692}},{"displayName":"Nor Yerznka, AM","country":"AM","name":"Nor Yerznka","_id":823791,"coord":{"lon":44.404831,"lat":40.31356}},{"displayName":"Nora Springs, US","country":"US","name":"Nora Springs","_id":4869045,"coord":{"lon":-93.004372,"lat":43.14275}},{"displayName":"Nora, SE","country":"SE","name":"Nora","_id":2689471,"coord":{"lon":15.03979,"lat":59.51926}},{"displayName":"Norabats, AM","country":"AM","name":"Norabats","_id":799614,"coord":{"lon":44.429878,"lat":40.105679}},{"displayName":"Noragugume, IT","country":"IT","name":"Noragugume","_id":3172212,"coord":{"lon":8.92073,"lat":40.22456}},{"displayName":"Norah, AU","country":"AU","name":"Norah","_id":2155126,"coord":{"lon":151.566666,"lat":-33.283329}},{"displayName":"Norak, TJ","country":"TJ","name":"Norak","_id":1220905,"coord":{"lon":69.322723,"lat":38.389172}},{"displayName":"Norakert, AM","country":"AM","name":"Norakert","_id":616359,"coord":{"lon":44.34774,"lat":40.192291}},{"displayName":"Norala, PH","country":"PH","name":"Norala","_id":1697577,"coord":{"lon":124.659172,"lat":6.5225}},{"displayName":"Noramarg, AM","country":"AM","name":"Noramarg","_id":616356,"coord":{"lon":44.42403,"lat":40.023842}},{"displayName":"Norashen, AM","country":"AM","name":"Norashen","_id":616345,"coord":{"lon":44.333359,"lat":41.188862}},{"displayName":"Norashen, AM","country":"AM","name":"Norashen","_id":616350,"coord":{"lon":44.58952,"lat":39.999599}},{"displayName":"Norath, DE","country":"DE","name":"Norath","_id":6553944,"coord":{"lon":7.58333,"lat":50.133301}},{"displayName":"Norath, DE","country":"DE","name":"Norath","_id":2862164,"coord":{"lon":7.58333,"lat":50.133331}},{"displayName":"Noratus, AM","country":"AM","name":"Noratus","_id":616361,"coord":{"lon":45.177181,"lat":40.375469}},{"displayName":"Norbello, IT","country":"IT","name":"Norbello","_id":3172211,"coord":{"lon":8.83203,"lat":40.13475}},{"displayName":"Norberg, SE","country":"SE","name":"Norberg","_id":2689452,"coord":{"lon":15.92366,"lat":60.065048}},{"displayName":"Norberto de la Riestra, AR","country":"AR","name":"Norberto de la Riestra","_id":3430409,"coord":{"lon":-59.77169,"lat":-35.273281}},{"displayName":"Norbisrath, DE","country":"DE","name":"Norbisrath","_id":2862162,"coord":{"lon":6.65,"lat":51.099998}},{"displayName":"Norbury, CA","country":"CA","name":"Norbury","_id":6089078,"coord":{"lon":-107.417908,"lat":53.266819}},{"displayName":"Norbury, GB","country":"GB","name":"Norbury","_id":2641465,"coord":{"lon":-2.95,"lat":52.533329}},{"displayName":"Norby, DE","country":"DE","name":"Norby","_id":2862161,"coord":{"lon":9.58333,"lat":54.400002}},{"displayName":"Norcasia, CO","country":"CO","name":"Norcasia","_id":3673811,"coord":{"lon":-74.885208,"lat":5.57782}},{"displayName":"Norcia, IT","country":"IT","name":"Norcia","_id":3172208,"coord":{"lon":13.09538,"lat":42.79314}},{"displayName":"Norco, US","country":"US","name":"Norco","_id":5377199,"coord":{"lon":-117.54866,"lat":33.931129}},{"displayName":"Norco, US","country":"US","name":"Norco","_id":4335326,"coord":{"lon":-90.4123,"lat":29.99909}},{"displayName":"Norcross, US","country":"US","name":"Norcross","_id":4212888,"coord":{"lon":-84.213531,"lat":33.941212}},{"displayName":"Nord, BF","country":"BF","name":"Nord","_id":6930711,"coord":{"lon":-2.4212,"lat":13.58809}},{"displayName":"Nord-Aurdal, NO","country":"NO","name":"Nord-Aurdal","_id":3144466,"coord":{"lon":9.23661,"lat":60.98531}},{"displayName":"Nord-du-Québec, CA","country":"CA","name":"Nord-du-Québec","_id":6691320,"coord":{"lon":-74.896103,"lat":51.962002}},{"displayName":"Nord-Trøndelag Fylke, NO","country":"NO","name":"Nord-Trøndelag Fylke","_id":3144148,"coord":{"lon":12.0,"lat":64.416672}},{"displayName":"Nordassel, DE","country":"DE","name":"Nordassel","_id":2862156,"coord":{"lon":10.19463,"lat":52.149818}},{"displayName":"Nordborg, DK","country":"DK","name":"Nordborg","_id":2616176,"coord":{"lon":9.7408,"lat":55.05732}},{"displayName":"Nordby, DK","country":"DK","name":"Nordby","_id":2616172,"coord":{"lon":8.39786,"lat":55.44603}},{"displayName":"Nordby, NO","country":"NO","name":"Nordby","_id":3144431,"coord":{"lon":11.1,"lat":59.433331}},{"displayName":"Norddeich, DE","country":"DE","name":"Norddeich","_id":6551356,"coord":{"lon":8.9,"lat":54.216702}},{"displayName":"Norddeich, DE","country":"DE","name":"Norddeich","_id":2862135,"coord":{"lon":8.9,"lat":54.216671}},{"displayName":"Norddeich, DE","country":"DE","name":"Norddeich","_id":2862136,"coord":{"lon":7.16043,"lat":53.613491}},{"displayName":"Norddjurs Kommune, DK","country":"DK","name":"Norddjurs Kommune","_id":6543933,"coord":{"lon":10.7666,"lat":56.441238}},{"displayName":"Norddorf auf Amrum, DE","country":"DE","name":"Norddorf auf Amrum","_id":6551581,"coord":{"lon":8.33407,"lat":54.679539}},{"displayName":"Norddorf, DE","country":"DE","name":"Norddorf","_id":2862131,"coord":{"lon":8.33296,"lat":54.679691}},{"displayName":"Norddrebber, DE","country":"DE","name":"Norddrebber","_id":2862130,"coord":{"lon":9.57905,"lat":52.682308}},{"displayName":"Norden, DE","country":"DE","name":"Norden","_id":2862118,"coord":{"lon":7.2,"lat":53.599998}},{"displayName":"Nordendorf, DE","country":"DE","name":"Nordendorf","_id":6557148,"coord":{"lon":10.8333,"lat":48.599998}},{"displayName":"Nordendorf, DE","country":"DE","name":"Nordendorf","_id":2862106,"coord":{"lon":10.8,"lat":48.599998}},{"displayName":"Nordenham, DE","country":"DE","name":"Nordenham","_id":2862104,"coord":{"lon":8.48333,"lat":53.5}},{"displayName":"Norderbrarup, DE","country":"DE","name":"Norderbrarup","_id":6551981,"coord":{"lon":9.78333,"lat":54.650002}},{"displayName":"Norderbrarup, DE","country":"DE","name":"Norderbrarup","_id":2862093,"coord":{"lon":9.78333,"lat":54.650002}},{"displayName":"Norderfriedrichskoog, DE","country":"DE","name":"Norderfriedrichskoog","_id":6551582,"coord":{"lon":8.9,"lat":54.400002}},{"displayName":"Norderfriedrichskoog, DE","country":"DE","name":"Norderfriedrichskoog","_id":2862074,"coord":{"lon":8.9,"lat":54.400002}},{"displayName":"Norderheistedt, DE","country":"DE","name":"Norderheistedt","_id":6551357,"coord":{"lon":9.15,"lat":54.25}},{"displayName":"Norderheistedt, DE","country":"DE","name":"Norderheistedt","_id":2862065,"coord":{"lon":9.15,"lat":54.25}},{"displayName":"Norderney, DE","country":"DE","name":"Norderney","_id":2862041,"coord":{"lon":7.15,"lat":53.700001}},{"displayName":"Norderstapel, DE","country":"DE","name":"Norderstapel","_id":6551982,"coord":{"lon":9.25,"lat":54.349998}},{"displayName":"Norderstapel, DE","country":"DE","name":"Norderstapel","_id":2862027,"coord":{"lon":9.25,"lat":54.349998}},{"displayName":"Norderstedt, DE","country":"DE","name":"Norderstedt","_id":2862026,"coord":{"lon":10.01667,"lat":53.700001}},{"displayName":"Norderwohrden, DE","country":"DE","name":"Norderwohrden","_id":2862011,"coord":{"lon":9.01667,"lat":54.200001}},{"displayName":"Norderwöhrden, DE","country":"DE","name":"Norderwöhrden","_id":6551358,"coord":{"lon":9.01667,"lat":54.200001}},{"displayName":"Nordfjordeid, NO","country":"NO","name":"Nordfjordeid","_id":3144369,"coord":{"lon":5.99154,"lat":61.906261}},{"displayName":"Nordfyns Kommune, DK","country":"DK","name":"Nordfyns Kommune","_id":6543929,"coord":{"lon":10.22222,"lat":55.522221}},{"displayName":"Nordgeorgsfehn, DE","country":"DE","name":"Nordgeorgsfehn","_id":2862000,"coord":{"lon":7.7,"lat":53.26667}},{"displayName":"Nordhackstedt, DE","country":"DE","name":"Nordhackstedt","_id":6552043,"coord":{"lon":9.16667,"lat":54.733299}},{"displayName":"Nordhackstedt, DE","country":"DE","name":"Nordhackstedt","_id":2861996,"coord":{"lon":9.16667,"lat":54.73333}},{"displayName":"Nordhalben, DE","country":"DE","name":"Nordhalben","_id":2861990,"coord":{"lon":11.5,"lat":50.366669}},{"displayName":"Nordhastedt, DE","country":"DE","name":"Nordhastedt","_id":6551359,"coord":{"lon":9.18333,"lat":54.166698}},{"displayName":"Nordhastedt, DE","country":"DE","name":"Nordhastedt","_id":2861988,"coord":{"lon":9.18333,"lat":54.166672}},{"displayName":"Nordhausen, DE","country":"DE","name":"Nordhausen","_id":2861982,"coord":{"lon":10.8,"lat":51.51667}},{"displayName":"Nordhausen, DE","country":"DE","name":"Nordhausen","_id":2861981,"coord":{"lon":7.78333,"lat":52.316669}},{"displayName":"Nordhausen, DE","country":"DE","name":"Nordhausen","_id":2861983,"coord":{"lon":12.35,"lat":50.333328}},{"displayName":"Nordheim, DE","country":"DE","name":"Nordheim","_id":2861974,"coord":{"lon":10.8,"lat":48.700001}},{"displayName":"Nordheim, DE","country":"DE","name":"Nordheim","_id":2861971,"coord":{"lon":10.18333,"lat":49.849998}},{"displayName":"Nordheim, DE","country":"DE","name":"Nordheim","_id":6555527,"coord":{"lon":9.1219,"lat":49.1063}},{"displayName":"Nordheim, DE","country":"DE","name":"Nordheim","_id":2861973,"coord":{"lon":9.12778,"lat":49.108608}},{"displayName":"Nordhemmern, DE","country":"DE","name":"Nordhemmern","_id":2861961,"coord":{"lon":8.8,"lat":52.333328}},{"displayName":"Nordhofen, DE","country":"DE","name":"Nordhofen","_id":6554163,"coord":{"lon":7.75,"lat":50.516701}},{"displayName":"Nordhofen, DE","country":"DE","name":"Nordhofen","_id":2861951,"coord":{"lon":7.75,"lat":50.51667}},{"displayName":"Nordhofen, DE","country":"DE","name":"Nordhofen","_id":2861950,"coord":{"lon":10.58333,"lat":51.0}},{"displayName":"Nordholz, DE","country":"DE","name":"Nordholz","_id":6552604,"coord":{"lon":8.6318,"lat":53.761398}},{"displayName":"Nordholz, DE","country":"DE","name":"Nordholz","_id":2861939,"coord":{"lon":8.6,"lat":53.783329}},{"displayName":"Nordhorn, DE","country":"DE","name":"Nordhorn","_id":2861934,"coord":{"lon":7.08333,"lat":52.433331}},{"displayName":"Nordhouse, FR","country":"FR","name":"Nordhouse","_id":6441255,"coord":{"lon":7.67189,"lat":48.448109}},{"displayName":"Nordhouse, FR","country":"FR","name":"Nordhouse","_id":2990120,"coord":{"lon":7.67326,"lat":48.44833}},{"displayName":"Nordingra, SE","country":"SE","name":"Nordingra","_id":2689344,"coord":{"lon":18.316669,"lat":62.933331}},{"displayName":"Nordiyya, IL","country":"IL","name":"Nordiyya","_id":294003,"coord":{"lon":34.896172,"lat":32.314701}},{"displayName":"Nordkamp, DE","country":"DE","name":"Nordkamp","_id":3208440,"coord":{"lon":7.5,"lat":52.900002}},{"displayName":"Nordkapp, NO","country":"NO","name":"Nordkapp","_id":778459,"coord":{"lon":25.97473,"lat":70.978081}},{"displayName":"Nordkirchen, DE","country":"DE","name":"Nordkirchen","_id":6553096,"coord":{"lon":7.53333,"lat":51.733299}},{"displayName":"Nordkirchen, DE","country":"DE","name":"Nordkirchen","_id":2861923,"coord":{"lon":7.53333,"lat":51.73333}},{"displayName":"Nordland Fylke, NO","country":"NO","name":"Nordland Fylke","_id":3144301,"coord":{"lon":14.37634,"lat":67.280388}},{"displayName":"Nordleda, DE","country":"DE","name":"Nordleda","_id":6552605,"coord":{"lon":8.83333,"lat":53.766701}},{"displayName":"Nordleda, DE","country":"DE","name":"Nordleda","_id":2861919,"coord":{"lon":8.83333,"lat":53.76667}},{"displayName":"Nordli, NO","country":"NO","name":"Nordli","_id":7626387,"coord":{"lon":13.59249,"lat":64.464127}},{"displayName":"Nordloh, DE","country":"DE","name":"Nordloh","_id":2861910,"coord":{"lon":7.78333,"lat":53.183331}},{"displayName":"Nordmaling, SE","country":"SE","name":"Nordmaling","_id":2689336,"coord":{"lon":19.502439,"lat":63.56852}},{"displayName":"Nordmannset, NO","country":"NO","name":"Nordmannset","_id":824563,"coord":{"lon":25.98333,"lat":71.008331}},{"displayName":"Nordrach, DE","country":"DE","name":"Nordrach","_id":6555791,"coord":{"lon":8.08333,"lat":48.400002}},{"displayName":"Nordrach, DE","country":"DE","name":"Nordrach","_id":2861881,"coord":{"lon":8.08333,"lat":48.400002}},{"displayName":"Nordreisa, NO","country":"NO","name":"Nordreisa","_id":778430,"coord":{"lon":21.02569,"lat":69.76825}},{"displayName":"Nords Wharf, AU","country":"AU","name":"Nords Wharf","_id":2155119,"coord":{"lon":151.616669,"lat":-33.133331}},{"displayName":"Nordsehl, DE","country":"DE","name":"Nordsehl","_id":6552546,"coord":{"lon":9.18223,"lat":52.355499}},{"displayName":"Nordsehl, DE","country":"DE","name":"Nordsehl","_id":2861873,"coord":{"lon":9.18333,"lat":52.349998}},{"displayName":"Nordstaden, SE","country":"SE","name":"Nordstaden","_id":2689287,"coord":{"lon":11.96889,"lat":57.70694}},{"displayName":"Nordstemmen, DE","country":"DE","name":"Nordstemmen","_id":6552485,"coord":{"lon":9.7817,"lat":52.157902}},{"displayName":"Nordstemmen, DE","country":"DE","name":"Nordstemmen","_id":2861866,"coord":{"lon":9.7835,"lat":52.161961}},{"displayName":"Nordwalde, DE","country":"DE","name":"Nordwalde","_id":6553109,"coord":{"lon":7.48333,"lat":52.083302}},{"displayName":"Nordwalde, DE","country":"DE","name":"Nordwalde","_id":2861847,"coord":{"lon":7.48333,"lat":52.083328}},{"displayName":"Nordweststadt, DE","country":"DE","name":"Nordweststadt","_id":8030343,"coord":{"lon":8.36643,"lat":49.02943}},{"displayName":"Nordwohlde, DE","country":"DE","name":"Nordwohlde","_id":2861836,"coord":{"lon":8.73333,"lat":52.900002}},{"displayName":"Nore og Uvdal, NO","country":"NO","name":"Nore og Uvdal","_id":6453363,"coord":{"lon":8.94635,"lat":60.267059}},{"displayName":"Norena, ES","country":"ES","name":"Norena","_id":3115363,"coord":{"lon":-5.70662,"lat":43.393639}},{"displayName":"Noresund, NO","country":"NO","name":"Noresund","_id":3144113,"coord":{"lon":9.62312,"lat":60.180321}},{"displayName":"Noreña, ES","country":"ES","name":"Noreña","_id":6359945,"coord":{"lon":-5.7001,"lat":43.403469}},{"displayName":"Norfolk County, CA","country":"CA","name":"Norfolk County","_id":6089125,"coord":{"lon":-80.382973,"lat":42.833401}},{"displayName":"Norfolk County, US","country":"US","name":"Norfolk County","_id":4945455,"coord":{"lon":-71.249496,"lat":42.166771}},{"displayName":"Norfolk, GB","country":"GB","name":"Norfolk","_id":2641455,"coord":{"lon":1.0,"lat":52.666672}},{"displayName":"Norfolk, US","country":"US","name":"Norfolk","_id":5073965,"coord":{"lon":-97.417,"lat":42.028339}},{"displayName":"Norfolk, US","country":"US","name":"Norfolk","_id":4776222,"coord":{"lon":-76.285217,"lat":36.846809}},{"displayName":"Norfolk, US","country":"US","name":"Norfolk","_id":4945453,"coord":{"lon":-71.325058,"lat":42.119541}},{"displayName":"Norfolk, US","country":"US","name":"Norfolk","_id":5128862,"coord":{"lon":-74.991028,"lat":44.800892}},{"displayName":"Norheim, DE","country":"DE","name":"Norheim","_id":6553521,"coord":{"lon":7.81667,"lat":49.799999}},{"displayName":"Norheim, DE","country":"DE","name":"Norheim","_id":2861830,"coord":{"lon":7.81667,"lat":49.799999}},{"displayName":"Norheimsund, NO","country":"NO","name":"Norheimsund","_id":3144110,"coord":{"lon":6.14562,"lat":60.370892}},{"displayName":"Noria Willie, US","country":"US","name":"Noria Willie","_id":4714936,"coord":{"lon":-98.127228,"lat":27.0856}},{"displayName":"Noriega, ES","country":"ES","name":"Noriega","_id":3115360,"coord":{"lon":-4.57357,"lat":43.364311}},{"displayName":"Norilsk, RU","country":"RU","name":"Norilsk","_id":1497337,"coord":{"lon":88.202698,"lat":69.3535}},{"displayName":"Norken, DE","country":"DE","name":"Norken","_id":6554256,"coord":{"lon":7.9,"lat":50.6833}},{"displayName":"Norken, DE","country":"DE","name":"Norken","_id":2861829,"coord":{"lon":7.9,"lat":50.683331}},{"displayName":"Norland, US","country":"US","name":"Norland","_id":4166066,"coord":{"lon":-80.212273,"lat":25.94898}},{"displayName":"Norlane, AU","country":"AU","name":"Norlane","_id":2207153,"coord":{"lon":144.354172,"lat":-38.101391}},{"displayName":"Norlina, US","country":"US","name":"Norlina","_id":4482264,"coord":{"lon":-78.198334,"lat":36.445702}},{"displayName":"Norma, IT","country":"IT","name":"Norma","_id":3172204,"coord":{"lon":12.97073,"lat":41.58643}},{"displayName":"Normal, US","country":"US","name":"Normal","_id":4903780,"coord":{"lon":-88.990631,"lat":40.514198}},{"displayName":"Norman Park, AU","country":"AU","name":"Norman Park","_id":2207250,"coord":{"lon":153.058334,"lat":-27.48333}},{"displayName":"Norman Wells, CA","country":"CA","name":"Norman Wells","_id":6089245,"coord":{"lon":-126.832901,"lat":65.282013}},{"displayName":"Norman, US","country":"US","name":"Norman","_id":4543762,"coord":{"lon":-97.439484,"lat":35.222569}},{"displayName":"Normandeau, CA","country":"CA","name":"Normandeau","_id":6089172,"coord":{"lon":-111.685181,"lat":54.533489}},{"displayName":"Normandin, CA","country":"CA","name":"Normandin","_id":6089179,"coord":{"lon":-72.532089,"lat":48.833279}},{"displayName":"Normandville, CA","country":"CA","name":"Normandville","_id":6089186,"coord":{"lon":-117.369347,"lat":55.866791}},{"displayName":"Normandy Park, US","country":"US","name":"Normandy Park","_id":5804885,"coord":{"lon":-122.340683,"lat":47.436211}},{"displayName":"Normandy, GB","country":"GB","name":"Normandy","_id":2641447,"coord":{"lon":-0.67472,"lat":51.257511}},{"displayName":"Normandy, US","country":"US","name":"Normandy","_id":4400737,"coord":{"lon":-90.29734,"lat":38.720879}},{"displayName":"Normanhurst, AU","country":"AU","name":"Normanhurst","_id":2155092,"coord":{"lon":151.100006,"lat":-33.73333}},{"displayName":"Normanton, AU","country":"AU","name":"Normanton","_id":2155085,"coord":{"lon":141.083328,"lat":-17.66667}},{"displayName":"Normanton, GB","country":"GB","name":"Normanton","_id":2641443,"coord":{"lon":-1.41667,"lat":53.700001}},{"displayName":"Normanville, AU","country":"AU","name":"Normanville","_id":2064565,"coord":{"lon":138.314957,"lat":-35.447811}},{"displayName":"Normanville, FR","country":"FR","name":"Normanville","_id":6613614,"coord":{"lon":1.15,"lat":49.083328}},{"displayName":"Normanville, FR","country":"FR","name":"Normanville","_id":2990107,"coord":{"lon":1.15916,"lat":49.078678}},{"displayName":"Normétal, CA","country":"CA","name":"Normétal","_id":6089250,"coord":{"lon":-79.366348,"lat":49.000191}},{"displayName":"Nornalup, AU","country":"AU","name":"Nornalup","_id":2064562,"coord":{"lon":116.816673,"lat":-35.0}},{"displayName":"Norolles, FR","country":"FR","name":"Norolles","_id":6427349,"coord":{"lon":0.25,"lat":49.200001}},{"displayName":"Norolles, FR","country":"FR","name":"Norolles","_id":2990103,"coord":{"lon":0.24312,"lat":49.199299}},{"displayName":"Noron-l\u0027Abbaye, FR","country":"FR","name":"Noron-l\u0027Abbaye","_id":6427350,"coord":{"lon":-0.25,"lat":48.900002}},{"displayName":"Noron-l\u0027Abbaye, FR","country":"FR","name":"Noron-l\u0027Abbaye","_id":2990102,"coord":{"lon":-0.24992,"lat":48.894501}},{"displayName":"Noron-la-Poterie, FR","country":"FR","name":"Noron-la-Poterie","_id":6427351,"coord":{"lon":-0.76667,"lat":49.216671}},{"displayName":"Noron-la-Poterie, FR","country":"FR","name":"Noron-la-Poterie","_id":2990101,"coord":{"lon":-0.77471,"lat":49.22662}},{"displayName":"Norovka, RU","country":"RU","name":"Norovka","_id":810742,"coord":{"lon":40.141109,"lat":49.400002}},{"displayName":"Norra Asum, SE","country":"SE","name":"Norra Asum","_id":2689192,"coord":{"lon":14.15,"lat":55.98333}},{"displayName":"Norra Karelen, FI","country":"FI","name":"Norra Karelen","_id":830686,"coord":{"lon":30.0,"lat":63.0}},{"displayName":"Norra Österbotten, FI","country":"FI","name":"Norra Österbotten","_id":830667,"coord":{"lon":26.0,"lat":65.0}},{"displayName":"Norrahammar, SE","country":"SE","name":"Norrahammar","_id":2689018,"coord":{"lon":14.1,"lat":57.700001}},{"displayName":"Norrbottens Län, SE","country":"SE","name":"Norrbottens Län","_id":604010,"coord":{"lon":20.0,"lat":67.0}},{"displayName":"Norre Aby, DK","country":"DK","name":"Norre Aby","_id":2616368,"coord":{"lon":9.8794,"lat":55.461071}},{"displayName":"Norre Alslev, DK","country":"DK","name":"Norre Alslev","_id":2616365,"coord":{"lon":11.88414,"lat":54.897839}},{"displayName":"Norre Hvalso, DK","country":"DK","name":"Norre Hvalso","_id":2616308,"coord":{"lon":11.85733,"lat":55.604931}},{"displayName":"Norrent-Fontes, FR","country":"FR","name":"Norrent-Fontes","_id":6618349,"coord":{"lon":2.4074,"lat":50.5881}},{"displayName":"Norrent-Fontes, FR","country":"FR","name":"Norrent-Fontes","_id":2990096,"coord":{"lon":2.4,"lat":50.583328}},{"displayName":"Norrey-en-Auge, FR","country":"FR","name":"Norrey-en-Auge","_id":6427352,"coord":{"lon":-0.01667,"lat":48.916672}},{"displayName":"Norrey-en-Auge, FR","country":"FR","name":"Norrey-en-Auge","_id":2990095,"coord":{"lon":-0.01481,"lat":48.912811}},{"displayName":"Norrfjarden, SE","country":"SE","name":"Norrfjarden","_id":604006,"coord":{"lon":21.450001,"lat":65.416672}},{"displayName":"Norridge, US","country":"US","name":"Norridge","_id":4903803,"coord":{"lon":-87.827278,"lat":41.96336}},{"displayName":"Norridgewock, US","country":"US","name":"Norridgewock","_id":4973430,"coord":{"lon":-69.790611,"lat":44.71312}},{"displayName":"Norris Arm, CA","country":"CA","name":"Norris Arm","_id":6089277,"coord":{"lon":-55.24818,"lat":49.083229}},{"displayName":"Norris City, US","country":"US","name":"Norris City","_id":4245780,"coord":{"lon":-88.329208,"lat":37.981159}},{"displayName":"Norris, US","country":"US","name":"Norris","_id":4645799,"coord":{"lon":-84.06797,"lat":36.195629}},{"displayName":"Norristown, US","country":"US","name":"Norristown","_id":5203506,"coord":{"lon":-75.339897,"lat":40.121498}},{"displayName":"Norrkoping, SE","country":"SE","name":"Norrkoping","_id":2688368,"coord":{"lon":16.1826,"lat":58.594189}},{"displayName":"Norrköpings Kommun, SE","country":"SE","name":"Norrköpings Kommun","_id":2688367,"coord":{"lon":16.33333,"lat":58.583328}},{"displayName":"Norroy-les-Pont-a-Mousson, FR","country":"FR","name":"Norroy-les-Pont-a-Mousson","_id":2990090,"coord":{"lon":6.02806,"lat":48.934601}},{"displayName":"Norroy-lès-Pont-à-Mousson, FR","country":"FR","name":"Norroy-lès-Pont-à-Mousson","_id":6436780,"coord":{"lon":6.03333,"lat":48.933331}},{"displayName":"Norrsundet, SE","country":"SE","name":"Norrsundet","_id":2688255,"coord":{"lon":17.133329,"lat":60.950001}},{"displayName":"Norrtalje, SE","country":"SE","name":"Norrtalje","_id":2688250,"coord":{"lon":18.70496,"lat":59.757992}},{"displayName":"Norrtälje Kommun, SE","country":"SE","name":"Norrtälje Kommun","_id":2688248,"coord":{"lon":18.700001,"lat":59.76667}},{"displayName":"Norsborg, SE","country":"SE","name":"Norsborg","_id":2688188,"coord":{"lon":17.81394,"lat":59.24493}},{"displayName":"Norseman, AU","country":"AU","name":"Norseman","_id":2064553,"coord":{"lon":121.76667,"lat":-32.200001}},{"displayName":"Norsingen, DE","country":"DE","name":"Norsingen","_id":2861821,"coord":{"lon":7.73333,"lat":47.933331}},{"displayName":"Norsjoe, SE","country":"SE","name":"Norsjoe","_id":2688172,"coord":{"lon":19.481529,"lat":64.912064}},{"displayName":"Norsk, RU","country":"RU","name":"Norsk","_id":2019026,"coord":{"lon":129.916672,"lat":52.333328}},{"displayName":"Norsminde, DK","country":"DK","name":"Norsminde","_id":2616087,"coord":{"lon":10.2621,"lat":56.026958}},{"displayName":"Norstedt, DE","country":"DE","name":"Norstedt","_id":6551583,"coord":{"lon":9.13333,"lat":54.583302}},{"displayName":"Norstedt, DE","country":"DE","name":"Norstedt","_id":2861820,"coord":{"lon":9.13333,"lat":54.583328}},{"displayName":"Norsup, VU","country":"VU","name":"Norsup","_id":2135517,"coord":{"lon":167.383331,"lat":-16.066669}},{"displayName":"Nort-sur-Erdre, FR","country":"FR","name":"Nort-sur-Erdre","_id":6434484,"coord":{"lon":-1.5,"lat":47.433331}},{"displayName":"Nort-sur-Erdre, FR","country":"FR","name":"Nort-sur-Erdre","_id":2990085,"coord":{"lon":-1.49833,"lat":47.438808}},{"displayName":"Nortelandia, BR","country":"BR","name":"Nortelandia","_id":3456248,"coord":{"lon":-56.80278,"lat":-14.45472}},{"displayName":"Norten-Hardenberg, DE","country":"DE","name":"Norten-Hardenberg","_id":2861817,"coord":{"lon":9.93593,"lat":51.62878}},{"displayName":"Nortershausen, DE","country":"DE","name":"Nortershausen","_id":2861815,"coord":{"lon":7.48333,"lat":50.216671}},{"displayName":"North Abaco District, BS","country":"BS","name":"North Abaco District","_id":8030551,"coord":{"lon":-77.436943,"lat":26.78944}},{"displayName":"North Adams, US","country":"US","name":"North Adams","_id":4945486,"coord":{"lon":-73.108711,"lat":42.70092}},{"displayName":"North Aegean, GR","country":"GR","name":"North Aegean","_id":6697806,"coord":{"lon":25.345461,"lat":39.563351}},{"displayName":"North Alamo, US","country":"US","name":"North Alamo","_id":4714990,"coord":{"lon":-98.128899,"lat":26.2173}},{"displayName":"North Amherst, US","country":"US","name":"North Amherst","_id":4945497,"coord":{"lon":-72.530922,"lat":42.41037}},{"displayName":"North Amityville, US","country":"US","name":"North Amityville","_id":5128884,"coord":{"lon":-73.425117,"lat":40.697601}},{"displayName":"North Andover, US","country":"US","name":"North Andover","_id":4832272,"coord":{"lon":-71.135063,"lat":42.6987}},{"displayName":"North Andrews Gardens, US","country":"US","name":"North Andrews Gardens","_id":4166096,"coord":{"lon":-80.144211,"lat":26.191469}},{"displayName":"North Andros District, BS","country":"BS","name":"North Andros District","_id":8030552,"coord":{"lon":-78.096107,"lat":24.766939}},{"displayName":"North Apollo, US","country":"US","name":"North Apollo","_id":5203519,"coord":{"lon":-79.555603,"lat":40.59618}},{"displayName":"North Arlington, US","country":"US","name":"North Arlington","_id":5101873,"coord":{"lon":-74.133202,"lat":40.788429}},{"displayName":"North Arm, AU","country":"AU","name":"North Arm","_id":2155072,"coord":{"lon":152.949997,"lat":-26.51667}},{"displayName":"North Atlanta, US","country":"US","name":"North Atlanta","_id":4212937,"coord":{"lon":-84.336594,"lat":33.865101}},{"displayName":"North Auburn, US","country":"US","name":"North Auburn","_id":5377266,"coord":{"lon":-121.081886,"lat":38.93129}},{"displayName":"North Augusta, US","country":"US","name":"North Augusta","_id":4589368,"coord":{"lon":-81.965118,"lat":33.501801}},{"displayName":"North Aurora, US","country":"US","name":"North Aurora","_id":4903818,"coord":{"lon":-88.327301,"lat":41.806141}},{"displayName":"North Ayrshire, GB","country":"GB","name":"North Ayrshire","_id":3333232,"coord":{"lon":-4.89647,"lat":55.696548}},{"displayName":"North Babylon, US","country":"US","name":"North Babylon","_id":5128886,"coord":{"lon":-73.321793,"lat":40.716492}},{"displayName":"North Ballachulish, GB","country":"GB","name":"North Ballachulish","_id":2641426,"coord":{"lon":-5.18217,"lat":56.694241}},{"displayName":"North Ballston Spa, US","country":"US","name":"North Ballston Spa","_id":7258360,"coord":{"lon":-73.851089,"lat":43.019691}},{"displayName":"North Baltimore, US","country":"US","name":"North Baltimore","_id":5164653,"coord":{"lon":-83.678268,"lat":41.182831}},{"displayName":"North Bank Division, GM","country":"GM","name":"North Bank Division","_id":2412353,"coord":{"lon":-16.0,"lat":13.5}},{"displayName":"North Barrington, US","country":"US","name":"North Barrington","_id":4903830,"coord":{"lon":-88.140633,"lat":42.207802}},{"displayName":"North Bath, US","country":"US","name":"North Bath","_id":4973457,"coord":{"lon":-69.81588,"lat":43.934799}},{"displayName":"North Battleford, CA","country":"CA","name":"North Battleford","_id":6089404,"coord":{"lon":-108.284653,"lat":52.78344}},{"displayName":"North Bay Shore, US","country":"US","name":"North Bay Shore","_id":5128898,"coord":{"lon":-73.262619,"lat":40.73621}},{"displayName":"North Bay Village, US","country":"US","name":"North Bay Village","_id":4166105,"coord":{"lon":-80.153938,"lat":25.84621}},{"displayName":"North Bay, CA","country":"CA","name":"North Bay","_id":6089426,"coord":{"lon":-79.466331,"lat":46.316799}},{"displayName":"North Beach Haven, US","country":"US","name":"North Beach Haven","_id":4503289,"coord":{"lon":-74.231529,"lat":39.57317}},{"displayName":"North Beach, AU","country":"AU","name":"North Beach","_id":2064546,"coord":{"lon":115.756241,"lat":-31.86298}},{"displayName":"North Beach, US","country":"US","name":"North Beach","_id":5128920,"coord":{"lon":-73.875969,"lat":40.765942}},{"displayName":"North Beach, US","country":"US","name":"North Beach","_id":4363831,"coord":{"lon":-76.531067,"lat":38.70734}},{"displayName":"North Bel Air, US","country":"US","name":"North Bel Air","_id":4363836,"coord":{"lon":-76.354958,"lat":39.539829}},{"displayName":"North Belle Vernon, US","country":"US","name":"North Belle Vernon","_id":5203529,"coord":{"lon":-79.868103,"lat":40.129238}},{"displayName":"North Bellmore, US","country":"US","name":"North Bellmore","_id":5128904,"coord":{"lon":-73.533463,"lat":40.69149}},{"displayName":"North Bellport, US","country":"US","name":"North Bellport","_id":5128905,"coord":{"lon":-72.942879,"lat":40.774269}},{"displayName":"North Bend, CA","country":"CA","name":"North Bend","_id":6089450,"coord":{"lon":-121.45256,"lat":49.88303}},{"displayName":"North Bend, US","country":"US","name":"North Bend","_id":5074013,"coord":{"lon":-96.779747,"lat":41.461948}},{"displayName":"North Bend, US","country":"US","name":"North Bend","_id":5742974,"coord":{"lon":-124.224281,"lat":43.406502}},{"displayName":"North Bend, US","country":"US","name":"North Bend","_id":5804915,"coord":{"lon":-121.786781,"lat":47.495659}},{"displayName":"North Bennington, US","country":"US","name":"North Bennington","_id":5239101,"coord":{"lon":-73.242607,"lat":42.930359}},{"displayName":"North Bergen, US","country":"US","name":"North Bergen","_id":5101879,"coord":{"lon":-74.012077,"lat":40.804272}},{"displayName":"North Berwick, GB","country":"GB","name":"North Berwick","_id":2641419,"coord":{"lon":-2.7229,"lat":56.05825}},{"displayName":"North Berwick, US","country":"US","name":"North Berwick","_id":4973463,"coord":{"lon":-70.733391,"lat":43.303699}},{"displayName":"North Bethesda, US","country":"US","name":"North Bethesda","_id":4363843,"coord":{"lon":-77.118874,"lat":39.044552}},{"displayName":"North Bibb, US","country":"US","name":"North Bibb","_id":4080395,"coord":{"lon":-87.153053,"lat":33.20401}},{"displayName":"North Booval, AU","country":"AU","name":"North Booval","_id":7932655,"coord":{"lon":152.794846,"lat":-27.60392}},{"displayName":"North Boston, US","country":"US","name":"North Boston","_id":5128914,"coord":{"lon":-78.776703,"lat":42.685619}},{"displayName":"North Bourke, AU","country":"AU","name":"North Bourke","_id":2155047,"coord":{"lon":145.949997,"lat":-30.049999}},{"displayName":"North Braddock, US","country":"US","name":"North Braddock","_id":5203537,"coord":{"lon":-79.840881,"lat":40.39896}},{"displayName":"North Bradley, GB","country":"GB","name":"North Bradley","_id":2641413,"coord":{"lon":-2.20472,"lat":51.294998}},{"displayName":"North Branch, US","country":"US","name":"North Branch","_id":5003617,"coord":{"lon":-83.196609,"lat":43.229469}},{"displayName":"North Branch, US","country":"US","name":"North Branch","_id":5039421,"coord":{"lon":-92.980217,"lat":45.511349}},{"displayName":"North Branford, US","country":"US","name":"North Branford","_id":4839636,"coord":{"lon":-72.767319,"lat":41.327599}},{"displayName":"North Brighton, AU","country":"AU","name":"North Brighton","_id":2207611,"coord":{"lon":145.00528,"lat":-37.90694}},{"displayName":"North Brookfield, US","country":"US","name":"North Brookfield","_id":4945548,"coord":{"lon":-72.082848,"lat":42.266762}},{"displayName":"North Brooksville, US","country":"US","name":"North Brooksville","_id":4166124,"coord":{"lon":-82.40815,"lat":28.57305}},{"displayName":"North Browning, US","country":"US","name":"North Browning","_id":5668939,"coord":{"lon":-113.009529,"lat":48.570251}},{"displayName":"North Burnett, AU","country":"AU","name":"North Burnett","_id":7839381,"coord":{"lon":151.323013,"lat":-25.24444}},{"displayName":"North Caldwell, US","country":"US","name":"North Caldwell","_id":5101901,"coord":{"lon":-74.258202,"lat":40.864819}},{"displayName":"North Canton, US","country":"US","name":"North Canton","_id":5164706,"coord":{"lon":-81.402344,"lat":40.875889}},{"displayName":"North Cape May, US","country":"US","name":"North Cape May","_id":4503299,"coord":{"lon":-74.957947,"lat":38.982059}},{"displayName":"North Carolina, US","country":"US","name":"North Carolina","_id":4482348,"coord":{"lon":-80.00032,"lat":35.50069}},{"displayName":"North Catasauqua, US","country":"US","name":"North Catasauqua","_id":5203618,"coord":{"lon":-75.476852,"lat":40.659821}},{"displayName":"North Cave, GB","country":"GB","name":"North Cave","_id":2641404,"coord":{"lon":-0.64965,"lat":53.780121}},{"displayName":"North Central Province, LK","country":"LK","name":"North Central Province","_id":1232870,"coord":{"lon":80.5,"lat":8.33333}},{"displayName":"North Charleroi, US","country":"US","name":"North Charleroi","_id":5203609,"coord":{"lon":-79.907547,"lat":40.15118}},{"displayName":"North Charleston, US","country":"US","name":"North Charleston","_id":4589387,"coord":{"lon":-80.007507,"lat":32.888561}},