[{"displayName":"Pasedan Dua, ID","country":"ID","name":"Pasedan Dua","_id":8070944,"coord":{"lon":111.381798,"lat":-6.8632}},{"displayName":"Paseh, ID","country":"ID","name":"Paseh","_id":1632197,"coord":{"lon":107.764099,"lat":-7.1026}},{"displayName":"Paseka, CZ","country":"CZ","name":"Paseka","_id":3068564,"coord":{"lon":17.222759,"lat":49.79644}},{"displayName":"Paseka, RU","country":"RU","name":"Paseka","_id":512433,"coord":{"lon":39.167221,"lat":44.090832}},{"displayName":"Pasel, DE","country":"DE","name":"Pasel","_id":2855343,"coord":{"lon":7.91667,"lat":51.216671}},{"displayName":"Pasembon, ID","country":"ID","name":"Pasembon","_id":7037636,"coord":{"lon":114.157097,"lat":-8.5081}},{"displayName":"Pasewalk, DE","country":"DE","name":"Pasewalk","_id":2855337,"coord":{"lon":13.98997,"lat":53.506271}},{"displayName":"Paseyan, ID","country":"ID","name":"Paseyan","_id":8075123,"coord":{"lon":111.641296,"lat":-6.8752}},{"displayName":"Pashchimanchal, NP","country":"NP","name":"Pashchimanchal","_id":7289709,"coord":{"lon":83.938293,"lat":28.170389}},{"displayName":"Pashiya, RU","country":"RU","name":"Pashiya","_id":512413,"coord":{"lon":58.256199,"lat":58.4324}},{"displayName":"Pashkovo, RU","country":"RU","name":"Pashkovo","_id":817967,"coord":{"lon":37.330364,"lat":54.790771}},{"displayName":"Pashkovskiy, RU","country":"RU","name":"Pashkovskiy","_id":512382,"coord":{"lon":39.10611,"lat":45.023056}},{"displayName":"Pashmul, AF","country":"AF","name":"Pashmul","_id":1130997,"coord":{"lon":65.434303,"lat":31.557199}},{"displayName":"Pashukovo, RU","country":"RU","name":"Pashukovo","_id":512368,"coord":{"lon":38.260555,"lat":55.909168}},{"displayName":"Pashupatināth, NP","country":"NP","name":"Pashupatināth","_id":1282933,"coord":{"lon":85.349998,"lat":27.700001}},{"displayName":"Pasian di Prato, IT","country":"IT","name":"Pasian di Prato","_id":6538382,"coord":{"lon":13.19283,"lat":46.048119}},{"displayName":"Pasian di Prato, IT","country":"IT","name":"Pasian di Prato","_id":3171432,"coord":{"lon":13.1875,"lat":46.048611}},{"displayName":"Pasian, PH","country":"PH","name":"Pasian","_id":1694589,"coord":{"lon":126.067223,"lat":7.92806}},{"displayName":"Pasiano di Pordenone, IT","country":"IT","name":"Pasiano di Pordenone","_id":3171431,"coord":{"lon":12.62722,"lat":45.84972}},{"displayName":"Pasibi West, PH","country":"PH","name":"Pasibi West","_id":1694585,"coord":{"lon":120.368401,"lat":15.8456}},{"displayName":"Pasichna, UA","country":"UA","name":"Pasichna","_id":697945,"coord":{"lon":24.430031,"lat":48.571522}},{"displayName":"Pasieczki, PL","country":"PL","name":"Pasieczki","_id":3089405,"coord":{"lon":19.20187,"lat":50.153858}},{"displayName":"Pasig, PH","country":"PH","name":"Pasig","_id":1694579,"coord":{"lon":121.064957,"lat":14.58699}},{"displayName":"Pasighat, IN","country":"IN","name":"Pasighat","_id":1260206,"coord":{"lon":95.333328,"lat":28.066669}},{"displayName":"Pasil, PH","country":"PH","name":"Pasil","_id":1694556,"coord":{"lon":121.133331,"lat":17.383329}},{"displayName":"Pasil, PH","country":"PH","name":"Pasil","_id":1694559,"coord":{"lon":122.609802,"lat":10.8378}},{"displayName":"Pasinan Barat, ID","country":"ID","name":"Pasinan Barat","_id":7038057,"coord":{"lon":114.237396,"lat":-8.3147}},{"displayName":"Pasinichi, BY","country":"BY","name":"Pasinichi","_id":623762,"coord":{"lon":25.1,"lat":53.016666}},{"displayName":"Pasinler, TR","country":"TR","name":"Pasinler","_id":302824,"coord":{"lon":41.67635,"lat":39.980309}},{"displayName":"Pasion, GR","country":"GR","name":"Pasion","_id":255709,"coord":{"lon":22.73333,"lat":38.01667}},{"displayName":"Pasir Mas, MY","country":"MY","name":"Pasir Mas","_id":1736372,"coord":{"lon":102.13987,"lat":6.04934}},{"displayName":"Pasir Penambang, MY","country":"MY","name":"Pasir Penambang","_id":1751906,"coord":{"lon":101.25,"lat":3.35}},{"displayName":"Pasir, ID","country":"ID","name":"Pasir","_id":8022873,"coord":{"lon":108.183601,"lat":-7.4742}},{"displayName":"Pasiragung, ID","country":"ID","name":"Pasiragung","_id":8054205,"coord":{"lon":108.470497,"lat":-7.0637}},{"displayName":"Pasiraman, ID","country":"ID","name":"Pasiraman","_id":7081715,"coord":{"lon":112.1287,"lat":-8.2437}},{"displayName":"Pasiramis, ID","country":"ID","name":"Pasiramis","_id":8064225,"coord":{"lon":108.398697,"lat":-7.1658}},{"displayName":"Pasirangin Satu, ID","country":"ID","name":"Pasirangin Satu","_id":7858430,"coord":{"lon":107.548203,"lat":-7.28}},{"displayName":"Pasirangin Tiga, ID","country":"ID","name":"Pasirangin Tiga","_id":7846495,"coord":{"lon":106.651398,"lat":-7.2674}},{"displayName":"Pasirangin, ID","country":"ID","name":"Pasirangin","_id":8023690,"coord":{"lon":108.1717,"lat":-7.3158}},{"displayName":"Pasirawi, ID","country":"ID","name":"Pasirawi","_id":1632149,"coord":{"lon":106.952103,"lat":-7.0966}},{"displayName":"Pasirbaros, ID","country":"ID","name":"Pasirbaros","_id":8018434,"coord":{"lon":108.094803,"lat":-7.0763}},{"displayName":"Pasirbatang, ID","country":"ID","name":"Pasirbatang","_id":8046285,"coord":{"lon":108.358002,"lat":-7.3631}},{"displayName":"Pasirbenda, ID","country":"ID","name":"Pasirbenda","_id":7849667,"coord":{"lon":106.728302,"lat":-7.1291}},{"displayName":"Pasirbitung, ID","country":"ID","name":"Pasirbitung","_id":7846437,"coord":{"lon":106.6409,"lat":-7.2636}},{"displayName":"Pasirbungur, ID","country":"ID","name":"Pasirbungur","_id":7753776,"coord":{"lon":106.380402,"lat":-6.9319}},{"displayName":"Pasirdalem, ID","country":"ID","name":"Pasirdalem","_id":7847299,"coord":{"lon":106.603699,"lat":-7.2181}},{"displayName":"Pasireunteung, ID","country":"ID","name":"Pasireunteung","_id":7847820,"coord":{"lon":107.578697,"lat":-7.5028}},{"displayName":"Pasireurih, ID","country":"ID","name":"Pasireurih","_id":7780587,"coord":{"lon":106.308403,"lat":-6.6564}},{"displayName":"Pasireurih, ID","country":"ID","name":"Pasireurih","_id":8025870,"coord":{"lon":108.198196,"lat":-7.1758}},{"displayName":"Pasirgadung Satu, ID","country":"ID","name":"Pasirgadung Satu","_id":1632137,"coord":{"lon":105.9002,"lat":-6.4919}},{"displayName":"Pasirgaru, ID","country":"ID","name":"Pasirgaru","_id":7857723,"coord":{"lon":107.679199,"lat":-7.4096}},{"displayName":"Pasirgaru, ID","country":"ID","name":"Pasirgaru","_id":8070277,"coord":{"lon":108.731102,"lat":-7.456}},{"displayName":"Pasirgeleng, ID","country":"ID","name":"Pasirgeleng","_id":7787556,"coord":{"lon":106.012848,"lat":-6.80253}},{"displayName":"Pasirgembong, ID","country":"ID","name":"Pasirgembong","_id":7759706,"coord":{"lon":106.283997,"lat":-6.8966}},{"displayName":"Pasirgeulis, ID","country":"ID","name":"Pasirgeulis","_id":8069659,"coord":{"lon":108.673599,"lat":-7.51}},{"displayName":"Pasirhaur, ID","country":"ID","name":"Pasirhaur","_id":7787594,"coord":{"lon":106.016739,"lat":-6.77673}},{"displayName":"Pasirhuni, ID","country":"ID","name":"Pasirhuni","_id":7858196,"coord":{"lon":106.988701,"lat":-7.0262}},{"displayName":"Pasirhuni, ID","country":"ID","name":"Pasirhuni","_id":7916302,"coord":{"lon":107.930199,"lat":-7.2975}},{"displayName":"Pasirian, ID","country":"ID","name":"Pasirian","_id":1632128,"coord":{"lon":113.114601,"lat":-8.2137}},{"displayName":"Pasiripis, ID","country":"ID","name":"Pasiripis","_id":8017796,"coord":{"lon":108.113297,"lat":-7.2994}},{"displayName":"Pasiripis, ID","country":"ID","name":"Pasiripis","_id":8024030,"coord":{"lon":108.165604,"lat":-7.3459}},{"displayName":"Pasirirnem, ID","country":"ID","name":"Pasirirnem","_id":7914558,"coord":{"lon":107.924202,"lat":-7.5647}},{"displayName":"Pasirjambu, ID","country":"ID","name":"Pasirjambu","_id":7846045,"coord":{"lon":106.013397,"lat":-6.4452}},{"displayName":"Pasirjambu, ID","country":"ID","name":"Pasirjambu","_id":7858548,"coord":{"lon":107.538597,"lat":-7.334}},{"displayName":"Pasirjaya, ID","country":"ID","name":"Pasirjaya","_id":8046035,"coord":{"lon":108.268097,"lat":-7.3251}},{"displayName":"Pasirjengkol, ID","country":"ID","name":"Pasirjengkol","_id":7920270,"coord":{"lon":107.990303,"lat":-7.1267}},{"displayName":"Pasirkadu, ID","country":"ID","name":"Pasirkadu","_id":7764695,"coord":{"lon":105.852997,"lat":-6.5154}},{"displayName":"Pasirlaja, ID","country":"ID","name":"Pasirlaja","_id":7848299,"coord":{"lon":107.869499,"lat":-7.5377}},{"displayName":"Pasirlaja, ID","country":"ID","name":"Pasirlaja","_id":7857314,"coord":{"lon":106.8601,"lat":-7.0517}},{"displayName":"Pasirlimus, ID","country":"ID","name":"Pasirlimus","_id":7916233,"coord":{"lon":107.899696,"lat":-7.2779}},{"displayName":"Pasirloa, ID","country":"ID","name":"Pasirloa","_id":7765733,"coord":{"lon":105.887901,"lat":-6.5412}},{"displayName":"Pasirluhur, ID","country":"ID","name":"Pasirluhur","_id":7921764,"coord":{"lon":107.954597,"lat":-7.104}},{"displayName":"Pasirmadang, ID","country":"ID","name":"Pasirmadang","_id":1632107,"coord":{"lon":106.478203,"lat":-6.5983}},{"displayName":"Pasirmalang, ID","country":"ID","name":"Pasirmalang","_id":7845121,"coord":{"lon":106.614197,"lat":-7.2557}},{"displayName":"Pasirmanggu, ID","country":"ID","name":"Pasirmanggu","_id":7861290,"coord":{"lon":107.107697,"lat":-7.2682}},{"displayName":"Pasirmanggu, ID","country":"ID","name":"Pasirmanggu","_id":8059832,"coord":{"lon":108.592201,"lat":-7.2368}},{"displayName":"Pasirmukti, ID","country":"ID","name":"Pasirmukti","_id":8045478,"coord":{"lon":108.3423,"lat":-7.4405}},{"displayName":"Pasirnangka, ID","country":"ID","name":"Pasirnangka","_id":1632091,"coord":{"lon":106.095139,"lat":-6.82959}},{"displayName":"Pasirnangka, ID","country":"ID","name":"Pasirnangka","_id":1632092,"coord":{"lon":105.628899,"lat":-6.7886}},{"displayName":"Pasirnangka, ID","country":"ID","name":"Pasirnangka","_id":8053876,"coord":{"lon":108.437302,"lat":-7.3654}},{"displayName":"Pasirpanjang, ID","country":"ID","name":"Pasirpanjang","_id":1632082,"coord":{"lon":106.526703,"lat":-7.3042}},{"displayName":"Pasirpanjang, ID","country":"ID","name":"Pasirpanjang","_id":7766785,"coord":{"lon":105.926903,"lat":-6.4785}},{"displayName":"Pasirporong, ID","country":"ID","name":"Pasirporong","_id":7848628,"coord":{"lon":106.937698,"lat":-7.2549}},{"displayName":"Pasirreungit, ID","country":"ID","name":"Pasirreungit","_id":7888745,"coord":{"lon":107.009804,"lat":-7.0097}},{"displayName":"Pasirsalam, ID","country":"ID","name":"Pasirsalam","_id":7921828,"coord":{"lon":107.895401,"lat":-7.1186}},{"displayName":"Pasirsalam, ID","country":"ID","name":"Pasirsalam","_id":8017262,"coord":{"lon":108.077499,"lat":-7.3958}},{"displayName":"Pasirsongket Dua, ID","country":"ID","name":"Pasirsongket Dua","_id":7845299,"coord":{"lon":106.594597,"lat":-7.3106}},{"displayName":"Pasirtamiang, ID","country":"ID","name":"Pasirtamiang","_id":8026002,"coord":{"lon":108.209702,"lat":-7.2114}},{"displayName":"Pasirtujuhpuluh, ID","country":"ID","name":"Pasirtujuhpuluh","_id":7927948,"coord":{"lon":108.102501,"lat":-7.627}},{"displayName":"Pasirtundun, ID","country":"ID","name":"Pasirtundun","_id":7766553,"coord":{"lon":105.950104,"lat":-6.4139}},{"displayName":"Pasirwangi, ID","country":"ID","name":"Pasirwangi","_id":7857779,"coord":{"lon":107.664398,"lat":-7.4611}},{"displayName":"Pasirwaringin, ID","country":"ID","name":"Pasirwaringin","_id":7766554,"coord":{"lon":105.941223,"lat":-6.40963}},{"displayName":"Paska, DE","country":"DE","name":"Paska","_id":6550461,"coord":{"lon":11.6333,"lat":50.616699}},{"displayName":"Paska, DE","country":"DE","name":"Paska","_id":2855333,"coord":{"lon":11.62903,"lat":50.61985}},{"displayName":"Paskallavik, SE","country":"SE","name":"Paskallavik","_id":2684386,"coord":{"lon":16.450001,"lat":57.166672}},{"displayName":"Paskov, CZ","country":"CZ","name":"Paskov","_id":3068547,"coord":{"lon":18.290371,"lat":49.731789}},{"displayName":"Paslek, PL","country":"PL","name":"Paslek","_id":3089392,"coord":{"lon":19.659321,"lat":54.0616}},{"displayName":"Paslieres, FR","country":"FR","name":"Paslieres","_id":2988422,"coord":{"lon":3.49352,"lat":45.92844}},{"displayName":"Paslières, FR","country":"FR","name":"Paslières","_id":6440127,"coord":{"lon":3.5,"lat":45.933331}},{"displayName":"Pasly, FR","country":"FR","name":"Pasly","_id":6425137,"coord":{"lon":3.3,"lat":49.400002}},{"displayName":"Pasly, FR","country":"FR","name":"Pasly","_id":2988421,"coord":{"lon":3.29631,"lat":49.401669}},{"displayName":"Pasnay, AF","country":"AF","name":"Pasnay","_id":1130981,"coord":{"lon":65.764862,"lat":35.76664}},{"displayName":"Pasni, PK","country":"PK","name":"Pasni","_id":1168312,"coord":{"lon":63.471031,"lat":25.263109}},{"displayName":"Paso (El), ES","country":"ES","name":"Paso (El)","_id":6534190,"coord":{"lon":-17.868919,"lat":28.658701}},{"displayName":"Paso Blanco, PA","country":"PA","name":"Paso Blanco","_id":3703327,"coord":{"lon":-79.23333,"lat":9.13333}},{"displayName":"Paso de Carrasco, UY","country":"UY","name":"Paso de Carrasco","_id":3441292,"coord":{"lon":-56.052219,"lat":-34.860279}},{"displayName":"Paso de Indios, AR","country":"AR","name":"Paso de Indios","_id":3841894,"coord":{"lon":-69.046021,"lat":-43.862251}},{"displayName":"Paso de la Cadena, UY","country":"UY","name":"Paso de la Cadena","_id":3441287,"coord":{"lon":-56.166672,"lat":-34.450001}},{"displayName":"Paso de la Laguna, AR","country":"AR","name":"Paso de la Laguna","_id":3430106,"coord":{"lon":-59.166672,"lat":-31.799999}},{"displayName":"Paso de la Patria, AR","country":"AR","name":"Paso de la Patria","_id":3430105,"coord":{"lon":-58.571972,"lat":-27.316759}},{"displayName":"Paso de los Libres, AR","country":"AR","name":"Paso de los Libres","_id":3430104,"coord":{"lon":-57.089909,"lat":-29.71311}},{"displayName":"Paso de los Toros, UY","country":"UY","name":"Paso de los Toros","_id":3441273,"coord":{"lon":-56.51667,"lat":-32.816669}},{"displayName":"Paso de Ovejas, MX","country":"MX","name":"Paso de Ovejas","_id":3521825,"coord":{"lon":-96.433327,"lat":19.283331}},{"displayName":"Paso del Macho, MX","country":"MX","name":"Paso del Macho","_id":3521833,"coord":{"lon":-96.716667,"lat":18.966669}},{"displayName":"Paso del Rey, AR","country":"AR","name":"Paso del Rey","_id":3430102,"coord":{"lon":-58.75898,"lat":-34.656219}},{"displayName":"Paso del Toro, MX","country":"MX","name":"Paso del Toro","_id":3521830,"coord":{"lon":-96.116669,"lat":19.033331}},{"displayName":"Paso El Jabal, VE","country":"VE","name":"Paso El Jabal","_id":3630618,"coord":{"lon":-63.0,"lat":9.333333}},{"displayName":"Paso Real, VE","country":"VE","name":"Paso Real","_id":3753186,"coord":{"lon":-67.93322,"lat":10.14493}},{"displayName":"Paso Robles, US","country":"US","name":"Paso Robles","_id":5381438,"coord":{"lon":-120.691002,"lat":35.62664}},{"displayName":"Paso, BO","country":"BO","name":"Paso","_id":3908387,"coord":{"lon":-67.51667,"lat":-14.43333}},{"displayName":"Pasolapida, ID","country":"ID","name":"Pasolapida","_id":7570835,"coord":{"lon":119.163101,"lat":-9.64}},{"displayName":"Pasong Kawayan I, PH","country":"PH","name":"Pasong Kawayan I","_id":1694514,"coord":{"lon":120.870506,"lat":14.34745}},{"displayName":"Pasong Tamo, PH","country":"PH","name":"Pasong Tamo","_id":1694506,"coord":{"lon":121.067299,"lat":14.6809}},{"displayName":"Pasonobenu, ID","country":"ID","name":"Pasonobenu","_id":7556501,"coord":{"lon":119.170502,"lat":-9.5502}},{"displayName":"Paspardo, IT","country":"IT","name":"Paspardo","_id":3171430,"coord":{"lon":10.37096,"lat":46.030998}},{"displayName":"Paspebiac, CA","country":"CA","name":"Paspebiac","_id":6943824,"coord":{"lon":-65.248749,"lat":48.02914}},{"displayName":"Paspels, CH","country":"CH","name":"Paspels","_id":7286773,"coord":{"lon":9.45088,"lat":46.75127}},{"displayName":"Paspels, CH","country":"CH","name":"Paspels","_id":2659248,"coord":{"lon":9.4447,"lat":46.74881}},{"displayName":"Pasqua, CA","country":"CA","name":"Pasqua","_id":6098983,"coord":{"lon":-105.384438,"lat":50.366749}},{"displayName":"Pasquotank County, US","country":"US","name":"Pasquotank County","_id":4484186,"coord":{"lon":-76.28299,"lat":36.300159}},{"displayName":"Pasrukrajan Satu, ID","country":"ID","name":"Pasrukrajan Satu","_id":7037151,"coord":{"lon":113.058197,"lat":-8.1192}},{"displayName":"Pasrur, PK","country":"PK","name":"Pasrur","_id":1168307,"coord":{"lon":74.663422,"lat":32.26413}},{"displayName":"Pass Christian, US","country":"US","name":"Pass Christian","_id":4440413,"coord":{"lon":-89.247543,"lat":30.31575}},{"displayName":"Passa Quatro, BR","country":"BR","name":"Passa Quatro","_id":3454901,"coord":{"lon":-44.966671,"lat":-22.39028}},{"displayName":"Passa Tempo, BR","country":"BR","name":"Passa Tempo","_id":3454892,"coord":{"lon":-44.49556,"lat":-20.65056}},{"displayName":"Passade, DE","country":"DE","name":"Passade","_id":6551760,"coord":{"lon":10.3167,"lat":54.366699}},{"displayName":"Passade, DE","country":"DE","name":"Passade","_id":2855331,"coord":{"lon":10.31667,"lat":54.366669}},{"displayName":"Passage Fort, JM","country":"JM","name":"Passage Fort","_id":3489113,"coord":{"lon":-76.868668,"lat":17.976}},{"displayName":"Passage West, IE","country":"IE","name":"Passage West","_id":2962066,"coord":{"lon":-8.34444,"lat":51.87389}},{"displayName":"Passagem Franca, BR","country":"BR","name":"Passagem Franca","_id":3392942,"coord":{"lon":-43.783611,"lat":-6.17972}},{"displayName":"Passaic County, US","country":"US","name":"Passaic County","_id":5102445,"coord":{"lon":-74.3657,"lat":41.066799}},{"displayName":"Passaic, US","country":"US","name":"Passaic","_id":5102443,"coord":{"lon":-74.128479,"lat":40.85677}},{"displayName":"Passail, AT","country":"AT","name":"Passail","_id":7873573,"coord":{"lon":15.50401,"lat":47.290741}},{"displayName":"Passail, AT","country":"AT","name":"Passail","_id":2769224,"coord":{"lon":15.51667,"lat":47.283329}},{"displayName":"Passapatanzy, US","country":"US","name":"Passapatanzy","_id":4778077,"coord":{"lon":-77.314148,"lat":38.297352}},{"displayName":"Passau, DE","country":"DE","name":"Passau","_id":2855328,"coord":{"lon":13.44898,"lat":48.571159}},{"displayName":"Passee, DE","country":"DE","name":"Passee","_id":6548208,"coord":{"lon":11.7667,"lat":53.966702}},{"displayName":"Passee, DE","country":"DE","name":"Passee","_id":2855317,"coord":{"lon":11.76667,"lat":53.966671}},{"displayName":"Passerano Marmorito, IT","country":"IT","name":"Passerano Marmorito","_id":6534389,"coord":{"lon":8.01873,"lat":45.055851}},{"displayName":"Passi, ID","country":"ID","name":"Passi","_id":1632189,"coord":{"lon":124.298203,"lat":0.7655}},{"displayName":"Passi, PH","country":"PH","name":"Passi","_id":1694500,"coord":{"lon":122.650002,"lat":11.15}},{"displayName":"Passi, PH","country":"PH","name":"Passi","_id":1694498,"coord":{"lon":122.641937,"lat":11.10778}},{"displayName":"Passi, SN","country":"SN","name":"Passi","_id":2246780,"coord":{"lon":-16.26667,"lat":13.98333}},{"displayName":"Passignano sul Trasimeno, IT","country":"IT","name":"Passignano sul Trasimeno","_id":3171418,"coord":{"lon":12.12925,"lat":43.194141}},{"displayName":"Passin, DE","country":"DE","name":"Passin","_id":2855307,"coord":{"lon":12.0,"lat":53.900002}},{"displayName":"Passira, BR","country":"BR","name":"Passira","_id":3392916,"coord":{"lon":-35.580559,"lat":-7.995}},{"displayName":"Passirano, IT","country":"IT","name":"Passirano","_id":3171416,"coord":{"lon":10.06666,"lat":45.598679}},{"displayName":"Passo do Gato, BR","country":"BR","name":"Passo do Gato","_id":3454864,"coord":{"lon":-49.0,"lat":-28.48333}},{"displayName":"Passo do Sobrado, BR","country":"BR","name":"Passo do Sobrado","_id":3454859,"coord":{"lon":-52.274719,"lat":-29.74806}},{"displayName":"Passo Fundo, BR","country":"BR","name":"Passo Fundo","_id":3454857,"coord":{"lon":-52.40667,"lat":-28.262779}},{"displayName":"Passo, ID","country":"ID","name":"Passo","_id":1632046,"coord":{"lon":128.254776,"lat":-3.63013}},{"displayName":"Passo, PK","country":"PK","name":"Passo","_id":1336509,"coord":{"lon":62.00111,"lat":25.141945}},{"displayName":"Passos, BR","country":"BR","name":"Passos","_id":3454847,"coord":{"lon":-46.609718,"lat":-20.718889}},{"displayName":"Passos, PT","country":"PT","name":"Passos","_id":2736613,"coord":{"lon":-8.42291,"lat":40.909721}},{"displayName":"Passover, US","country":"US","name":"Passover","_id":4402594,"coord":{"lon":-92.599068,"lat":38.080872}},{"displayName":"Passow, DE","country":"DE","name":"Passow","_id":6548377,"coord":{"lon":12.05,"lat":53.5}},{"displayName":"Passow, DE","country":"DE","name":"Passow","_id":2855300,"coord":{"lon":12.05286,"lat":53.506828}},{"displayName":"Passow, DE","country":"DE","name":"Passow","_id":6547754,"coord":{"lon":14.1167,"lat":53.155602}},{"displayName":"Passow, DE","country":"DE","name":"Passow","_id":2855301,"coord":{"lon":14.11417,"lat":53.14286}},{"displayName":"Passy, FR","country":"FR","name":"Passy","_id":6443019,"coord":{"lon":6.68333,"lat":45.916672}},{"displayName":"Passy, FR","country":"FR","name":"Passy","_id":2988393,"coord":{"lon":6.68765,"lat":45.92028}},{"displayName":"Passé, BR","country":"BR","name":"Passé","_id":3454880,"coord":{"lon":-38.51667,"lat":-12.71667}},{"displayName":"Pastavy, BY","country":"BY","name":"Pastavy","_id":623760,"coord":{"lon":26.83263,"lat":55.11676}},{"displayName":"Pastena, IT","country":"IT","name":"Pastena","_id":3171406,"coord":{"lon":13.4916,"lat":41.468922}},{"displayName":"Pastetten, DE","country":"DE","name":"Pastetten","_id":6556191,"coord":{"lon":11.95,"lat":48.200001}},{"displayName":"Pastetten, DE","country":"DE","name":"Pastetten","_id":2855293,"coord":{"lon":11.94368,"lat":48.199108}},{"displayName":"Pastin, DE","country":"DE","name":"Pastin","_id":2855292,"coord":{"lon":11.8745,"lat":53.703308}},{"displayName":"Pasto, CO","country":"CO","name":"Pasto","_id":3672778,"coord":{"lon":-77.281113,"lat":1.21361}},{"displayName":"Pastor Ortíz, MX","country":"MX","name":"Pastor Ortíz","_id":4023964,"coord":{"lon":-101.593613,"lat":20.30389}},{"displayName":"Pastorano, IT","country":"IT","name":"Pastorano","_id":6535742,"coord":{"lon":14.19822,"lat":41.18082}},{"displayName":"Pastores, ES","country":"ES","name":"Pastores","_id":6360472,"coord":{"lon":-6.49928,"lat":40.5215}},{"displayName":"Pastores, ES","country":"ES","name":"Pastores","_id":3114208,"coord":{"lon":-6.51018,"lat":40.515079}},{"displayName":"Pastores, GT","country":"GT","name":"Pastores","_id":3591574,"coord":{"lon":-90.754723,"lat":14.59667}},{"displayName":"Pastoriza (A), ES","country":"ES","name":"Pastoriza (A)","_id":6359203,"coord":{"lon":-7.33442,"lat":43.29007}},{"displayName":"Pastoriza, ES","country":"ES","name":"Pastoriza","_id":3114207,"coord":{"lon":-7.1657,"lat":43.093079}},{"displayName":"Pastos Bons, BR","country":"BR","name":"Pastos Bons","_id":3392907,"coord":{"lon":-44.076672,"lat":-6.60167}},{"displayName":"Pastos Comunidad, PR","country":"PR","name":"Pastos Comunidad","_id":7274973,"coord":{"lon":-66.260094,"lat":18.119289}},{"displayName":"Pastos, PR","country":"PR","name":"Pastos","_id":4566650,"coord":{"lon":-66.258781,"lat":18.117741}},{"displayName":"Pastrana, ES","country":"ES","name":"Pastrana","_id":6357981,"coord":{"lon":-2.89123,"lat":40.397881}},{"displayName":"Pastrana, ES","country":"ES","name":"Pastrana","_id":3114204,"coord":{"lon":-2.92256,"lat":40.419022}},{"displayName":"Pastrana, PH","country":"PH","name":"Pastrana","_id":1694491,"coord":{"lon":124.885559,"lat":11.13667}},{"displayName":"Pastraveni, RO","country":"RO","name":"Pastraveni","_id":671281,"coord":{"lon":26.566669,"lat":47.166672}},{"displayName":"Pastrengo, IT","country":"IT","name":"Pastrengo","_id":3171399,"coord":{"lon":10.79978,"lat":45.493092}},{"displayName":"Pasturana, IT","country":"IT","name":"Pasturana","_id":6535556,"coord":{"lon":8.74925,"lat":44.750851}},{"displayName":"Pasturo, IT","country":"IT","name":"Pasturo","_id":6535354,"coord":{"lon":9.44414,"lat":45.951679}},{"displayName":"Pasucen, ID","country":"ID","name":"Pasucen","_id":8058273,"coord":{"lon":111.051804,"lat":-6.6579}},{"displayName":"Pasuquin, PH","country":"PH","name":"Pasuquin","_id":1694484,"coord":{"lon":120.617699,"lat":18.3328}},{"displayName":"Pasuruan, ID","country":"ID","name":"Pasuruan","_id":1632033,"coord":{"lon":112.907501,"lat":-7.6453}},{"displayName":"Pasuruan, ID","country":"ID","name":"Pasuruan","_id":7665509,"coord":{"lon":105.677071,"lat":-5.7463}},{"displayName":"Pasvalys, LT","country":"LT","name":"Pasvalys","_id":595997,"coord":{"lon":24.40361,"lat":56.059441}},{"displayName":"Pasym, PL","country":"PL","name":"Pasym","_id":762588,"coord":{"lon":20.79188,"lat":53.650688}},{"displayName":"Paszowice, PL","country":"PL","name":"Paszowice","_id":3089375,"coord":{"lon":16.152731,"lat":51.01078}},{"displayName":"Paszto, HU","country":"HU","name":"Paszto","_id":3046580,"coord":{"lon":19.69829,"lat":47.920189}},{"displayName":"Pata, PH","country":"PH","name":"Pata","_id":1694477,"coord":{"lon":121.501801,"lat":17.7152}},{"displayName":"Patabog, PH","country":"PH","name":"Patabog","_id":1694475,"coord":{"lon":122.456108,"lat":13.45306}},{"displayName":"Patacamaya, BO","country":"BO","name":"Patacamaya","_id":3908339,"coord":{"lon":-67.916672,"lat":-17.23333}},{"displayName":"Pataeiro, PT","country":"PT","name":"Pataeiro","_id":2265121,"coord":{"lon":-8.98333,"lat":39.583328}},{"displayName":"Pataha, ID","country":"ID","name":"Pataha","_id":7586836,"coord":{"lon":119.009499,"lat":-8.5297}},{"displayName":"Pataias, PT","country":"PT","name":"Pataias","_id":8012314,"coord":{"lon":-8.9914,"lat":39.68829}},{"displayName":"Pataias, PT","country":"PT","name":"Pataias","_id":2265120,"coord":{"lon":-8.9958,"lat":39.669781}},{"displayName":"Patala, ID","country":"ID","name":"Patala","_id":8067563,"coord":{"lon":108.581299,"lat":-7.1103}},{"displayName":"Patalan, ID","country":"ID","name":"Patalan","_id":8071114,"coord":{"lon":111.445099,"lat":-6.9442}},{"displayName":"Patalenica, BG","country":"BG","name":"Patalenica","_id":6461172,"coord":{"lon":24.200001,"lat":42.116669}},{"displayName":"Patalenitsa, BG","country":"BG","name":"Patalenitsa","_id":728397,"coord":{"lon":24.200001,"lat":42.116669}},{"displayName":"patamda, IN","country":"IN","name":"patamda","_id":1276955,"coord":{"lon":85.416672,"lat":24.299999}},{"displayName":"Patamundai, IN","country":"IN","name":"Patamundai","_id":1260178,"coord":{"lon":86.566673,"lat":20.566669}},{"displayName":"Patan, IN","country":"IN","name":"Patan","_id":1260173,"coord":{"lon":72.116669,"lat":23.83333}},{"displayName":"Patan, IN","country":"IN","name":"Patan","_id":1260174,"coord":{"lon":79.699997,"lat":23.299999}},{"displayName":"Patan, IN","country":"IN","name":"Patan","_id":1260176,"coord":{"lon":81.533333,"lat":21.033331}},{"displayName":"Patan, IN","country":"IN","name":"Patan","_id":1260177,"coord":{"lon":73.900002,"lat":17.366671}},{"displayName":"Patan, NP","country":"NP","name":"Patan","_id":1282931,"coord":{"lon":85.333336,"lat":27.666668}},{"displayName":"Patancheru, IN","country":"IN","name":"Patancheru","_id":1260168,"coord":{"lon":78.264999,"lat":17.531389}},{"displayName":"Patani, NG","country":"NG","name":"Patani","_id":2324962,"coord":{"lon":6.19238,"lat":5.22724}},{"displayName":"Patao, PH","country":"PH","name":"Patao","_id":1694432,"coord":{"lon":123.692497,"lat":11.2202}},{"displayName":"Patara-Shiraki, GE","country":"GE","name":"Patara-Shiraki","_id":612451,"coord":{"lon":46.340832,"lat":41.293892}},{"displayName":"Patarra, CR","country":"CR","name":"Patarra","_id":3622507,"coord":{"lon":-84.035011,"lat":9.88071}},{"displayName":"Pataruman, ID","country":"ID","name":"Pataruman","_id":7920474,"coord":{"lon":107.991096,"lat":-7.1966}},{"displayName":"Pataskala, US","country":"US","name":"Pataskala","_id":4520905,"coord":{"lon":-82.674332,"lat":39.995621}},{"displayName":"Pataudi, IN","country":"IN","name":"Pataudi","_id":1260156,"coord":{"lon":76.783333,"lat":28.316669}},{"displayName":"Patawag, PH","country":"PH","name":"Patawag","_id":1694418,"coord":{"lon":122.620827,"lat":8.10639}},{"displayName":"Patay, FR","country":"FR","name":"Patay","_id":6434686,"coord":{"lon":1.7,"lat":48.049999}},{"displayName":"Patay, FR","country":"FR","name":"Patay","_id":2988374,"coord":{"lon":1.695,"lat":48.048328}},{"displayName":"Patayak, PH","country":"PH","name":"Patayak","_id":1694412,"coord":{"lon":120.431801,"lat":15.963}},{"displayName":"Patchewollock, AU","country":"AU","name":"Patchewollock","_id":2153706,"coord":{"lon":142.199997,"lat":-35.383331}},{"displayName":"Patchogue, US","country":"US","name":"Patchogue","_id":5130672,"coord":{"lon":-73.015106,"lat":40.765652}},{"displayName":"Patea, NZ","country":"NZ","name":"Patea","_id":2206361,"coord":{"lon":174.483337,"lat":-39.758331}},{"displayName":"Patec, MK","country":"MK","name":"Patec","_id":863616,"coord":{"lon":21.112221,"lat":41.542221}},{"displayName":"Pategi, NG","country":"NG","name":"Pategi","_id":2324960,"coord":{"lon":5.75,"lat":8.73333}},{"displayName":"Pateh Sam, GM","country":"GM","name":"Pateh Sam","_id":2412279,"coord":{"lon":-15.06667,"lat":13.61667}},{"displayName":"Patemon, ID","country":"ID","name":"Patemon","_id":1631998,"coord":{"lon":113.453598,"lat":-8.1517}},{"displayName":"Paterna de Rivera, ES","country":"ES","name":"Paterna de Rivera","_id":6356940,"coord":{"lon":-5.84944,"lat":36.521091}},{"displayName":"Paterna de Rivera, ES","country":"ES","name":"Paterna de Rivera","_id":2512857,"coord":{"lon":-5.86578,"lat":36.522461}},{"displayName":"Paterna del Campo, ES","country":"ES","name":"Paterna del Campo","_id":2512860,"coord":{"lon":-6.40248,"lat":37.419479}},{"displayName":"Paterna del Madera, ES","country":"ES","name":"Paterna del Madera","_id":6355349,"coord":{"lon":-2.34524,"lat":38.589432}},{"displayName":"Paterna del Madera, ES","country":"ES","name":"Paterna del Madera","_id":2512859,"coord":{"lon":-2.34421,"lat":38.597511}},{"displayName":"Paterna del Rio, ES","country":"ES","name":"Paterna del Rio","_id":2512858,"coord":{"lon":-2.95343,"lat":37.022221}},{"displayName":"Paterna del Río, ES","country":"ES","name":"Paterna del Río","_id":6355585,"coord":{"lon":-2.94807,"lat":37.05246}},{"displayName":"Paterna, ES","country":"ES","name":"Paterna","_id":2512862,"coord":{"lon":-0.43333,"lat":39.5}},{"displayName":"Paterna, ES","country":"ES","name":"Paterna","_id":6362055,"coord":{"lon":-0.47315,"lat":39.532291}},{"displayName":"Paternal, AR","country":"AR","name":"Paternal","_id":3430087,"coord":{"lon":-58.471561,"lat":-34.595421}},{"displayName":"Paternion, AT","country":"AT","name":"Paternion","_id":7872802,"coord":{"lon":13.59677,"lat":46.675381}},{"displayName":"Paternion, AT","country":"AT","name":"Paternion","_id":2769212,"coord":{"lon":13.63611,"lat":46.714169}},{"displayName":"Paterno Calabro, IT","country":"IT","name":"Paterno Calabro","_id":6541297,"coord":{"lon":16.264891,"lat":39.228489}},{"displayName":"Paterno Calabro, IT","country":"IT","name":"Paterno Calabro","_id":2523865,"coord":{"lon":16.264891,"lat":39.228489}},{"displayName":"Paterno, IT","country":"IT","name":"Paterno","_id":2523866,"coord":{"lon":14.90268,"lat":37.57095}},{"displayName":"Paterno, IT","country":"IT","name":"Paterno","_id":3171392,"coord":{"lon":15.73277,"lat":40.378311}},{"displayName":"Paternopoli, IT","country":"IT","name":"Paternopoli","_id":3171382,"coord":{"lon":15.03205,"lat":40.97332}},{"displayName":"Paternáin, ES","country":"ES","name":"Paternáin","_id":3114201,"coord":{"lon":-1.74395,"lat":42.78521}},{"displayName":"Paternò, IT","country":"IT","name":"Paternò","_id":6539872,"coord":{"lon":14.90268,"lat":37.57095}},{"displayName":"Pateros, PH","country":"PH","name":"Pateros","_id":1694403,"coord":{"lon":121.072601,"lat":14.5391}},{"displayName":"Patersbach, DE","country":"DE","name":"Patersbach","_id":2855276,"coord":{"lon":7.45,"lat":49.566669}},{"displayName":"Patersberg, DE","country":"DE","name":"Patersberg","_id":6554085,"coord":{"lon":7.73333,"lat":50.150002}},{"displayName":"Patersberg, DE","country":"DE","name":"Patersberg","_id":2855274,"coord":{"lon":7.73333,"lat":50.150002}},{"displayName":"Patersdorf, DE","country":"DE","name":"Patersdorf","_id":6556550,"coord":{"lon":12.9833,"lat":49.016701}},{"displayName":"Patersdorf, DE","country":"DE","name":"Patersdorf","_id":2855272,"coord":{"lon":12.98333,"lat":49.01667}},{"displayName":"Paterson, US","country":"US","name":"Paterson","_id":5102466,"coord":{"lon":-74.171806,"lat":40.916771}},{"displayName":"Patersonia, AU","country":"AU","name":"Patersonia","_id":2153697,"coord":{"lon":147.300003,"lat":-41.349998}},{"displayName":"Pathalgaon, IN","country":"IN","name":"Pathalgaon","_id":1260141,"coord":{"lon":83.466667,"lat":22.566669}},{"displayName":"Pathanamthitta, IN","country":"IN","name":"Pathanamthitta","_id":1260138,"coord":{"lon":76.783333,"lat":9.26667}},{"displayName":"Pathankot, IN","country":"IN","name":"Pathankot","_id":1260137,"coord":{"lon":75.650002,"lat":32.283329}},{"displayName":"Pathardi, IN","country":"IN","name":"Pathardi","_id":1260135,"coord":{"lon":75.183327,"lat":19.16667}},{"displayName":"Pathardih, IN","country":"IN","name":"Pathardih","_id":1260134,"coord":{"lon":86.433327,"lat":23.66667}},{"displayName":"Patharia, IN","country":"IN","name":"Patharia","_id":1260129,"coord":{"lon":79.199997,"lat":23.9}},{"displayName":"Pathein, MM","country":"MM","name":"Pathein","_id":1328421,"coord":{"lon":94.73333,"lat":16.783331}},{"displayName":"Pathena, IN","country":"IN","name":"Pathena","_id":1260124,"coord":{"lon":77.01667,"lat":27.133333}},{"displayName":"Pathio, TH","country":"TH","name":"Pathio","_id":1151523,"coord":{"lon":99.318199,"lat":10.70908}},{"displayName":"Pathio, TH","country":"TH","name":"Pathio","_id":7510876,"coord":{"lon":99.318199,"lat":10.70908}},{"displayName":"Patho, AU","country":"AU","name":"Patho","_id":2153694,"coord":{"lon":144.433334,"lat":-36.033329}},{"displayName":"Pathri, IN","country":"IN","name":"Pathri","_id":1260120,"coord":{"lon":76.449997,"lat":19.25}},{"displayName":"Pathum Rat, TH","country":"TH","name":"Pathum Rat","_id":1607984,"coord":{"lon":103.343246,"lat":15.6345}},{"displayName":"Pathum Ratchawongsa, TH","country":"TH","name":"Pathum Ratchawongsa","_id":7511015,"coord":{"lon":104.905632,"lat":15.89224}},{"displayName":"Pathum Thani, TH","country":"TH","name":"Pathum Thani","_id":1607983,"coord":{"lon":100.530487,"lat":14.01346}},{"displayName":"Pathum Wan, TH","country":"TH","name":"Pathum Wan","_id":7026842,"coord":{"lon":100.523903,"lat":13.73648}},{"displayName":"Pati, ID","country":"ID","name":"Pati","_id":1631992,"coord":{"lon":111.038002,"lat":-6.7559}},{"displayName":"Patia Kidul, ID","country":"ID","name":"Patia Kidul","_id":1631989,"coord":{"lon":105.859306,"lat":-6.48608}},{"displayName":"Patia, CO","country":"CO","name":"Patia","_id":3672761,"coord":{"lon":-77.052727,"lat":2.06895}},{"displayName":"Patiala, IN","country":"IN","name":"Patiala","_id":1260107,"coord":{"lon":76.400284,"lat":30.32667}},{"displayName":"Patiali, IN","country":"IN","name":"Patiali","_id":1260104,"coord":{"lon":79.01667,"lat":27.716669}},{"displayName":"Patience Hill, TT","country":"TT","name":"Patience Hill","_id":3573972,"coord":{"lon":-60.763889,"lat":11.18822}},{"displayName":"Patikul, PH","country":"PH","name":"Patikul","_id":1684409,"coord":{"lon":121.105278,"lat":6.08917}},{"displayName":"Patillas Municipio, PR","country":"PR","name":"Patillas Municipio","_id":4566654,"coord":{"lon":-66.017662,"lat":18.04163}},{"displayName":"Patillas, PR","country":"PR","name":"Patillas","_id":4566652,"coord":{"lon":-66.015717,"lat":18.00635}},{"displayName":"Patimuan, ID","country":"ID","name":"Patimuan","_id":1631262,"coord":{"lon":108.755112,"lat":-7.59825}},{"displayName":"Patin-ay, PH","country":"PH","name":"Patin-ay","_id":1694383,"coord":{"lon":125.937218,"lat":8.55056}},{"displayName":"Patindeguen, PH","country":"PH","name":"Patindeguen","_id":1694382,"coord":{"lon":124.498329,"lat":7.21972}},{"displayName":"Patingen Dua, ID","country":"ID","name":"Patingen Dua","_id":8069722,"coord":{"lon":108.697304,"lat":-7.5418}},{"displayName":"Patique, PH","country":"PH","name":"Patique","_id":1694396,"coord":{"lon":122.8993,"lat":10.237}},{"displayName":"Patit, US","country":"US","name":"Patit","_id":5806341,"coord":{"lon":-117.859367,"lat":46.335701}},{"displayName":"Patitirion, GR","country":"GR","name":"Patitirion","_id":255689,"coord":{"lon":23.866671,"lat":39.150002}},{"displayName":"Pativilca, PE","country":"PE","name":"Pativilca","_id":3932687,"coord":{"lon":-77.783333,"lat":-10.7}},{"displayName":"Patiya, BD","country":"BD","name":"Patiya","_id":1185148,"coord":{"lon":91.976212,"lat":22.293119}},{"displayName":"Patna, GB","country":"GB","name":"Patna","_id":2640574,"coord":{"lon":-4.50457,"lat":55.363701}},{"displayName":"Patna, IN","country":"IN","name":"Patna","_id":1260086,"coord":{"lon":85.116669,"lat":25.6}},{"displayName":"Patnagarh, IN","country":"IN","name":"Patnagarh","_id":1260082,"coord":{"lon":83.150002,"lat":20.716669}},{"displayName":"Patnanungan, PH","country":"PH","name":"Patnanungan","_id":1694369,"coord":{"lon":122.183327,"lat":14.78333}},{"displayName":"Patnongon, PH","country":"PH","name":"Patnongon","_id":1694365,"coord":{"lon":121.993698,"lat":10.9132}},{"displayName":"Patnos, TR","country":"TR","name":"Patnos","_id":302819,"coord":{"lon":42.863441,"lat":39.233608}},{"displayName":"Patnow, PL","country":"PL","name":"Patnow","_id":3089372,"coord":{"lon":18.61659,"lat":51.144032}},{"displayName":"Pato Branco, BR","country":"BR","name":"Pato Branco","_id":3454818,"coord":{"lon":-52.670559,"lat":-26.228609}},{"displayName":"Pato-o, PH","country":"PH","name":"Pato-o","_id":1694338,"coord":{"lon":122.06472,"lat":12.43056}},{"displayName":"Patonan, PH","country":"PH","name":"Patonan","_id":1694297,"coord":{"lon":123.472298,"lat":10.56816}},{"displayName":"Patones, ES","country":"ES","name":"Patones","_id":6359328,"coord":{"lon":-3.4811,"lat":40.894539}},{"displayName":"Patones, ES","country":"ES","name":"Patones","_id":3114199,"coord":{"lon":-3.4849,"lat":40.855629}},{"displayName":"Patong Beach, TH","country":"TH","name":"Patong Beach","_id":6941772,"coord":{"lon":98.296608,"lat":7.89607}},{"displayName":"Patong, PH","country":"PH","name":"Patong","_id":1692825,"coord":{"lon":125.28521,"lat":12.33643}},{"displayName":"Patonga, AU","country":"AU","name":"Patonga","_id":2153689,"coord":{"lon":151.266663,"lat":-33.549999}},{"displayName":"Patos de Minas, BR","country":"BR","name":"Patos de Minas","_id":3454783,"coord":{"lon":-46.518059,"lat":-18.57889}},{"displayName":"Patos Fshat, AL","country":"AL","name":"Patos Fshat","_id":3184517,"coord":{"lon":19.650829,"lat":40.64278}},{"displayName":"Patos, BR","country":"BR","name":"Patos","_id":3392887,"coord":{"lon":-37.279999,"lat":-7.02444}},{"displayName":"Patpata Segundo, PH","country":"PH","name":"Patpata Segundo","_id":1694331,"coord":{"lon":120.433327,"lat":17.183331}},{"displayName":"Patra, GR","country":"GR","name":"Patra","_id":255683,"coord":{"lon":21.73444,"lat":38.244438}},{"displayName":"Patrang, ID","country":"ID","name":"Patrang","_id":7083110,"coord":{"lon":113.719597,"lat":-8.1446}},{"displayName":"Patrasaer, IN","country":"IN","name":"Patrasaer","_id":1260064,"coord":{"lon":87.51667,"lat":23.216669}},{"displayName":"Patrauti, RO","country":"RO","name":"Patrauti","_id":671263,"coord":{"lon":26.200001,"lat":47.716671}},{"displayName":"Patria, PH","country":"PH","name":"Patria","_id":1694327,"coord":{"lon":122.017097,"lat":11.7403}},{"displayName":"Patrica, IT","country":"IT","name":"Patrica","_id":3171378,"coord":{"lon":13.244,"lat":41.59222}},{"displayName":"Patricia, CA","country":"CA","name":"Patricia","_id":6099545,"coord":{"lon":-111.668472,"lat":50.700119}},{"displayName":"Patricios, AR","country":"AR","name":"Patricios","_id":3841763,"coord":{"lon":-60.715931,"lat":-35.439548}},{"displayName":"Patrick County, US","country":"US","name":"Patrick County","_id":4778096,"coord":{"lon":-80.283112,"lat":36.666801}},{"displayName":"Patrick Fogarty Catholic Secondary School, CA","country":"CA","name":"Patrick Fogarty Catholic Secondary School","_id":7870136,"coord":{"lon":-79.430946,"lat":44.625519}},{"displayName":"Patrick Springs, US","country":"US","name":"Patrick Springs","_id":4778128,"coord":{"lon":-80.195053,"lat":36.6418}},{"displayName":"Patrickswell, IE","country":"IE","name":"Patrickswell","_id":2961617,"coord":{"lon":-8.70889,"lat":52.597221}},{"displayName":"Patrikeyevo, RU","country":"RU","name":"Patrikeyevo","_id":512296,"coord":{"lon":38.104721,"lat":55.326111}},{"displayName":"Patrington, GB","country":"GB","name":"Patrington","_id":2640571,"coord":{"lon":-0.0133,"lat":53.683949}},{"displayName":"Patris, GR","country":"GR","name":"Patris","_id":734733,"coord":{"lon":22.18611,"lat":40.561111}},{"displayName":"Patrocinio, BR","country":"BR","name":"Patrocinio","_id":3454763,"coord":{"lon":-46.9925,"lat":-18.94389}},{"displayName":"Patrocinio, PH","country":"PH","name":"Patrocinio","_id":1694319,"coord":{"lon":124.845558,"lat":8.6125}},{"displayName":"Patrocínio do Muriaé, BR","country":"BR","name":"Patrocínio do Muriaé","_id":3454762,"coord":{"lon":-42.214722,"lat":-21.1525}},{"displayName":"Patrocínio Paulista, BR","country":"BR","name":"Patrocínio Paulista","_id":3454761,"coord":{"lon":-47.28167,"lat":-20.639441}},{"displayName":"Patroha, HU","country":"HU","name":"Patroha","_id":716526,"coord":{"lon":22.0,"lat":48.166672}},{"displayName":"Patrol, ID","country":"ID","name":"Patrol","_id":8018535,"coord":{"lon":108.106598,"lat":-7.11}},{"displayName":"Patsch, AT","country":"AT","name":"Patsch","_id":7873613,"coord":{"lon":11.42699,"lat":47.204941}},{"displayName":"Patsch, AT","country":"AT","name":"Patsch","_id":2769211,"coord":{"lon":11.41667,"lat":47.200001}},{"displayName":"Patsi, KM","country":"KM","name":"Patsi","_id":921703,"coord":{"lon":44.437222,"lat":-12.15556}},{"displayName":"Patsyeyki, BY","country":"BY","name":"Patsyeyki","_id":623155,"coord":{"lon":26.966667,"lat":53.166668}},{"displayName":"Pattada, IT","country":"IT","name":"Pattada","_id":3171376,"coord":{"lon":9.11293,"lat":40.58176}},{"displayName":"Pattan, IN","country":"IN","name":"Pattan","_id":1260050,"coord":{"lon":74.566673,"lat":34.166672}},{"displayName":"Pattani, TH","country":"TH","name":"Pattani","_id":1607978,"coord":{"lon":101.250092,"lat":6.86814}},{"displayName":"Pattao, PH","country":"PH","name":"Pattao","_id":1694317,"coord":{"lon":121.815948,"lat":18.249269}},{"displayName":"Patten, US","country":"US","name":"Patten","_id":4974775,"coord":{"lon":-68.446136,"lat":45.996441}},{"displayName":"Pattensen, DE","country":"DE","name":"Pattensen","_id":2855243,"coord":{"lon":9.76436,"lat":52.264481}},{"displayName":"Pattensen, Stadt, DE","country":"DE","name":"Pattensen, Stadt","_id":6557405,"coord":{"lon":9.76633,"lat":52.261871}},{"displayName":"Patterson Gardens, US","country":"US","name":"Patterson Gardens","_id":5005092,"coord":{"lon":-83.430489,"lat":41.918381}},{"displayName":"Patterson, US","country":"US","name":"Patterson","_id":5381515,"coord":{"lon":-121.129662,"lat":37.4716}},{"displayName":"Patterson, US","country":"US","name":"Patterson","_id":4336646,"coord":{"lon":-91.302048,"lat":29.69326}},{"displayName":"Patti, IN","country":"IN","name":"Patti","_id":1260045,"coord":{"lon":74.857224,"lat":31.28083}},{"displayName":"Patti, IN","country":"IN","name":"Patti","_id":1260046,"coord":{"lon":82.199997,"lat":25.91667}},{"displayName":"Patti, IT","country":"IT","name":"Patti","_id":6541961,"coord":{"lon":14.96958,"lat":38.146759}},{"displayName":"Patti, IT","country":"IT","name":"Patti","_id":2523864,"coord":{"lon":14.96958,"lat":38.146759}},{"displayName":"Pattingham, GB","country":"GB","name":"Pattingham","_id":2640566,"coord":{"lon":-2.26538,"lat":52.5891}},{"displayName":"Pattoki, PK","country":"PK","name":"Pattoki","_id":1168226,"coord":{"lon":73.849998,"lat":31.01667}},{"displayName":"Patton Village, US","country":"US","name":"Patton Village","_id":4717929,"coord":{"lon":-95.168823,"lat":30.192989}},{"displayName":"Patton, US","country":"US","name":"Patton","_id":5205215,"coord":{"lon":-78.650299,"lat":40.633961}},{"displayName":"Pattukkottai, IN","country":"IN","name":"Pattukkottai","_id":1260040,"coord":{"lon":79.316673,"lat":10.43333}},{"displayName":"Patu, BR","country":"BR","name":"Patu","_id":3392862,"coord":{"lon":-37.636669,"lat":-6.11}},{"displayName":"Patu, IT","country":"IT","name":"Patu","_id":2523862,"coord":{"lon":18.33893,"lat":39.841221}},{"displayName":"Patulele, RO","country":"RO","name":"Patulele","_id":671248,"coord":{"lon":22.772779,"lat":44.34528}},{"displayName":"Patuli, IN","country":"IN","name":"Patuli","_id":1260038,"coord":{"lon":88.25,"lat":23.549999}},{"displayName":"Patulul, GT","country":"GT","name":"Patulul","_id":3591541,"coord":{"lon":-91.166672,"lat":14.41667}},{"displayName":"Patur, IN","country":"IN","name":"Patur","_id":1260035,"coord":{"lon":76.933327,"lat":20.450001}},{"displayName":"Patutahi, NZ","country":"NZ","name":"Patutahi","_id":2184772,"coord":{"lon":177.899994,"lat":-38.616669}},{"displayName":"Patuto, PH","country":"PH","name":"Patuto","_id":1694290,"coord":{"lon":120.966667,"lat":14.11667}},{"displayName":"Paty do Alferes, BR","country":"BR","name":"Paty do Alferes","_id":3454827,"coord":{"lon":-43.41861,"lat":-22.42861}},{"displayName":"Paty, HU","country":"HU","name":"Paty","_id":3046546,"coord":{"lon":18.82851,"lat":47.51709}},{"displayName":"Patyah, AU","country":"AU","name":"Patyah","_id":2153673,"coord":{"lon":141.233337,"lat":-36.900002}},{"displayName":"Patyarthok, NP","country":"NP","name":"Patyarthok","_id":8004777,"coord":{"lon":84.334068,"lat":28.03129}},{"displayName":"Patyiház, HU","country":"HU","name":"Patyiház","_id":3046545,"coord":{"lon":17.033331,"lat":47.599998}},{"displayName":"Patzcuaro, MX","country":"MX","name":"Patzcuaro","_id":3993179,"coord":{"lon":-101.599998,"lat":19.51667}},{"displayName":"Patzetz, DE","country":"DE","name":"Patzetz","_id":2855227,"coord":{"lon":11.88333,"lat":51.866669}},{"displayName":"Patzicia, GT","country":"GT","name":"Patzicia","_id":3591523,"coord":{"lon":-90.926941,"lat":14.63167}},{"displayName":"Patzig, DE","country":"DE","name":"Patzig","_id":6548425,"coord":{"lon":13.4,"lat":54.466702}},{"displayName":"Patzig, DE","country":"DE","name":"Patzig","_id":2855226,"coord":{"lon":13.4,"lat":54.466671}},{"displayName":"Patzite, GT","country":"GT","name":"Patzite","_id":3591517,"coord":{"lon":-91.216667,"lat":14.96667}},{"displayName":"Patzun, GT","country":"GT","name":"Patzun","_id":3591512,"coord":{"lon":-91.01667,"lat":14.68333}},{"displayName":"Pau Brasil, BR","country":"BR","name":"Pau Brasil","_id":3454743,"coord":{"lon":-39.651112,"lat":-15.46417}},{"displayName":"Pau, ES","country":"ES","name":"Pau","_id":6534099,"coord":{"lon":3.11771,"lat":42.315941}},{"displayName":"Pau, ES","country":"ES","name":"Pau","_id":3114198,"coord":{"lon":3.11621,"lat":42.316071}},{"displayName":"Pau, FR","country":"FR","name":"Pau","_id":6440557,"coord":{"lon":-0.36667,"lat":43.299999}},{"displayName":"Pau, FR","country":"FR","name":"Pau","_id":2988358,"coord":{"lon":-0.36667,"lat":43.299999}},{"displayName":"Pau, ID","country":"ID","name":"Pau","_id":7089337,"coord":{"lon":121.299301,"lat":-8.8555}},{"displayName":"Pau, ID","country":"ID","name":"Pau","_id":7337172,"coord":{"lon":120.1931,"lat":-8.4402}},{"displayName":"Pau, IT","country":"IT","name":"Pau","_id":2523861,"coord":{"lon":8.80222,"lat":39.791672}},{"displayName":"Pau, PH","country":"PH","name":"Pau","_id":1694286,"coord":{"lon":120.716667,"lat":15.03333}},{"displayName":"Pauca, RO","country":"RO","name":"Pauca","_id":671243,"coord":{"lon":23.9,"lat":46.01667}},{"displayName":"Paudex, CH","country":"CH","name":"Paudex","_id":2659246,"coord":{"lon":6.66819,"lat":46.505482}},{"displayName":"Paudorf, AT","country":"AT","name":"Paudorf","_id":7872921,"coord":{"lon":15.61681,"lat":48.350891}},{"displayName":"Paudorf, AT","country":"AT","name":"Paudorf","_id":2769194,"coord":{"lon":15.61667,"lat":48.349998}},{"displayName":"Pauhambar, ID","country":"ID","name":"Pauhambar","_id":7102417,"coord":{"lon":100.212791,"lat":-0.65536}},{"displayName":"Pauillac, FR","country":"FR","name":"Pauillac","_id":6454013,"coord":{"lon":-0.75,"lat":45.200001}},{"displayName":"Pauillac, FR","country":"FR","name":"Pauillac","_id":2988350,"coord":{"lon":-0.74873,"lat":45.196442}},{"displayName":"Pauini, BR","country":"BR","name":"Pauini","_id":3662927,"coord":{"lon":-66.976387,"lat":-7.71361}},{"displayName":"Paujiles, HN","country":"HN","name":"Paujiles","_id":3603920,"coord":{"lon":-87.349998,"lat":15.1}},{"displayName":"Paukate, ID","country":"ID","name":"Paukate","_id":7566984,"coord":{"lon":120.854401,"lat":-8.8128}},{"displayName":"Paul, US","country":"US","name":"Paul","_id":4832924,"coord":{"lon":-95.896667,"lat":40.59528}},{"displayName":"Paul, US","country":"US","name":"Paul","_id":5603391,"coord":{"lon":-113.783348,"lat":42.60796}},{"displayName":"Paula Cândido, BR","country":"BR","name":"Paula Cândido","_id":3454703,"coord":{"lon":-42.980282,"lat":-20.87417}},{"displayName":"Paula Freitas, BR","country":"BR","name":"Paula Freitas","_id":3454701,"coord":{"lon":-50.938061,"lat":-26.20833}},{"displayName":"Paularino, US","country":"US","name":"Paularino","_id":5381574,"coord":{"lon":-117.87867,"lat":33.681412}},{"displayName":"Paularo, IT","country":"IT","name":"Paularo","_id":3171372,"coord":{"lon":13.11722,"lat":46.53278}},{"displayName":"Paulatuk, CA","country":"CA","name":"Paulatuk","_id":6099793,"coord":{"lon":-124.071373,"lat":69.350502}},{"displayName":"Paulba, PH","country":"PH","name":"Paulba","_id":1694267,"coord":{"lon":123.462517,"lat":13.17875}},{"displayName":"Paulba, PH","country":"PH","name":"Paulba","_id":1694863,"coord":{"lon":123.249603,"lat":13.7136}},{"displayName":"Paulden, US","country":"US","name":"Paulden","_id":5308281,"coord":{"lon":-112.468231,"lat":34.885578}},{"displayName":"Paulding, US","country":"US","name":"Paulding","_id":5166253,"coord":{"lon":-84.580513,"lat":41.138111}},{"displayName":"Pauleni-Ciuc, RO","country":"RO","name":"Pauleni-Ciuc","_id":671229,"coord":{"lon":25.83333,"lat":46.400002}},{"displayName":"Paulerspury, GB","country":"GB","name":"Paulerspury","_id":2640562,"coord":{"lon":-0.95023,"lat":52.102711}},{"displayName":"Paulesti, RO","country":"RO","name":"Paulesti","_id":671224,"coord":{"lon":22.91667,"lat":47.783329}},{"displayName":"Paulesti, RO","country":"RO","name":"Paulesti","_id":671228,"coord":{"lon":25.98333,"lat":45.0}},{"displayName":"Paulhac, FR","country":"FR","name":"Paulhac","_id":6615945,"coord":{"lon":2.9051,"lat":45.006302}},{"displayName":"Paulhac, FR","country":"FR","name":"Paulhac","_id":2988344,"coord":{"lon":2.9052,"lat":45.007149}},{"displayName":"Paulhac, FR","country":"FR","name":"Paulhac","_id":6431743,"coord":{"lon":1.5569,"lat":43.755299}},{"displayName":"Paulhac, FR","country":"FR","name":"Paulhac","_id":2988345,"coord":{"lon":1.55667,"lat":43.75639}},{"displayName":"Paulhaguet, FR","country":"FR","name":"Paulhaguet","_id":6434386,"coord":{"lon":3.53333,"lat":45.200001}},{"displayName":"Paulhaguet, FR","country":"FR","name":"Paulhaguet","_id":2988340,"coord":{"lon":3.51416,"lat":45.207821}},{"displayName":"Paulhan, FR","country":"FR","name":"Paulhan","_id":6432579,"coord":{"lon":3.45,"lat":43.533329}},{"displayName":"Paulhan, FR","country":"FR","name":"Paulhan","_id":2988339,"coord":{"lon":3.4576,"lat":43.53944}},{"displayName":"Paulhe, FR","country":"FR","name":"Paulhe","_id":6426985,"coord":{"lon":3.1,"lat":44.150002}},{"displayName":"Paulhe, FR","country":"FR","name":"Paulhe","_id":2988338,"coord":{"lon":3.10453,"lat":44.151661}},{"displayName":"Pauli Arbarei, IT","country":"IT","name":"Pauli Arbarei","_id":2523859,"coord":{"lon":8.92306,"lat":39.662781}},{"displayName":"Paulilatino, IT","country":"IT","name":"Paulilatino","_id":3171371,"coord":{"lon":8.76353,"lat":40.084049}},{"displayName":"Paulina, US","country":"US","name":"Paulina","_id":4336678,"coord":{"lon":-90.71315,"lat":30.02631}},{"displayName":"Paulinenaue, DE","country":"DE","name":"Paulinenaue","_id":6547598,"coord":{"lon":12.7167,"lat":52.6833}},{"displayName":"Paulinenaue, DE","country":"DE","name":"Paulinenaue","_id":2855215,"coord":{"lon":12.71067,"lat":52.67701}},{"displayName":"Paulinia, BR","country":"BR","name":"Paulinia","_id":3454690,"coord":{"lon":-47.154171,"lat":-22.76111}},{"displayName":"Paulis, RO","country":"RO","name":"Paulis","_id":671218,"coord":{"lon":21.58333,"lat":46.116669}},{"displayName":"Paulista Florida, BR","country":"BR","name":"Paulista Florida","_id":3463228,"coord":{"lon":-51.200001,"lat":-21.6}},{"displayName":"Paulista, BR","country":"BR","name":"Paulista","_id":3392740,"coord":{"lon":-34.873058,"lat":-7.94083}},{"displayName":"Paulista, BR","country":"BR","name":"Paulista","_id":3392742,"coord":{"lon":-37.624168,"lat":-6.59389}},{"displayName":"Paulistana, BR","country":"BR","name":"Paulistana","_id":3392738,"coord":{"lon":-41.149719,"lat":-8.14361}},{"displayName":"Paulistânia, BR","country":"BR","name":"Paulistânia","_id":3454681,"coord":{"lon":-49.402779,"lat":-22.578329}},{"displayName":"Paulkino, RU","country":"RU","name":"Paulkino","_id":7604746,"coord":{"lon":46.787102,"lat":56.416698}},{"displayName":"Paull, GB","country":"GB","name":"Paull","_id":2640561,"coord":{"lon":-0.23303,"lat":53.720081}},{"displayName":"Paullina, US","country":"US","name":"Paullina","_id":4870823,"coord":{"lon":-95.688072,"lat":42.979149}},{"displayName":"Paullo, IT","country":"IT","name":"Paullo","_id":3171370,"coord":{"lon":9.39765,"lat":45.418671}},{"displayName":"Paulo Afonso, BR","country":"BR","name":"Paulo Afonso","_id":3392734,"coord":{"lon":-38.214722,"lat":-9.40611}},{"displayName":"Paulo Bento, BR","country":"BR","name":"Paulo Bento","_id":3454675,"coord":{"lon":-52.421669,"lat":-27.701941}},{"displayName":"Paulo Frontin, BR","country":"BR","name":"Paulo Frontin","_id":3454671,"coord":{"lon":-50.835831,"lat":-26.039721}},{"displayName":"Paulo Jacinto, BR","country":"BR","name":"Paulo Jacinto","_id":3392732,"coord":{"lon":-36.36972,"lat":-9.36611}},{"displayName":"Paulo Lopes, BR","country":"BR","name":"Paulo Lopes","_id":3454669,"coord":{"lon":-48.683609,"lat":-27.96167}},{"displayName":"Paulo Ramos, BR","country":"BR","name":"Paulo Ramos","_id":3392731,"coord":{"lon":-45.183331,"lat":-4.21667}},{"displayName":"Pauls Valley, US","country":"US","name":"Pauls Valley","_id":4547690,"coord":{"lon":-97.222252,"lat":34.740082}},{"displayName":"Paulsboro, US","country":"US","name":"Paulsboro","_id":4503516,"coord":{"lon":-75.240463,"lat":39.830391}},{"displayName":"Paulsstadt, DE","country":"DE","name":"Paulsstadt","_id":7284168,"coord":{"lon":11.40372,"lat":53.632832}},{"displayName":"Paulstown, IE","country":"IE","name":"Paulstown","_id":2960949,"coord":{"lon":-7.02222,"lat":52.68111}},{"displayName":"Paulton, GB","country":"GB","name":"Paulton","_id":7296170,"coord":{"lon":-2.48606,"lat":51.304169}},{"displayName":"Paulton, GB","country":"GB","name":"Paulton","_id":2640559,"coord":{"lon":-2.50028,"lat":51.304722}},{"displayName":"Paulushofen, DE","country":"DE","name":"Paulushofen","_id":2855181,"coord":{"lon":11.50054,"lat":49.012878}},{"displayName":"Paulx, FR","country":"FR","name":"Paulx","_id":6434489,"coord":{"lon":-1.75,"lat":46.966671}},{"displayName":"Paulx, FR","country":"FR","name":"Paulx","_id":2988323,"coord":{"lon":-1.7552,"lat":46.961811}},{"displayName":"Paulínia, BR","country":"BR","name":"Paulínia","_id":6322448,"coord":{"lon":-47.140869,"lat":-22.739161}},{"displayName":"Pauna, CO","country":"CO","name":"Pauna","_id":3672698,"coord":{"lon":-73.982498,"lat":5.65861}},{"displayName":"Paunat, FR","country":"FR","name":"Paunat","_id":6429475,"coord":{"lon":0.86667,"lat":44.900002}},{"displayName":"Paunat, FR","country":"FR","name":"Paunat","_id":2988320,"coord":{"lon":0.85915,"lat":44.905392}},{"displayName":"Paundidhik Bajar, NP","country":"NP","name":"Paundidhik Bajar","_id":7967031,"coord":{"lon":84.429062,"lat":28.114571}},{"displayName":"Paunesti, RO","country":"RO","name":"Paunesti","_id":671209,"coord":{"lon":27.1,"lat":46.033329}},{"displayName":"Paungde, MM","country":"MM","name":"Paungde","_id":1300969,"coord":{"lon":95.5,"lat":18.48333}},{"displayName":"Pauni, IN","country":"IN","name":"Pauni","_id":1260022,"coord":{"lon":79.633331,"lat":20.783331}},{"displayName":"Paunsdorf, DE","country":"DE","name":"Paunsdorf","_id":2855178,"coord":{"lon":12.45,"lat":51.349998}},{"displayName":"Paunzhausen, DE","country":"DE","name":"Paunzhausen","_id":6556210,"coord":{"lon":11.5667,"lat":48.483299}},{"displayName":"Paunzhausen, DE","country":"DE","name":"Paunzhausen","_id":2855177,"coord":{"lon":11.56667,"lat":48.48333}},{"displayName":"Paupanda Bawah, ID","country":"ID","name":"Paupanda Bawah","_id":7338073,"coord":{"lon":121.643204,"lat":-8.8559}},{"displayName":"Paupisi, IT","country":"IT","name":"Paupisi","_id":3171369,"coord":{"lon":14.66524,"lat":41.19532}},{"displayName":"Pauri, IN","country":"IN","name":"Pauri","_id":1260016,"coord":{"lon":78.783333,"lat":30.15}},{"displayName":"Paus, PT","country":"PT","name":"Paus","_id":8013891,"coord":{"lon":-7.90478,"lat":41.06712}},{"displayName":"Pausa, DE","country":"DE","name":"Pausa","_id":2855175,"coord":{"lon":11.98333,"lat":50.583328}},{"displayName":"Pauscha, DE","country":"DE","name":"Pauscha","_id":2855174,"coord":{"lon":11.91667,"lat":51.083328}},{"displayName":"Pausdorf, DE","country":"DE","name":"Pausdorf","_id":2855170,"coord":{"lon":11.04195,"lat":50.010502}},{"displayName":"Pausesti, RO","country":"RO","name":"Pausesti","_id":671196,"coord":{"lon":24.133329,"lat":45.066669}},{"displayName":"Pausesti-Maglasi, RO","country":"RO","name":"Pausesti-Maglasi","_id":671200,"coord":{"lon":24.25,"lat":45.133331}},{"displayName":"Pausitz, DE","country":"DE","name":"Pausitz","_id":2855167,"coord":{"lon":13.3,"lat":51.283329}},{"displayName":"Pausmühle, DE","country":"DE","name":"Pausmühle","_id":2855165,"coord":{"lon":11.96076,"lat":47.985668}},{"displayName":"Paussac-et-Saint-Vivien, FR","country":"FR","name":"Paussac-et-Saint-Vivien","_id":6429476,"coord":{"lon":0.53333,"lat":45.349998}},{"displayName":"Paussac-et-Saint-Vivien, FR","country":"FR","name":"Paussac-et-Saint-Vivien","_id":2988319,"coord":{"lon":0.53829,"lat":45.346939}},{"displayName":"Pauwstraat, BE","country":"BE","name":"Pauwstraat","_id":2789244,"coord":{"lon":4.28333,"lat":51.216671}},{"displayName":"Pavagada, IN","country":"IN","name":"Pavagada","_id":1260014,"coord":{"lon":77.26667,"lat":14.1}},{"displayName":"Pavarolo, IT","country":"IT","name":"Pavarolo","_id":3171367,"coord":{"lon":7.83462,"lat":45.072552}},{"displayName":"Pavas, CR","country":"CR","name":"Pavas","_id":3622497,"coord":{"lon":-84.134537,"lat":9.94333}},{"displayName":"Paveh, IR","country":"IR","name":"Paveh","_id":121240,"coord":{"lon":46.356499,"lat":35.0434}},{"displayName":"Pavel Banya, BG","country":"BG","name":"Pavel Banya","_id":728389,"coord":{"lon":25.200001,"lat":42.599998}},{"displayName":"Pavelets, RU","country":"RU","name":"Pavelets","_id":512255,"coord":{"lon":39.24601,"lat":53.78833}},{"displayName":"Pavelsko, BG","country":"BG","name":"Pavelsko","_id":6461331,"coord":{"lon":24.700001,"lat":41.866669}},{"displayName":"Pavelsko, BG","country":"BG","name":"Pavelsko","_id":728387,"coord":{"lon":24.700001,"lat":41.866669}},{"displayName":"Pavia, IT","country":"IT","name":"Pavia","_id":6541854,"coord":{"lon":9.16145,"lat":45.18446}},{"displayName":"Pavia, IT","country":"IT","name":"Pavia","_id":3171366,"coord":{"lon":9.16145,"lat":45.18446}},{"displayName":"Pavia, PH","country":"PH","name":"Pavia","_id":1694262,"coord":{"lon":122.545563,"lat":10.77611}},{"displayName":"Pavias, ES","country":"ES","name":"Pavias","_id":2512848,"coord":{"lon":-0.48333,"lat":39.966671}},{"displayName":"Pavie, FR","country":"FR","name":"Pavie","_id":6432050,"coord":{"lon":0.6,"lat":43.616669}},{"displayName":"Pavie, FR","country":"FR","name":"Pavie","_id":2988309,"coord":{"lon":0.59143,"lat":43.609692}},{"displayName":"Pavilly, FR","country":"FR","name":"Pavilly","_id":6454699,"coord":{"lon":0.96667,"lat":49.566669}},{"displayName":"Pavilly, FR","country":"FR","name":"Pavilly","_id":2988305,"coord":{"lon":0.95445,"lat":49.567032}},{"displayName":"Pavilosta, LV","country":"LV","name":"Pavilosta","_id":456827,"coord":{"lon":21.18593,"lat":56.887909}},{"displayName":"Pavino, RU","country":"RU","name":"Pavino","_id":512247,"coord":{"lon":46.141418,"lat":59.113899}},{"displayName":"Pavino, RU","country":"RU","name":"Pavino","_id":1495483,"coord":{"lon":82.615997,"lat":55.0131}},{"displayName":"Pavlikeni, BG","country":"BG","name":"Pavlikeni","_id":728385,"coord":{"lon":25.321939,"lat":43.242779}},{"displayName":"Pavlikov, CZ","country":"CZ","name":"Pavlikov","_id":3068522,"coord":{"lon":13.73636,"lat":50.055988}},{"displayName":"Pavlikovo, RU","country":"RU","name":"Pavlikovo","_id":512231,"coord":{"lon":35.016666,"lat":62.599998}},{"displayName":"Pavlino, RU","country":"RU","name":"Pavlino","_id":6417688,"coord":{"lon":37.953609,"lat":55.723331}},{"displayName":"Pavlis, RS","country":"RS","name":"Pavlis","_id":787164,"coord":{"lon":21.240829,"lat":45.102779}},{"displayName":"Pavlivka, UA","country":"UA","name":"Pavlivka","_id":7021056,"coord":{"lon":33.77359,"lat":44.450031}},{"displayName":"Pavlivka, UA","country":"UA","name":"Pavlivka","_id":697839,"coord":{"lon":38.709171,"lat":49.608639}},{"displayName":"Pavlo-Fëdorovka, RU","country":"RU","name":"Pavlo-Fëdorovka","_id":2018090,"coord":{"lon":133.281937,"lat":45.134998}},{"displayName":"Pavlodar Oblysy, KZ","country":"KZ","name":"Pavlodar Oblysy","_id":1520239,"coord":{"lon":76.0,"lat":52.0}},{"displayName":"Pavlodar, KZ","country":"KZ","name":"Pavlodar","_id":1520240,"coord":{"lon":76.949997,"lat":52.299999}},{"displayName":"Pavlodolskaya, RU","country":"RU","name":"Pavlodolskaya","_id":512217,"coord":{"lon":44.478149,"lat":43.719219}},{"displayName":"Pavlogradka, RU","country":"RU","name":"Pavlogradka","_id":1495480,"coord":{"lon":73.559196,"lat":54.2024}},{"displayName":"Pavlohrad, UA","country":"UA","name":"Pavlohrad","_id":697889,"coord":{"lon":35.866669,"lat":48.51667}},{"displayName":"Pavlovka, RU","country":"RU","name":"Pavlovka","_id":512109,"coord":{"lon":56.55426,"lat":55.42094}},{"displayName":"Pavlovka, RU","country":"RU","name":"Pavlovka","_id":512133,"coord":{"lon":46.766312,"lat":53.59568}},{"displayName":"Pavlovka, RU","country":"RU","name":"Pavlovka","_id":512152,"coord":{"lon":47.140461,"lat":52.689659}},{"displayName":"Pavlovka, RU","country":"RU","name":"Pavlovka","_id":512193,"coord":{"lon":37.391109,"lat":44.837776}},{"displayName":"Pavlovka, UA","country":"UA","name":"Pavlovka","_id":697859,"coord":{"lon":35.349998,"lat":48.233334}},{"displayName":"Pavlovka, UA","country":"UA","name":"Pavlovka","_id":697841,"coord":{"lon":28.45956,"lat":49.441429}},{"displayName":"Pavlovo, RU","country":"RU","name":"Pavlovo","_id":512063,"coord":{"lon":30.896669,"lat":59.808609}},{"displayName":"Pavlovo, RU","country":"RU","name":"Pavlovo","_id":827329,"coord":{"lon":43.091202,"lat":55.968601}},{"displayName":"Pavlovsk, RU","country":"RU","name":"Pavlovsk","_id":512052,"coord":{"lon":30.434719,"lat":59.683331}},{"displayName":"Pavlovsk, RU","country":"RU","name":"Pavlovsk","_id":1495448,"coord":{"lon":82.982224,"lat":53.318611}},{"displayName":"Pavlovsk, RU","country":"RU","name":"Pavlovsk","_id":512053,"coord":{"lon":40.108059,"lat":50.457779}},{"displayName":"Pavlovskaya Sloboda, RU","country":"RU","name":"Pavlovskaya Sloboda","_id":512039,"coord":{"lon":37.082779,"lat":55.815556}},{"displayName":"Pavlovskaya, RU","country":"RU","name":"Pavlovskaya","_id":512047,"coord":{"lon":30.133329,"lat":59.566669}},{"displayName":"Pavlovskaya, RU","country":"RU","name":"Pavlovskaya","_id":512051,"coord":{"lon":39.785557,"lat":46.132778}},{"displayName":"Pavlovskiy Posad, RU","country":"RU","name":"Pavlovskiy Posad","_id":512023,"coord":{"lon":38.650555,"lat":55.784721}},{"displayName":"Pavlovskiy, RU","country":"RU","name":"Pavlovskiy","_id":512027,"coord":{"lon":54.843571,"lat":57.8424}},{"displayName":"Pavlovskoye, RU","country":"RU","name":"Pavlovskoye","_id":512049,"coord":{"lon":37.720833,"lat":55.487221}},{"displayName":"Pavlovskoye, RU","country":"RU","name":"Pavlovskoye","_id":512008,"coord":{"lon":40.466667,"lat":56.316666}},{"displayName":"Pavlovskoye, RU","country":"RU","name":"Pavlovskoye","_id":512013,"coord":{"lon":40.450001,"lat":54.766666}},{"displayName":"Pavlovskoye-Luzhetskoye, RU","country":"RU","name":"Pavlovskoye-Luzhetskoye","_id":511997,"coord":{"lon":36.950001,"lat":55.866669}},{"displayName":"Pavlu Cebel, TR","country":"TR","name":"Pavlu Cebel","_id":300030,"coord":{"lon":30.94776,"lat":37.50058}},{"displayName":"Pavlysh, UA","country":"UA","name":"Pavlysh","_id":697817,"coord":{"lon":33.356911,"lat":48.917622}},{"displayName":"Pavone Canavese, IT","country":"IT","name":"Pavone Canavese","_id":3171358,"coord":{"lon":7.85172,"lat":45.437561}},{"displayName":"Pavone del Mella, IT","country":"IT","name":"Pavone del Mella","_id":3171356,"coord":{"lon":10.20907,"lat":45.30378}},{"displayName":"Pavshino, RU","country":"RU","name":"Pavshino","_id":511980,"coord":{"lon":37.350555,"lat":55.812222}},{"displayName":"Pavullo nel Frignano, IT","country":"IT","name":"Pavullo nel Frignano","_id":6536728,"coord":{"lon":10.835,"lat":44.331459}},{"displayName":"Pavullo nel Frignano, IT","country":"IT","name":"Pavullo nel Frignano","_id":3171355,"coord":{"lon":10.835,"lat":44.331459}},{"displayName":"Pavuluru, IN","country":"IN","name":"Pavuluru","_id":7303913,"coord":{"lon":80.16468,"lat":15.85292}},{"displayName":"Pavão, BR","country":"BR","name":"Pavão","_id":3454646,"coord":{"lon":-40.99889,"lat":-17.42778}},{"displayName":"Pavão-Pavaozinho, BR","country":"BR","name":"Pavão-Pavaozinho","_id":7538533,"coord":{"lon":-43.196621,"lat":-22.980141}},{"displayName":"Pavías, ES","country":"ES","name":"Pavías","_id":6357038,"coord":{"lon":-0.47466,"lat":39.970501}},{"displayName":"Pavón Arriba, AR","country":"AR","name":"Pavón Arriba","_id":3841744,"coord":{"lon":-60.823681,"lat":-33.311211}},{"displayName":"Pavón, AR","country":"AR","name":"Pavón","_id":3841748,"coord":{"lon":-60.40517,"lat":-33.241718}},{"displayName":"Paw Paw Lake, US","country":"US","name":"Paw Paw Lake","_id":5005128,"coord":{"lon":-86.271973,"lat":42.212261}},{"displayName":"Paw Paw, US","country":"US","name":"Paw Paw","_id":5005126,"coord":{"lon":-85.891121,"lat":42.217819}},{"displayName":"Pawa, PH","country":"PH","name":"Pawa","_id":1694252,"coord":{"lon":123.73278,"lat":13.17472}},{"displayName":"Pawa, PH","country":"PH","name":"Pawa","_id":1694253,"coord":{"lon":123.891502,"lat":13.1335}},{"displayName":"Pawa, PH","country":"PH","name":"Pawa","_id":1694258,"coord":{"lon":122.81736,"lat":11.56285}},{"displayName":"Pawai, IN","country":"IN","name":"Pawai","_id":1260009,"coord":{"lon":80.166672,"lat":24.26667}},{"displayName":"Pawak, PH","country":"PH","name":"Pawak","_id":1694250,"coord":{"lon":124.25647,"lat":8.01634}},{"displayName":"Pawayan, IN","country":"IN","name":"Pawayan","_id":1260003,"coord":{"lon":80.099998,"lat":28.066669}},{"displayName":"Pawcatuck, US","country":"US","name":"Pawcatuck","_id":4840426,"coord":{"lon":-71.833679,"lat":41.377319}},{"displayName":"Pawesin, DE","country":"DE","name":"Pawesin","_id":2855151,"coord":{"lon":12.71667,"lat":52.51667}},{"displayName":"Pawhuska, US","country":"US","name":"Pawhuska","_id":4547675,"coord":{"lon":-96.337227,"lat":36.667839}},{"displayName":"Pawican, PH","country":"PH","name":"Pawican","_id":1694241,"coord":{"lon":123.970596,"lat":12.0741}},{"displayName":"Pawili, PH","country":"PH","name":"Pawili","_id":1694236,"coord":{"lon":123.283333,"lat":13.51667}},{"displayName":"Pawing, PH","country":"PH","name":"Pawing","_id":1694234,"coord":{"lon":125.002777,"lat":11.18}},{"displayName":"Pawitan, ID","country":"ID","name":"Pawitan","_id":7916440,"coord":{"lon":107.997101,"lat":-7.3653}},{"displayName":"Pawitra, ID","country":"ID","name":"Pawitra","_id":7911665,"coord":{"lon":107.870598,"lat":-7.3959}},{"displayName":"Pawleena, AU","country":"AU","name":"Pawleena","_id":2153666,"coord":{"lon":147.600006,"lat":-42.73333}},{"displayName":"Pawlikowice, PL","country":"PL","name":"Pawlikowice","_id":762556,"coord":{"lon":20.054859,"lat":49.953098}},{"displayName":"Pawling, US","country":"US","name":"Pawling","_id":5130719,"coord":{"lon":-73.602631,"lat":41.562038}},{"displayName":"Pawlosiow, PL","country":"PL","name":"Pawlosiow","_id":762551,"coord":{"lon":22.647631,"lat":49.995331}},{"displayName":"Pawlow, PL","country":"PL","name":"Pawlow","_id":762548,"coord":{"lon":21.120621,"lat":50.962158}},{"displayName":"Pawlowice, PL","country":"PL","name":"Pawlowice","_id":3089340,"coord":{"lon":18.717779,"lat":49.961269}},{"displayName":"Pawlowiczki, PL","country":"PL","name":"Pawlowiczki","_id":3089332,"coord":{"lon":18.048651,"lat":50.246601}},{"displayName":"Pawnee City, US","country":"US","name":"Pawnee City","_id":5074889,"coord":{"lon":-96.154449,"lat":40.10833}},{"displayName":"Pawnee County, US","country":"US","name":"Pawnee County","_id":5074895,"coord":{"lon":-96.23362,"lat":40.133331}},{"displayName":"Pawnee, US","country":"US","name":"Pawnee","_id":4246757,"coord":{"lon":-89.580368,"lat":39.591721}},{"displayName":"Pawnee, US","country":"US","name":"Pawnee","_id":4547684,"coord":{"lon":-96.803917,"lat":36.33783}},{"displayName":"Pawonkow, PL","country":"PL","name":"Pawonkow","_id":3089316,"coord":{"lon":18.58149,"lat":50.694988}},{"displayName":"Pawtucket, US","country":"US","name":"Pawtucket","_id":5223869,"coord":{"lon":-71.382561,"lat":41.878712}},{"displayName":"Pawłosiów, PL","country":"PL","name":"Pawłosiów","_id":7532224,"coord":{"lon":22.624599,"lat":50.006401}},{"displayName":"Paxico, US","country":"US","name":"Paxico","_id":4277071,"coord":{"lon":-96.166382,"lat":39.069439}},{"displayName":"Paxson, US","country":"US","name":"Paxson","_id":5871330,"coord":{"lon":-145.613068,"lat":63.089722}},{"displayName":"Paxtakor, UZ","country":"UZ","name":"Paxtakor","_id":1513038,"coord":{"lon":67.954437,"lat":40.315281}},{"displayName":"Paxtang, US","country":"US","name":"Paxtang","_id":5205249,"coord":{"lon":-76.831917,"lat":40.25898}},{"displayName":"Paxton Springs, US","country":"US","name":"Paxton Springs","_id":5483605,"coord":{"lon":-108.066727,"lat":35.039211}},{"displayName":"Paxton, AU","country":"AU","name":"Paxton","_id":2153662,"coord":{"lon":151.266663,"lat":-32.916672}},{"displayName":"Paxton, US","country":"US","name":"Paxton","_id":4905509,"coord":{"lon":-88.095322,"lat":40.460312}},{"displayName":"Paxton, US","country":"US","name":"Paxton","_id":4946853,"coord":{"lon":-71.928131,"lat":42.311199}},{"displayName":"Paxtonia, US","country":"US","name":"Paxtonia","_id":5205267,"coord":{"lon":-76.794418,"lat":40.31731}},{"displayName":"Paya, DO","country":"DO","name":"Paya","_id":3495159,"coord":{"lon":-70.300003,"lat":18.25}},{"displayName":"Payabon, PH","country":"PH","name":"Payabon","_id":1725029,"coord":{"lon":123.141197,"lat":9.759}},{"displayName":"Payakumbuh, ID","country":"ID","name":"Payakumbuh","_id":1631905,"coord":{"lon":100.630783,"lat":-0.22019}},{"displayName":"Payaman, ID","country":"ID","name":"Payaman","_id":7038152,"coord":{"lon":114.249702,"lat":-8.3561}},{"displayName":"Payaman, ID","country":"ID","name":"Payaman","_id":8080484,"coord":{"lon":112.352798,"lat":-6.9169}},{"displayName":"Payan, CO","country":"CO","name":"Payan","_id":3672665,"coord":{"lon":-78.205002,"lat":1.935}},{"displayName":"Payang, ID","country":"ID","name":"Payang","_id":8058399,"coord":{"lon":111.059799,"lat":-6.7284}},{"displayName":"Payangan Tengah, ID","country":"ID","name":"Payangan Tengah","_id":7038938,"coord":{"lon":115.167297,"lat":-8.4361}},{"displayName":"Payao, PH","country":"PH","name":"Payao","_id":1694209,"coord":{"lon":122.949997,"lat":10.18333}},{"displayName":"Payao, PH","country":"PH","name":"Payao","_id":1694210,"coord":{"lon":122.80278,"lat":7.58667}},{"displayName":"Payapa, PH","country":"PH","name":"Payapa","_id":1694199,"coord":{"lon":120.892059,"lat":13.99804}},{"displayName":"Payerbach, AT","country":"AT","name":"Payerbach","_id":7872993,"coord":{"lon":15.86768,"lat":47.683979}},{"displayName":"Payerbach, AT","country":"AT","name":"Payerbach","_id":2769182,"coord":{"lon":15.8634,"lat":47.692089}},{"displayName":"Payerne, CH","country":"CH","name":"Payerne","_id":7286775,"coord":{"lon":6.93476,"lat":46.819141}},{"displayName":"Payerne, CH","country":"CH","name":"Payerne","_id":2659243,"coord":{"lon":6.93608,"lat":46.82201}},{"displayName":"Payette, US","country":"US","name":"Payette","_id":5603393,"coord":{"lon":-116.933769,"lat":44.07822}},{"displayName":"Payhembury, GB","country":"GB","name":"Payhembury","_id":2640551,"coord":{"lon":-3.29518,"lat":50.80674}},{"displayName":"Payment, US","country":"US","name":"Payment","_id":5005136,"coord":{"lon":-84.140297,"lat":46.5303}},{"displayName":"Paymogo, ES","country":"ES","name":"Paymogo","_id":6358233,"coord":{"lon":-7.32388,"lat":37.73988}},{"displayName":"Paymogo, ES","country":"ES","name":"Paymogo","_id":2512846,"coord":{"lon":-7.34499,"lat":37.73999}},{"displayName":"Payne County, US","country":"US","name":"Payne County","_id":4547701,"coord":{"lon":-96.96698,"lat":36.066719}},{"displayName":"Payne, US","country":"US","name":"Payne","_id":5166334,"coord":{"lon":-84.72718,"lat":41.077549}},{"displayName":"Paynesville, AU","country":"AU","name":"Paynesville","_id":2153657,"coord":{"lon":147.716675,"lat":-37.916672}},{"displayName":"Paynesville, US","country":"US","name":"Paynesville","_id":5040936,"coord":{"lon":-94.711952,"lat":45.38052}},{"displayName":"Paynjuwayn, IQ","country":"IQ","name":"Paynjuwayn","_id":98012,"coord":{"lon":45.954102,"lat":35.618301}},{"displayName":"Payns, FR","country":"FR","name":"Payns","_id":6426505,"coord":{"lon":3.96667,"lat":48.383331}},{"displayName":"Payns, FR","country":"FR","name":"Payns","_id":2988301,"coord":{"lon":3.97755,"lat":48.382549}},{"displayName":"Paynton, CA","country":"CA","name":"Paynton","_id":6100007,"coord":{"lon":-108.934731,"lat":53.016861}},{"displayName":"Payo de Ojeda, ES","country":"ES","name":"Payo de Ojeda","_id":6360076,"coord":{"lon":-4.50104,"lat":42.731819}},{"displayName":"Payo de Ojeda, ES","country":"ES","name":"Payo de Ojeda","_id":3114179,"coord":{"lon":-4.47752,"lat":42.71859}},{"displayName":"Payocpoc Sur, PH","country":"PH","name":"Payocpoc Sur","_id":1694167,"coord":{"lon":120.328056,"lat":16.49444}},{"displayName":"Paypay, PH","country":"PH","name":"Paypay","_id":1694158,"coord":{"lon":123.976196,"lat":11.2152}},{"displayName":"Payrac, FR","country":"FR","name":"Payrac","_id":6434852,"coord":{"lon":1.46667,"lat":44.799999}},{"displayName":"Payrac, FR","country":"FR","name":"Payrac","_id":2988299,"coord":{"lon":1.47214,"lat":44.796509}},{"displayName":"Payrin-Augmontel, FR","country":"FR","name":"Payrin-Augmontel","_id":6444910,"coord":{"lon":2.36667,"lat":43.51667}},{"displayName":"Payrin-Augmontel, FR","country":"FR","name":"Payrin-Augmontel","_id":2988292,"coord":{"lon":2.35406,"lat":43.544498}},{"displayName":"Paysandu, UY","country":"UY","name":"Paysandu","_id":3441243,"coord":{"lon":-58.075562,"lat":-32.321388}},{"displayName":"Payshanba, UZ","country":"UZ","name":"Payshanba","_id":1513011,"coord":{"lon":66.236938,"lat":40.007778}},{"displayName":"Payson, US","country":"US","name":"Payson","_id":5308305,"coord":{"lon":-111.325142,"lat":34.230869}},{"displayName":"Payson, US","country":"US","name":"Payson","_id":5779548,"coord":{"lon":-111.732147,"lat":40.044399}},{"displayName":"Payson, US","country":"US","name":"Payson","_id":4246765,"coord":{"lon":-91.242371,"lat":39.81699}},{"displayName":"Payueta, ES","country":"ES","name":"Payueta","_id":3114178,"coord":{"lon":-2.72701,"lat":42.65176}},{"displayName":"Payuhan, PH","country":"PH","name":"Payuhan","_id":1957958,"coord":{"lon":120.901108,"lat":5.94167}},{"displayName":"Payunga, ID","country":"ID","name":"Payunga","_id":1631875,"coord":{"lon":122.951897,"lat":0.5632}},{"displayName":"Payungsari, ID","country":"ID","name":"Payungsari","_id":8028888,"coord":{"lon":108.2397,"lat":-7.1207}},{"displayName":"Payyannur, IN","country":"IN","name":"Payyannur","_id":1259994,"coord":{"lon":75.199997,"lat":12.1}},{"displayName":"Payzac, FR","country":"FR","name":"Payzac","_id":6616174,"coord":{"lon":1.2185,"lat":45.401402}},{"displayName":"Payzac, FR","country":"FR","name":"Payzac","_id":2988284,"coord":{"lon":1.21667,"lat":45.400002}},{"displayName":"Paz de Río, CO","country":"CO","name":"Paz de Río","_id":3672651,"coord":{"lon":-72.750504,"lat":5.98452}},{"displayName":"Pazar, TR","country":"TR","name":"Pazar","_id":740675,"coord":{"lon":40.884171,"lat":41.179169}},{"displayName":"Pazar, TR","country":"TR","name":"Pazar","_id":740677,"coord":{"lon":36.28347,"lat":40.27652}},{"displayName":"Pazarcik, TR","country":"TR","name":"Pazarcik","_id":302800,"coord":{"lon":37.29961,"lat":37.486851}},{"displayName":"Pazardzhik, BG","country":"BG","name":"Pazardzhik","_id":728378,"coord":{"lon":24.33333,"lat":42.200001}},{"displayName":"Pazaric, BA","country":"BA","name":"Pazaric","_id":3193563,"coord":{"lon":18.16083,"lat":43.788609}},{"displayName":"Pazarlar, TR","country":"TR","name":"Pazarlar","_id":302787,"coord":{"lon":29.12583,"lat":38.994999}},{"displayName":"Pazaryeri, TR","country":"TR","name":"Pazaryeri","_id":302781,"coord":{"lon":29.90424,"lat":39.99395}},{"displayName":"Pazaryolu, TR","country":"TR","name":"Pazaryolu","_id":740659,"coord":{"lon":40.771042,"lat":40.42083}},{"displayName":"Pazayac, FR","country":"FR","name":"Pazayac","_id":6429477,"coord":{"lon":1.36667,"lat":45.116669}},{"displayName":"Pazayac, FR","country":"FR","name":"Pazayac","_id":2988280,"coord":{"lon":1.37944,"lat":45.121731}},{"displayName":"Pazderna, CZ","country":"CZ","name":"Pazderna","_id":3068498,"coord":{"lon":16.99231,"lat":49.282539}},{"displayName":"Pazin, HR","country":"HR","name":"Pazin","_id":3193561,"coord":{"lon":13.93667,"lat":45.24028}},{"displayName":"Pazmand, HU","country":"HU","name":"Pazmand","_id":3046537,"coord":{"lon":18.653561,"lat":47.287552}},{"displayName":"Pazos de Borben, ES","country":"ES","name":"Pazos de Borben","_id":3114160,"coord":{"lon":-8.53333,"lat":42.283329}},{"displayName":"Pazuengos, ES","country":"ES","name":"Pazuengos","_id":6359100,"coord":{"lon":-2.93046,"lat":42.30349}},{"displayName":"Pazuengos, ES","country":"ES","name":"Pazuengos","_id":3114158,"coord":{"lon":-2.92539,"lat":42.31776}},{"displayName":"Pazzano, IT","country":"IT","name":"Pazzano","_id":2523857,"coord":{"lon":16.45261,"lat":38.475182}},{"displayName":"Paço de Arcos, PT","country":"PT","name":"Paço de Arcos","_id":8014496,"coord":{"lon":-9.29268,"lat":38.701469}},{"displayName":"Paço de Sousa, PT","country":"PT","name":"Paço de Sousa","_id":8014625,"coord":{"lon":-8.3504,"lat":41.162689}},{"displayName":"Paço do Lumiar, PT","country":"PT","name":"Paço do Lumiar","_id":2265324,"coord":{"lon":-9.17274,"lat":38.77301}},{"displayName":"Paço Vedro de Magalhães, PT","country":"PT","name":"Paço Vedro de Magalhães","_id":8014422,"coord":{"lon":-8.40426,"lat":41.79591}},{"displayName":"Paço Vedro de Magalhães, PT","country":"PT","name":"Paço Vedro de Magalhães","_id":2736881,"coord":{"lon":-8.40365,"lat":41.79467}},{"displayName":"Paço, PT","country":"PT","name":"Paço","_id":2736911,"coord":{"lon":-8.5335,"lat":41.168751}},{"displayName":"Paço, PT","country":"PT","name":"Paço","_id":2736910,"coord":{"lon":-8.58333,"lat":41.200001}},{"displayName":"Paço, PT","country":"PT","name":"Paço","_id":2736906,"coord":{"lon":-8.70974,"lat":41.668449}},{"displayName":"Paço, PT","country":"PT","name":"Paço","_id":2736907,"coord":{"lon":-8.61667,"lat":41.566669}},{"displayName":"Paçoinhos, PT","country":"PT","name":"Paçoinhos","_id":2736894,"coord":{"lon":-7.69471,"lat":40.49929}},{"displayName":"Paços de Ferreira, PT","country":"PT","name":"Paços de Ferreira","_id":8010585,"coord":{"lon":-8.37584,"lat":41.289639}},{"displayName":"Paços de Gaiolo, PT","country":"PT","name":"Paços de Gaiolo","_id":8014432,"coord":{"lon":-8.11767,"lat":41.103859}},{"displayName":"Paços de Vilharigues, PT","country":"PT","name":"Paços de Vilharigues","_id":8014380,"coord":{"lon":-8.1328,"lat":40.712132}},{"displayName":"Paços, PT","country":"PT","name":"Paços","_id":8013670,"coord":{"lon":-7.60505,"lat":41.23983}},{"displayName":"Paços, PT","country":"PT","name":"Paços","_id":2265320,"coord":{"lon":-8.98183,"lat":39.108688}},{"displayName":"Paços, PT","country":"PT","name":"Paços","_id":2736891,"coord":{"lon":-8.66667,"lat":41.166672}},{"displayName":"Paços, PT","country":"PT","name":"Paços","_id":2736893,"coord":{"lon":-8.136,"lat":40.7043}},{"displayName":"Paçô Vieira, PT","country":"PT","name":"Paçô Vieira","_id":2736879,"coord":{"lon":-8.24948,"lat":41.440651}},{"displayName":"Paīwand, AF","country":"AF","name":"Paīwand","_id":1130704,"coord":{"lon":68.503326,"lat":34.227219}},{"displayName":"Pchelishhe, BG","country":"BG","name":"Pchelishhe","_id":6460822,"coord":{"lon":25.716669,"lat":43.033329}},{"displayName":"Pchelishte, BG","country":"BG","name":"Pchelishte","_id":728361,"coord":{"lon":25.716669,"lat":43.033329}},{"displayName":"Pchery, CZ","country":"CZ","name":"Pchery","_id":3068494,"coord":{"lon":14.11782,"lat":50.193779}},{"displayName":"Pcholyne, UA","country":"UA","name":"Pcholyne","_id":697811,"coord":{"lon":34.549999,"lat":44.933334}},{"displayName":"Pchëlka, RU","country":"RU","name":"Pchëlka","_id":511891,"coord":{"lon":37.533333,"lat":56.150002}},{"displayName":"Pcim, PL","country":"PL","name":"Pcim","_id":3089310,"coord":{"lon":19.971081,"lat":49.751659}},{"displayName":"Pea Ridge, US","country":"US","name":"Pea Ridge","_id":4125668,"coord":{"lon":-91.336792,"lat":33.920658}},{"displayName":"Pea Ridge, US","country":"US","name":"Pea Ridge","_id":4125681,"coord":{"lon":-94.115196,"lat":36.45396}},{"displayName":"Pea Ridge, US","country":"US","name":"Pea Ridge","_id":4817825,"coord":{"lon":-82.31987,"lat":38.413971}},{"displayName":"Peabiru, BR","country":"BR","name":"Peabiru","_id":3454632,"coord":{"lon":-52.34306,"lat":-23.912781}},{"displayName":"Peabody Farm Two, LR","country":"LR","name":"Peabody Farm Two","_id":2597314,"coord":{"lon":-10.35583,"lat":6.22861}},{"displayName":"Peabody, US","country":"US","name":"Peabody","_id":4946863,"coord":{"lon":-70.928658,"lat":42.52787}},{"displayName":"Peabody, US","country":"US","name":"Peabody","_id":4277079,"coord":{"lon":-97.106697,"lat":38.16946}},{"displayName":"Peace River, CA","country":"CA","name":"Peace River","_id":6100069,"coord":{"lon":-117.285988,"lat":56.250099}},{"displayName":"Peaceful Valley, US","country":"US","name":"Peaceful Valley","_id":7176028,"coord":{"lon":-122.147339,"lat":48.938148}},{"displayName":"Peacehaven, GB","country":"GB","name":"Peacehaven","_id":8128721,"coord":{"lon":-0.00652,"lat":50.792702}},{"displayName":"Peach (historical), US","country":"US","name":"Peach (historical)","_id":4125694,"coord":{"lon":-91.52375,"lat":36.477009}},{"displayName":"Peach County, US","country":"US","name":"Peach County","_id":4215089,"coord":{"lon":-83.833237,"lat":32.566811}},{"displayName":"Peach Lake, US","country":"US","name":"Peach Lake","_id":5130748,"coord":{"lon":-73.577904,"lat":41.367592}},{"displayName":"Peach Springs, US","country":"US","name":"Peach Springs","_id":5308335,"coord":{"lon":-113.425491,"lat":35.52916}},{"displayName":"Peachester, AU","country":"AU","name":"Peachester","_id":2153650,"coord":{"lon":152.883331,"lat":-26.85}},{"displayName":"Peachland, CA","country":"CA","name":"Peachland","_id":6100086,"coord":{"lon":-119.73568,"lat":49.766472}},{"displayName":"Peachtree City, US","country":"US","name":"Peachtree City","_id":4215110,"coord":{"lon":-84.595757,"lat":33.396778}},{"displayName":"Peak Crossing, AU","country":"AU","name":"Peak Crossing","_id":2153639,"coord":{"lon":152.716675,"lat":-27.783331}},{"displayName":"Peak Hill, AU","country":"AU","name":"Peak Hill","_id":2153633,"coord":{"lon":148.183334,"lat":-32.73333}},{"displayName":"Peake, AU","country":"AU","name":"Peake","_id":2063722,"coord":{"lon":139.949997,"lat":-35.366669}},{"displayName":"Peakes, CA","country":"CA","name":"Peakes","_id":6100123,"coord":{"lon":-62.78196,"lat":46.30011}},{"displayName":"Peakhurst, AU","country":"AU","name":"Peakhurst","_id":2206007,"coord":{"lon":151.050003,"lat":-33.966671}},{"displayName":"Peakirk, GB","country":"GB","name":"Peakirk","_id":2640545,"coord":{"lon":-0.27294,"lat":52.645672}},{"displayName":"Peal de Becerro, ES","country":"ES","name":"Peal de Becerro","_id":2512844,"coord":{"lon":-3.12148,"lat":37.91338}},{"displayName":"Peal de Becerro, ES","country":"ES","name":"Peal de Becerro","_id":6358516,"coord":{"lon":-3.08409,"lat":37.87711}},{"displayName":"Peapack, US","country":"US","name":"Peapack","_id":5102515,"coord":{"lon":-74.656548,"lat":40.71677}},{"displayName":"Pearce, AU","country":"AU","name":"Pearce","_id":2063705,"coord":{"lon":116.01667,"lat":-31.66667}},{"displayName":"Pearcedale, AU","country":"AU","name":"Pearcedale","_id":2153623,"coord":{"lon":145.25,"lat":-38.200001}},{"displayName":"Pearisburg, US","country":"US","name":"Pearisburg","_id":4778312,"coord":{"lon":-80.735069,"lat":37.326511}},{"displayName":"Pearl Beach, AU","country":"AU","name":"Pearl Beach","_id":2153618,"coord":{"lon":151.300003,"lat":-33.549999}},{"displayName":"Pearl Beach, US","country":"US","name":"Pearl Beach","_id":5005178,"coord":{"lon":-82.597687,"lat":42.626701}},{"displayName":"Pearl City, US","country":"US","name":"Pearl City","_id":5852275,"coord":{"lon":-157.973328,"lat":21.397221}},{"displayName":"Pearl River County, US","country":"US","name":"Pearl River County","_id":4440578,"coord":{"lon":-89.641449,"lat":30.642691}},{"displayName":"Pearl River, US","country":"US","name":"Pearl River","_id":5130780,"coord":{"lon":-74.021812,"lat":41.05899}},{"displayName":"Pearl River, US","country":"US","name":"Pearl River","_id":4336717,"coord":{"lon":-89.748398,"lat":30.37603}},{"displayName":"Pearl River, US","country":"US","name":"Pearl River","_id":4440572,"coord":{"lon":-89.227837,"lat":32.78347}},{"displayName":"Pearl, US","country":"US","name":"Pearl","_id":4440559,"coord":{"lon":-90.132027,"lat":32.27459}},{"displayName":"Pearland, US","country":"US","name":"Pearland","_id":4718097,"coord":{"lon":-95.286049,"lat":29.56357}},{"displayName":"Pearlington, US","country":"US","name":"Pearlington","_id":4440602,"coord":{"lon":-89.611168,"lat":30.24658}},{"displayName":"Pearsall, US","country":"US","name":"Pearsall","_id":4718107,"coord":{"lon":-99.095032,"lat":28.892191}},{"displayName":"Pearson, US","country":"US","name":"Pearson","_id":4215163,"coord":{"lon":-82.852371,"lat":31.297701}},{"displayName":"Peasedown Saint John, GB","country":"GB","name":"Peasedown Saint John","_id":3345396,"coord":{"lon":-2.42417,"lat":51.316669}},{"displayName":"Peats Ridge, AU","country":"AU","name":"Peats Ridge","_id":2153596,"coord":{"lon":151.233337,"lat":-33.316669}},{"displayName":"Peaugres, FR","country":"FR","name":"Peaugres","_id":6425754,"coord":{"lon":4.73333,"lat":45.283329}},{"displayName":"Peaugres, FR","country":"FR","name":"Peaugres","_id":2988269,"coord":{"lon":4.7291,"lat":45.287701}},{"displayName":"Peaule, FR","country":"FR","name":"Peaule","_id":2988268,"coord":{"lon":-2.35601,"lat":47.57972}},{"displayName":"Pebble Creek, US","country":"US","name":"Pebble Creek","_id":4168062,"coord":{"lon":-82.34565,"lat":28.14835}},{"displayName":"Pebozero, RU","country":"RU","name":"Pebozero","_id":511877,"coord":{"lon":33.650002,"lat":64.816666}},{"displayName":"Pecan Acres, US","country":"US","name":"Pecan Acres","_id":4718153,"coord":{"lon":-97.474739,"lat":32.970131}},{"displayName":"Pecan Grove, US","country":"US","name":"Pecan Grove","_id":4718209,"coord":{"lon":-95.731621,"lat":29.62607}},{"displayName":"Pecan Park, US","country":"US","name":"Pecan Park","_id":4336756,"coord":{"lon":-93.684341,"lat":32.491821}},{"displayName":"Pecan Plantation, US","country":"US","name":"Pecan Plantation","_id":4718236,"coord":{"lon":-97.675583,"lat":32.36042}},{"displayName":"Pecan Wells, US","country":"US","name":"Pecan Wells","_id":4718267,"coord":{"lon":-98.371429,"lat":31.57655}},{"displayName":"Pecangaan, ID","country":"ID","name":"Pecangaan","_id":1631851,"coord":{"lon":110.710701,"lat":-6.6978}},{"displayName":"Pecanha, BR","country":"BR","name":"Pecanha","_id":3454628,"coord":{"lon":-42.556938,"lat":-18.548611}},{"displayName":"Pecaren, ID","country":"ID","name":"Pecaren","_id":7375331,"coord":{"lon":111.300201,"lat":-7.007}},{"displayName":"Pecatonica, US","country":"US","name":"Pecatonica","_id":4905572,"coord":{"lon":-89.359283,"lat":42.313911}},{"displayName":"Peccia, IT","country":"IT","name":"Peccia","_id":3171353,"coord":{"lon":7.9,"lat":45.799999}},{"displayName":"Peccioli, IT","country":"IT","name":"Peccioli","_id":3171352,"coord":{"lon":10.72001,"lat":43.549541}},{"displayName":"Pecco, IT","country":"IT","name":"Pecco","_id":6535410,"coord":{"lon":7.77742,"lat":45.452061}},{"displayName":"Pecel, HU","country":"HU","name":"Pecel","_id":3046531,"coord":{"lon":19.341619,"lat":47.48962}},{"displayName":"Pecene, PT","country":"PT","name":"Pecene","_id":2736585,"coord":{"lon":-8.62718,"lat":41.92696}},{"displayName":"Peceneaga, RO","country":"RO","name":"Peceneaga","_id":671191,"coord":{"lon":28.133329,"lat":45.01667}},{"displayName":"Pecenongan, ID","country":"ID","name":"Pecenongan","_id":1631845,"coord":{"lon":106.828003,"lat":-6.1649}},{"displayName":"Pecetto di Valenza, IT","country":"IT","name":"Pecetto di Valenza","_id":3171350,"coord":{"lon":8.67094,"lat":44.989761}},{"displayName":"Pecetto, IT","country":"IT","name":"Pecetto","_id":3171351,"coord":{"lon":7.75022,"lat":45.020748}},{"displayName":"Pech, DE","country":"DE","name":"Pech","_id":2855148,"coord":{"lon":7.11667,"lat":50.650002}},{"displayName":"Pechabou, FR","country":"FR","name":"Pechabou","_id":2988259,"coord":{"lon":1.50934,"lat":43.502411}},{"displayName":"Pechbonnieu, FR","country":"FR","name":"Pechbonnieu","_id":6431746,"coord":{"lon":1.46667,"lat":43.700001}},{"displayName":"Pechbonnieu, FR","country":"FR","name":"Pechbonnieu","_id":2988251,"coord":{"lon":1.46538,"lat":43.702419}},{"displayName":"Pechboutier, FR","country":"FR","name":"Pechboutier","_id":7293304,"coord":{"lon":1.04125,"lat":44.901569}},{"displayName":"Pechbrunn, DE","country":"DE","name":"Pechbrunn","_id":6556723,"coord":{"lon":12.1667,"lat":49.966702}},{"displayName":"Pechbrunn, DE","country":"DE","name":"Pechbrunn","_id":2855145,"coord":{"lon":12.16667,"lat":49.966671}},{"displayName":"Pechea, RO","country":"RO","name":"Pechea","_id":671187,"coord":{"lon":27.799999,"lat":45.633331}},{"displayName":"Pecheigen, DE","country":"DE","name":"Pecheigen","_id":2855144,"coord":{"lon":13.01667,"lat":48.349998}},{"displayName":"Pechenga, RU","country":"RU","name":"Pechenga","_id":511865,"coord":{"lon":31.170271,"lat":69.525871}},{"displayName":"Pechenga, RU","country":"RU","name":"Pechenga","_id":511866,"coord":{"lon":41.458858,"lat":58.886189}},{"displayName":"Pechenizhyn, UA","country":"UA","name":"Pechenizhyn","_id":697802,"coord":{"lon":24.89423,"lat":48.515511}},{"displayName":"Pechenov Ugol, RU","country":"RU","name":"Pechenov Ugol","_id":511847,"coord":{"lon":44.983334,"lat":48.700001}},{"displayName":"Pecherniki, RU","country":"RU","name":"Pecherniki","_id":511843,"coord":{"lon":39.229721,"lat":54.659168}},{"displayName":"Pechey, AU","country":"AU","name":"Pechey","_id":2153588,"coord":{"lon":152.050003,"lat":-27.299999}},{"displayName":"Pechi, BY","country":"BY","name":"Pechi","_id":793277,"coord":{"lon":28.466667,"lat":54.183334}},{"displayName":"Pechina, ES","country":"ES","name":"Pechina","_id":6355586,"coord":{"lon":-2.39951,"lat":36.950062}},{"displayName":"Pechina, ES","country":"ES","name":"Pechina","_id":2512842,"coord":{"lon":-2.43689,"lat":36.916191}},{"displayName":"Pechora, RU","country":"RU","name":"Pechora","_id":511794,"coord":{"lon":57.224388,"lat":65.147163}},{"displayName":"Pechory, RU","country":"RU","name":"Pechory","_id":511785,"coord":{"lon":27.6119,"lat":57.816422}},{"displayName":"Pechpialat, FR","country":"FR","name":"Pechpialat","_id":2988243,"coord":{"lon":1.28231,"lat":44.75782}},{"displayName":"Pechseifen, DE","country":"DE","name":"Pechseifen","_id":2855121,"coord":{"lon":12.46667,"lat":50.433331}},{"displayName":"Pechão, PT","country":"PT","name":"Pechão","_id":8012019,"coord":{"lon":-7.86888,"lat":37.039532}},{"displayName":"Pechënkino, RU","country":"RU","name":"Pechënkino","_id":511851,"coord":{"lon":35.246113,"lat":54.055}},{"displayName":"Pechón, ES","country":"ES","name":"Pechón","_id":3114151,"coord":{"lon":-4.49009,"lat":43.389839}},{"displayName":"Peci, BA","country":"BA","name":"Peci","_id":3193545,"coord":{"lon":16.78611,"lat":44.62722}},{"displayName":"Pecica, RO","country":"RO","name":"Pecica","_id":668552,"coord":{"lon":21.066669,"lat":46.166672}},{"displayName":"Pecigrad, BA","country":"BA","name":"Pecigrad","_id":3193542,"coord":{"lon":15.89694,"lat":45.05444}},{"displayName":"Pecinan, ID","country":"ID","name":"Pecinan","_id":8056378,"coord":{"lon":111.055,"lat":-6.5316}},{"displayName":"Pecinci, RS","country":"RS","name":"Pecinci","_id":3193540,"coord":{"lon":19.966391,"lat":44.90889}},{"displayName":"Pecineaga, RO","country":"RO","name":"Pecineaga","_id":671184,"coord":{"lon":28.5,"lat":43.900002}},{"displayName":"Peciu Nou, RO","country":"RO","name":"Peciu Nou","_id":671182,"coord":{"lon":21.057779,"lat":45.606392}},{"displayName":"Peck, US","country":"US","name":"Peck","_id":4520994,"coord":{"lon":-83.016289,"lat":39.156181}},{"displayName":"Pecka, CZ","country":"CZ","name":"Pecka","_id":3068478,"coord":{"lon":15.60822,"lat":50.480339}},{"displayName":"Peckelsheim, DE","country":"DE","name":"Peckelsheim","_id":2855107,"coord":{"lon":9.13333,"lat":51.599998}},{"displayName":"Peckfitz, DE","country":"DE","name":"Peckfitz","_id":6549708,"coord":{"lon":11.1667,"lat":52.5}},{"displayName":"Peckfitz, DE","country":"DE","name":"Peckfitz","_id":2855104,"coord":{"lon":11.17996,"lat":52.50922}},{"displayName":"Pecks Pond, US","country":"US","name":"Pecks Pond","_id":5205310,"coord":{"lon":-75.092117,"lat":41.28315}},{"displayName":"Pecky, CZ","country":"CZ","name":"Pecky","_id":3068476,"coord":{"lon":15.03017,"lat":50.090431}},{"displayName":"Pecna, PL","country":"PL","name":"Pecna","_id":3089301,"coord":{"lon":16.799999,"lat":52.183331}},{"displayName":"Pecorara, IT","country":"IT","name":"Pecorara","_id":3171347,"coord":{"lon":9.38387,"lat":44.87582}},{"displayName":"Pecoro, ID","country":"ID","name":"Pecoro","_id":8190981,"coord":{"lon":113.591103,"lat":-8.2089}},{"displayName":"Pecos County, US","country":"US","name":"Pecos County","_id":5528185,"coord":{"lon":-102.750992,"lat":30.75071}},{"displayName":"Pecos, US","country":"US","name":"Pecos","_id":5483680,"coord":{"lon":-105.675018,"lat":35.5742}},{"displayName":"Pecos, US","country":"US","name":"Pecos","_id":5528182,"coord":{"lon":-103.493233,"lat":31.422911}},{"displayName":"Pecq, BE","country":"BE","name":"Pecq","_id":2789237,"coord":{"lon":3.35672,"lat":50.68504}},{"displayName":"Pecq, BE","country":"BE","name":"Pecq","_id":2789236,"coord":{"lon":3.33789,"lat":50.686192}},{"displayName":"Pecquencourt, FR","country":"FR","name":"Pecquencourt","_id":6438405,"coord":{"lon":3.21667,"lat":50.383331}},{"displayName":"Pecquencourt, FR","country":"FR","name":"Pecquencourt","_id":2988236,"coord":{"lon":3.21277,"lat":50.378502}},{"displayName":"Pecs, HU","country":"HU","name":"Pecs","_id":3046526,"coord":{"lon":18.23333,"lat":46.083328}},{"displayName":"Pecsvarad, HU","country":"HU","name":"Pecsvarad","_id":3046505,"coord":{"lon":18.42321,"lat":46.160332}},{"displayName":"Peculiar, US","country":"US","name":"Peculiar","_id":4402809,"coord":{"lon":-94.458557,"lat":38.719181}},{"displayName":"Peczniew, PL","country":"PL","name":"Peczniew","_id":3089298,"coord":{"lon":18.72311,"lat":51.803841}},{"displayName":"Pedace, IT","country":"IT","name":"Pedace","_id":2523853,"coord":{"lon":16.336399,"lat":39.27639}},{"displayName":"Pedak, ID","country":"ID","name":"Pedak","_id":7567694,"coord":{"lon":120.6931,"lat":-8.671}},{"displayName":"Pedana, IN","country":"IN","name":"Pedana","_id":1259986,"coord":{"lon":81.166672,"lat":16.26667}},{"displayName":"Pedara, IT","country":"IT","name":"Pedara","_id":6541770,"coord":{"lon":15.05669,"lat":37.616852}},{"displayName":"Pedara, IT","country":"IT","name":"Pedara","_id":2523850,"coord":{"lon":15.05669,"lat":37.616852}},{"displayName":"Pedasi, PA","country":"PA","name":"Pedasi","_id":3703239,"coord":{"lon":-80.033333,"lat":7.53333}},{"displayName":"Pedaso, IT","country":"IT","name":"Pedaso","_id":3171339,"coord":{"lon":13.84079,"lat":43.099159}},{"displayName":"Pedavena, IT","country":"IT","name":"Pedavena","_id":3171338,"coord":{"lon":11.8831,"lat":46.039509}},{"displayName":"pedda nakkalapalem, IN","country":"IN","name":"pedda nakkalapalem","_id":7303915,"coord":{"lon":80.162018,"lat":15.8668}},{"displayName":"Peddapalli, IN","country":"IN","name":"Peddapalli","_id":1259961,"coord":{"lon":79.366669,"lat":18.616671}},{"displayName":"Peddapuram, IN","country":"IN","name":"Peddapuram","_id":1259954,"coord":{"lon":82.133331,"lat":17.08333}},{"displayName":"Pedemonte, IT","country":"IT","name":"Pedemonte","_id":6534608,"coord":{"lon":11.30859,"lat":45.908401}},{"displayName":"Pedernales, AR","country":"AR","name":"Pedernales","_id":3430067,"coord":{"lon":-59.648998,"lat":-35.227711}},{"displayName":"Pedernales, DO","country":"DO","name":"Pedernales","_id":3495137,"coord":{"lon":-71.744034,"lat":18.03838}},{"displayName":"Pedernales, EC","country":"EC","name":"Pedernales","_id":3653307,"coord":{"lon":-80.050003,"lat":0.08333}},{"displayName":"Pedernales, MX","country":"MX","name":"Pedernales","_id":3993155,"coord":{"lon":-101.466667,"lat":19.133329}},{"displayName":"Pedernales, VE","country":"VE","name":"Pedernales","_id":3630490,"coord":{"lon":-62.251511,"lat":9.97152}},{"displayName":"Pedernec, FR","country":"FR","name":"Pedernec","_id":2988229,"coord":{"lon":-3.26948,"lat":48.596821}},{"displayName":"Pederneira, PT","country":"PT","name":"Pederneira","_id":2265067,"coord":{"lon":-9.06297,"lat":39.598782}},{"displayName":"Pederneiras, BR","country":"BR","name":"Pederneiras","_id":3454620,"coord":{"lon":-48.775002,"lat":-22.351669}},{"displayName":"Pedernoso (El), ES","country":"ES","name":"Pedernoso (El)","_id":6357494,"coord":{"lon":-2.77266,"lat":39.478821}},{"displayName":"Pederobba, IT","country":"IT","name":"Pederobba","_id":3171336,"coord":{"lon":11.9523,"lat":45.876308}},{"displayName":"Pedersoere, FI","country":"FI","name":"Pedersoere","_id":642455,"coord":{"lon":22.683331,"lat":63.650002}},{"displayName":"Pederstrup, DK","country":"DK","name":"Pederstrup","_id":2615199,"coord":{"lon":10.48753,"lat":55.285309}},{"displayName":"Pedersöre, FI","country":"FI","name":"Pedersöre","_id":642456,"coord":{"lon":22.75,"lat":63.583328}},{"displayName":"Pedesina, IT","country":"IT","name":"Pedesina","_id":3171335,"coord":{"lon":9.54944,"lat":46.08189}},{"displayName":"Pedini, GR","country":"GR","name":"Pedini","_id":255646,"coord":{"lon":20.84333,"lat":39.59972}},{"displayName":"Pedinon, GR","country":"GR","name":"Pedinon","_id":734731,"coord":{"lon":22.866671,"lat":40.90889}},{"displayName":"Pediti, ID","country":"ID","name":"Pediti","_id":7339725,"coord":{"lon":116.329803,"lat":-8.5878}},