[{"displayName":"Torella deLombardi, IT","country":"IT","name":"Torella deLombardi","_id":3165530,"coord":{"lon":15.11505,"lat":40.93972}},{"displayName":"Torello, ES","country":"ES","name":"Torello","_id":3107941,"coord":{"lon":2.26679,"lat":42.046268}},{"displayName":"Torembi, PG","country":"PG","name":"Torembi","_id":2085203,"coord":{"lon":143.127914,"lat":-4.02941}},{"displayName":"Toreno, ES","country":"ES","name":"Toreno","_id":6358704,"coord":{"lon":-6.49501,"lat":42.716801}},{"displayName":"Toreno, ES","country":"ES","name":"Toreno","_id":3107940,"coord":{"lon":-6.51236,"lat":42.699551}},{"displayName":"Torez, UA","country":"UA","name":"Torez","_id":691374,"coord":{"lon":38.596851,"lat":48.038761}},{"displayName":"Torfopredpriyatiye, RU","country":"RU","name":"Torfopredpriyatiye","_id":6417879,"coord":{"lon":37.853889,"lat":55.889442}},{"displayName":"Torfou, FR","country":"FR","name":"Torfou","_id":6614196,"coord":{"lon":-1.11667,"lat":47.033329}},{"displayName":"Torfou, FR","country":"FR","name":"Torfou","_id":2972430,"coord":{"lon":-1.11635,"lat":47.036819}},{"displayName":"Torfyanoy, RU","country":"RU","name":"Torfyanoy","_id":482096,"coord":{"lon":49.197861,"lat":58.4916}},{"displayName":"Torfyanoy, RU","country":"RU","name":"Torfyanoy","_id":6652465,"coord":{"lon":35.920361,"lat":56.188881}},{"displayName":"Torfyanoye, RU","country":"RU","name":"Torfyanoye","_id":873882,"coord":{"lon":30.320557,"lat":60.077499}},{"displayName":"Torganovo, RU","country":"RU","name":"Torganovo","_id":6313383,"coord":{"lon":48.013889,"lat":56.0425}},{"displayName":"Torgau, DE","country":"DE","name":"Torgau","_id":2821807,"coord":{"lon":13.0,"lat":51.566669}},{"displayName":"Torgelow, DE","country":"DE","name":"Torgelow","_id":2821802,"coord":{"lon":14.01667,"lat":53.633331}},{"displayName":"Torgelow-Hollanderei, DE","country":"DE","name":"Torgelow-Hollanderei","_id":2821799,"coord":{"lon":14.03333,"lat":53.666672}},{"displayName":"Torgelow-Holländerei, DE","country":"DE","name":"Torgelow-Holländerei","_id":6548480,"coord":{"lon":14.0333,"lat":53.666698}},{"displayName":"Torghay, KZ","country":"KZ","name":"Torghay","_id":1518062,"coord":{"lon":63.498058,"lat":49.633888}},{"displayName":"Torgiano, IT","country":"IT","name":"Torgiano","_id":3165527,"coord":{"lon":12.44136,"lat":43.028542}},{"displayName":"Torgnon, IT","country":"IT","name":"Torgnon","_id":3165526,"coord":{"lon":7.5698,"lat":45.80616}},{"displayName":"Torhout, BE","country":"BE","name":"Torhout","_id":2785365,"coord":{"lon":3.09841,"lat":51.06065}},{"displayName":"Torhout, BE","country":"BE","name":"Torhout","_id":2785364,"coord":{"lon":3.10085,"lat":51.065601}},{"displayName":"Tori Fatehpur, IN","country":"IN","name":"Tori Fatehpur","_id":1254222,"coord":{"lon":79.133331,"lat":25.450001}},{"displayName":"Toribio, CO","country":"CO","name":"Toribio","_id":3666887,"coord":{"lon":-76.268387,"lat":2.95481}},{"displayName":"Toride, JP","country":"JP","name":"Toride","_id":2110729,"coord":{"lon":140.083328,"lat":35.900002}},{"displayName":"Torigni-sur-Vire, FR","country":"FR","name":"Torigni-sur-Vire","_id":6435682,"coord":{"lon":-0.98333,"lat":49.033329}},{"displayName":"Torigni-sur-Vire, FR","country":"FR","name":"Torigni-sur-Vire","_id":2972427,"coord":{"lon":-0.98214,"lat":49.037022}},{"displayName":"Toriimatsu, JP","country":"JP","name":"Toriimatsu","_id":1849977,"coord":{"lon":136.966675,"lat":35.23333}},{"displayName":"Torija, ES","country":"ES","name":"Torija","_id":6358040,"coord":{"lon":-3.0462,"lat":40.750961}},{"displayName":"Torija, ES","country":"ES","name":"Torija","_id":3107932,"coord":{"lon":-3.0283,"lat":40.7425}},{"displayName":"Toril, ES","country":"ES","name":"Toril","_id":6356877,"coord":{"lon":-5.88424,"lat":39.875469}},{"displayName":"Toril, ES","country":"ES","name":"Toril","_id":2510370,"coord":{"lon":-5.7795,"lat":39.897491}},{"displayName":"Torino di Sangro, IT","country":"IT","name":"Torino di Sangro","_id":3165522,"coord":{"lon":14.54082,"lat":42.188141}},{"displayName":"Torino, IT","country":"IT","name":"Torino","_id":3165525,"coord":{"lon":7.66667,"lat":45.049999}},{"displayName":"Torino, IT","country":"IT","name":"Torino","_id":3165524,"coord":{"lon":7.68682,"lat":45.070492}},{"displayName":"Torit, SS","country":"SS","name":"Torit","_id":365742,"coord":{"lon":32.56778,"lat":4.41333}},{"displayName":"Toritama, BR","country":"BR","name":"Toritama","_id":3386264,"coord":{"lon":-36.056671,"lat":-8.00667}},{"displayName":"Toritori, PH","country":"PH","name":"Toritori","_id":1681404,"coord":{"lon":119.987,"lat":16.240499}},{"displayName":"Toritto, IT","country":"IT","name":"Toritto","_id":3165513,"coord":{"lon":16.679779,"lat":40.99823}},{"displayName":"Torkelstorp, SE","country":"SE","name":"Torkelstorp","_id":2668195,"coord":{"lon":12.11131,"lat":57.438938}},{"displayName":"Torla, ES","country":"ES","name":"Torla","_id":3107923,"coord":{"lon":-0.11209,"lat":42.628021}},{"displayName":"Torlakshofn, IS","country":"IS","name":"Torlakshofn","_id":3412589,"coord":{"lon":-21.378441,"lat":63.860931}},{"displayName":"Torlengua, ES","country":"ES","name":"Torlengua","_id":6361213,"coord":{"lon":-2.13468,"lat":41.460522}},{"displayName":"Torlengua, ES","country":"ES","name":"Torlengua","_id":3107922,"coord":{"lon":-2.16183,"lat":41.45483}},{"displayName":"Torlino Vimercati, IT","country":"IT","name":"Torlino Vimercati","_id":3165512,"coord":{"lon":9.59476,"lat":45.417469}},{"displayName":"Torma vald, EE","country":"EE","name":"Torma vald","_id":7522395,"coord":{"lon":26.683241,"lat":58.8596}},{"displayName":"Torma, EE","country":"EE","name":"Torma","_id":588209,"coord":{"lon":26.738331,"lat":58.812778}},{"displayName":"Tormac, RO","country":"RO","name":"Tormac","_id":664716,"coord":{"lon":21.49361,"lat":45.520828}},{"displayName":"Tormantos, ES","country":"ES","name":"Tormantos","_id":6359134,"coord":{"lon":-3.06639,"lat":42.500721}},{"displayName":"Tormantos, ES","country":"ES","name":"Tormantos","_id":3107919,"coord":{"lon":-3.07446,"lat":42.494308}},{"displayName":"Tormay, AF","country":"AF","name":"Tormay","_id":1122068,"coord":{"lon":68.401672,"lat":33.687222}},{"displayName":"Tormellas, ES","country":"ES","name":"Tormellas","_id":6355841,"coord":{"lon":-5.50742,"lat":40.313068}},{"displayName":"Tormellas, ES","country":"ES","name":"Tormellas","_id":3107916,"coord":{"lon":-5.51185,"lat":40.304039}},{"displayName":"Tormestorp, SE","country":"SE","name":"Tormestorp","_id":2668180,"coord":{"lon":13.73333,"lat":56.116669}},{"displayName":"Tormon, ES","country":"ES","name":"Tormon","_id":3107912,"coord":{"lon":-1.35406,"lat":40.20266}},{"displayName":"Tormos, ES","country":"ES","name":"Tormos","_id":6355504,"coord":{"lon":-0.06262,"lat":38.80537}},{"displayName":"Tormos, ES","country":"ES","name":"Tormos","_id":2510364,"coord":{"lon":-0.0716,"lat":38.80143}},{"displayName":"Tormón, ES","country":"ES","name":"Tormón","_id":6361618,"coord":{"lon":-1.33575,"lat":40.212219}},{"displayName":"Torna, DE","country":"DE","name":"Torna","_id":2821791,"coord":{"lon":13.78098,"lat":51.008141}},{"displayName":"Torna, DE","country":"DE","name":"Torna","_id":2821790,"coord":{"lon":12.2,"lat":51.083328}},{"displayName":"Tornabe, HN","country":"HN","name":"Tornabe","_id":3600662,"coord":{"lon":-87.550003,"lat":15.75}},{"displayName":"Tornabous, ES","country":"ES","name":"Tornabous","_id":6358953,"coord":{"lon":1.05984,"lat":41.71748}},{"displayName":"Tornabous, ES","country":"ES","name":"Tornabous","_id":3107908,"coord":{"lon":1.05384,"lat":41.701172}},{"displayName":"Tornaco, IT","country":"IT","name":"Tornaco","_id":3165507,"coord":{"lon":8.71594,"lat":45.357559}},{"displayName":"Tornada, PT","country":"PT","name":"Tornada","_id":8012347,"coord":{"lon":-9.14338,"lat":39.45863}},{"displayName":"Tornada, PT","country":"PT","name":"Tornada","_id":2262633,"coord":{"lon":-9.12668,"lat":39.445278}},{"displayName":"Tornadizos de Arévalo, ES","country":"ES","name":"Tornadizos de Arévalo","_id":3107904,"coord":{"lon":-4.76124,"lat":41.079189}},{"displayName":"Tornadizos de Avila, ES","country":"ES","name":"Tornadizos de Avila","_id":3107903,"coord":{"lon":-4.61426,"lat":40.627571}},{"displayName":"Tornadizos de Ávila, ES","country":"ES","name":"Tornadizos de Ávila","_id":6355842,"coord":{"lon":-4.61782,"lat":40.612949}},{"displayName":"Tornareccio, IT","country":"IT","name":"Tornareccio","_id":3165504,"coord":{"lon":14.41612,"lat":42.038139}},{"displayName":"Tornata, IT","country":"IT","name":"Tornata","_id":3165502,"coord":{"lon":10.43078,"lat":45.10437}},{"displayName":"Tornau, DE","country":"DE","name":"Tornau","_id":2821788,"coord":{"lon":12.15,"lat":51.183331}},{"displayName":"Tornau, DE","country":"DE","name":"Tornau","_id":6548971,"coord":{"lon":12.6,"lat":51.633301}},{"displayName":"Tornau, DE","country":"DE","name":"Tornau","_id":2821786,"coord":{"lon":12.6,"lat":51.633331}},{"displayName":"Tornavacas, ES","country":"ES","name":"Tornavacas","_id":6356878,"coord":{"lon":-5.67972,"lat":40.24202}},{"displayName":"Tornavacas, ES","country":"ES","name":"Tornavacas","_id":3107902,"coord":{"lon":-5.68876,"lat":40.254978}},{"displayName":"Torneiros, ES","country":"ES","name":"Torneiros","_id":3107900,"coord":{"lon":-7.7815,"lat":42.15036}},{"displayName":"Tornesch, DE","country":"DE","name":"Tornesch","_id":6551709,"coord":{"lon":9.731,"lat":53.703949}},{"displayName":"Tornesch, DE","country":"DE","name":"Tornesch","_id":2821779,"coord":{"lon":9.71667,"lat":53.700001}},{"displayName":"Tornillo, US","country":"US","name":"Tornillo","_id":5532423,"coord":{"lon":-106.08831,"lat":31.4454}},{"displayName":"Tornio, FI","country":"FI","name":"Tornio","_id":634096,"coord":{"lon":24.133329,"lat":65.849998}},{"displayName":"Tornio, FI","country":"FI","name":"Tornio","_id":634093,"coord":{"lon":24.14662,"lat":65.848106}},{"displayName":"Tornitz, DE","country":"DE","name":"Tornitz","_id":2821777,"coord":{"lon":11.85,"lat":51.933331}},{"displayName":"Tornjoš, RS","country":"RS","name":"Tornjoš","_id":3188955,"coord":{"lon":19.831671,"lat":45.87833}},{"displayName":"Torno, DE","country":"DE","name":"Torno","_id":2821776,"coord":{"lon":14.1,"lat":51.433331}},{"displayName":"Torno, IT","country":"IT","name":"Torno","_id":3165498,"coord":{"lon":9.11584,"lat":45.854881}},{"displayName":"Tornolo, IT","country":"IT","name":"Tornolo","_id":3165496,"coord":{"lon":9.62527,"lat":44.485249}},{"displayName":"Tornos, ES","country":"ES","name":"Tornos","_id":6361619,"coord":{"lon":-1.41173,"lat":40.950211}},{"displayName":"Tornos, ES","country":"ES","name":"Tornos","_id":3107888,"coord":{"lon":-1.43389,"lat":40.96188}},{"displayName":"Tornquist, AR","country":"AR","name":"Tornquist","_id":3834184,"coord":{"lon":-62.222672,"lat":-38.101219}},{"displayName":"Tornyospalca, HU","country":"HU","name":"Tornyospalca","_id":714593,"coord":{"lon":22.183331,"lat":48.26667}},{"displayName":"Toro Canyon, US","country":"US","name":"Toro Canyon","_id":5403000,"coord":{"lon":-119.56707,"lat":34.419998}},{"displayName":"Toro, CO","country":"CO","name":"Toro","_id":3666881,"coord":{"lon":-76.08139,"lat":4.61167}},{"displayName":"Toro, ES","country":"ES","name":"Toro","_id":6362642,"coord":{"lon":-5.44277,"lat":41.475578}},{"displayName":"Toro, ES","country":"ES","name":"Toro","_id":3107886,"coord":{"lon":-5.39534,"lat":41.524181}},{"displayName":"Toro, IT","country":"IT","name":"Toro","_id":3165495,"coord":{"lon":14.76493,"lat":41.57243}},{"displayName":"Torokszentmiklos, HU","country":"HU","name":"Torokszentmiklos","_id":714581,"coord":{"lon":20.41667,"lat":47.183331}},{"displayName":"Toroloji, ID","country":"ID","name":"Toroloji","_id":7570014,"coord":{"lon":120.169296,"lat":-8.3582}},{"displayName":"Torondoy, VE","country":"VE","name":"Torondoy","_id":3626094,"coord":{"lon":-71.014061,"lat":9.03115}},{"displayName":"Toronto, CA","country":"CA","name":"Toronto","_id":6167865,"coord":{"lon":-79.416298,"lat":43.700111}},{"displayName":"Toronto, US","country":"US","name":"Toronto","_id":5174095,"coord":{"lon":-80.600906,"lat":40.46423}},{"displayName":"Toropets, RU","country":"RU","name":"Toropets","_id":482042,"coord":{"lon":31.635281,"lat":56.497791}},{"displayName":"Toropi, BR","country":"BR","name":"Toropi","_id":3446313,"coord":{"lon":-54.228062,"lat":-29.478331}},{"displayName":"Tororo District, UG","country":"UG","name":"Tororo District","_id":443366,"coord":{"lon":34.083328,"lat":0.75}},{"displayName":"Tororo, UG","country":"UG","name":"Tororo","_id":226110,"coord":{"lon":34.180851,"lat":0.69299}},{"displayName":"Toros, BG","country":"BG","name":"Toros","_id":6459385,"coord":{"lon":24.283331,"lat":43.099998}},{"displayName":"Toros, BG","country":"BG","name":"Toros","_id":729704,"coord":{"lon":24.283331,"lat":43.099998}},{"displayName":"Torp, NO","country":"NO","name":"Torp","_id":3134259,"coord":{"lon":11.03333,"lat":59.25}},{"displayName":"Torp, NO","country":"NO","name":"Torp","_id":3134260,"coord":{"lon":10.2425,"lat":59.179722}},{"displayName":"Torpe, IT","country":"IT","name":"Torpe","_id":3165492,"coord":{"lon":9.67734,"lat":40.627972}},{"displayName":"Torphins, GB","country":"GB","name":"Torphins","_id":2635652,"coord":{"lon":-2.62398,"lat":57.10561}},{"displayName":"Torpoint, GB","country":"GB","name":"Torpoint","_id":2635651,"coord":{"lon":-4.19566,"lat":50.37505}},{"displayName":"Torquay, AU","country":"AU","name":"Torquay","_id":2146218,"coord":{"lon":144.316666,"lat":-38.333328}},{"displayName":"Torquay, AU","country":"AU","name":"Torquay","_id":2146219,"coord":{"lon":152.866669,"lat":-25.283331}},{"displayName":"Torquay, CA","country":"CA","name":"Torquay","_id":6167888,"coord":{"lon":-103.500961,"lat":49.15007}},{"displayName":"Torquay, GB","country":"GB","name":"Torquay","_id":2635650,"coord":{"lon":-3.51434,"lat":50.46384}},{"displayName":"Torquemada, ES","country":"ES","name":"Torquemada","_id":6360121,"coord":{"lon":-4.29204,"lat":42.03558}},{"displayName":"Torquemada, ES","country":"ES","name":"Torquemada","_id":3107878,"coord":{"lon":-4.3184,"lat":42.034901}},{"displayName":"Torraca, IT","country":"IT","name":"Torraca","_id":3165490,"coord":{"lon":15.63637,"lat":40.111599}},{"displayName":"Torralba de Aragon, ES","country":"ES","name":"Torralba de Aragon","_id":3107874,"coord":{"lon":-0.51053,"lat":41.934872}},{"displayName":"Torralba de Aragón, ES","country":"ES","name":"Torralba de Aragón","_id":6358428,"coord":{"lon":-0.52542,"lat":41.918919}},{"displayName":"Torralba de Calatrava, ES","country":"ES","name":"Torralba de Calatrava","_id":2510349,"coord":{"lon":-3.75105,"lat":39.017849}},{"displayName":"Torralba de los Frailes, ES","country":"ES","name":"Torralba de los Frailes","_id":6362942,"coord":{"lon":-1.66465,"lat":41.026009}},{"displayName":"Torralba de los Frailes, ES","country":"ES","name":"Torralba de los Frailes","_id":3107870,"coord":{"lon":-1.66046,"lat":41.036221}},{"displayName":"Torralba de los Sisones, ES","country":"ES","name":"Torralba de los Sisones","_id":6361620,"coord":{"lon":-1.43782,"lat":40.892052}},{"displayName":"Torralba de los Sisones, ES","country":"ES","name":"Torralba de los Sisones","_id":3107869,"coord":{"lon":-1.45866,"lat":40.890839}},{"displayName":"Torralba de Oropesa, ES","country":"ES","name":"Torralba de Oropesa","_id":6361829,"coord":{"lon":-5.12604,"lat":39.948002}},{"displayName":"Torralba de Oropesa, ES","country":"ES","name":"Torralba de Oropesa","_id":2510347,"coord":{"lon":-5.15404,"lat":39.933842}},{"displayName":"Torralba de Ribota, ES","country":"ES","name":"Torralba de Ribota","_id":6362943,"coord":{"lon":-1.67608,"lat":41.420921}},{"displayName":"Torralba de Ribota, ES","country":"ES","name":"Torralba de Ribota","_id":3107868,"coord":{"lon":-1.68429,"lat":41.41803}},{"displayName":"Torralba del Burgo, ES","country":"ES","name":"Torralba del Burgo","_id":3107872,"coord":{"lon":-2.9262,"lat":41.637562}},{"displayName":"Torralba del Pinar, ES","country":"ES","name":"Torralba del Pinar","_id":6357066,"coord":{"lon":-0.45164,"lat":39.99791}},{"displayName":"Torralba del Pinar, ES","country":"ES","name":"Torralba del Pinar","_id":2510348,"coord":{"lon":-0.43333,"lat":39.98333}},{"displayName":"Torralba, ES","country":"ES","name":"Torralba","_id":6357537,"coord":{"lon":-2.29165,"lat":40.302811}},{"displayName":"Torralba, ES","country":"ES","name":"Torralba","_id":3107876,"coord":{"lon":-2.28546,"lat":40.302528}},{"displayName":"Torralba, IT","country":"IT","name":"Torralba","_id":3165488,"coord":{"lon":8.76532,"lat":40.512959}},{"displayName":"Torralbilla, ES","country":"ES","name":"Torralbilla","_id":6362944,"coord":{"lon":-1.333,"lat":41.23003}},{"displayName":"Torralbilla, ES","country":"ES","name":"Torralbilla","_id":3107867,"coord":{"lon":-1.338,"lat":41.210091}},{"displayName":"Torrance County, US","country":"US","name":"Torrance County","_id":5494881,"coord":{"lon":-105.81723,"lat":34.6334}},{"displayName":"Torrance, CA","country":"CA","name":"Torrance","_id":6167890,"coord":{"lon":-79.566338,"lat":45.000099}},{"displayName":"Torrance, US","country":"US","name":"Torrance","_id":5403022,"coord":{"lon":-118.34063,"lat":33.83585}},{"displayName":"Torrazza Coste, IT","country":"IT","name":"Torrazza Coste","_id":3165485,"coord":{"lon":9.08355,"lat":44.976959}},{"displayName":"Torrazza Piemonte, IT","country":"IT","name":"Torrazza Piemonte","_id":6535819,"coord":{"lon":7.97673,"lat":45.215351}},{"displayName":"Torrazzo, IT","country":"IT","name":"Torrazzo","_id":3165484,"coord":{"lon":7.95522,"lat":45.49876}},{"displayName":"Torre (La), ES","country":"ES","name":"Torre (La)","_id":6355844,"coord":{"lon":-4.96017,"lat":40.605228}},{"displayName":"Torre Alhaquime, ES","country":"ES","name":"Torre Alhaquime","_id":2510336,"coord":{"lon":-5.23381,"lat":36.915878}},{"displayName":"Torre Alháquime, ES","country":"ES","name":"Torre Alháquime","_id":6356951,"coord":{"lon":-5.2321,"lat":36.911579}},{"displayName":"Torre Annunziata, IT","country":"IT","name":"Torre Annunziata","_id":6541168,"coord":{"lon":14.46464,"lat":40.74971}},{"displayName":"Torre Annunziata, IT","country":"IT","name":"Torre Annunziata","_id":3165475,"coord":{"lon":14.46464,"lat":40.74971}},{"displayName":"Torre Boldone, IT","country":"IT","name":"Torre Boldone","_id":3165471,"coord":{"lon":9.71015,"lat":45.71418}},{"displayName":"Torre Bormida, IT","country":"IT","name":"Torre Bormida","_id":6534850,"coord":{"lon":8.15444,"lat":44.56274}},{"displayName":"Torre Cajetani, IT","country":"IT","name":"Torre Cajetani","_id":6535624,"coord":{"lon":13.2652,"lat":41.78672}},{"displayName":"Torre Canavese, IT","country":"IT","name":"Torre Canavese","_id":6535820,"coord":{"lon":7.75982,"lat":45.392059}},{"displayName":"Torre dArese, IT","country":"IT","name":"Torre dArese","_id":6535220,"coord":{"lon":9.31735,"lat":45.242771}},{"displayName":"Torre de Arcas, ES","country":"ES","name":"Torre de Arcas","_id":6361623,"coord":{"lon":-0.10967,"lat":40.76376}},{"displayName":"Torre de Arcas, ES","country":"ES","name":"Torre de Arcas","_id":3107823,"coord":{"lon":-0.06892,"lat":40.751369}},{"displayName":"Torre de Don Miguel, ES","country":"ES","name":"Torre de Don Miguel","_id":6356882,"coord":{"lon":-6.5703,"lat":40.223331}},{"displayName":"Torre de Don Miguel, ES","country":"ES","name":"Torre de Don Miguel","_id":3107821,"coord":{"lon":-6.57686,"lat":40.223331}},{"displayName":"Torre de Dona Chama, PT","country":"PT","name":"Torre de Dona Chama","_id":8014753,"coord":{"lon":-7.13526,"lat":41.64505}},{"displayName":"Torre de Dona Chama, PT","country":"PT","name":"Torre de Dona Chama","_id":2733491,"coord":{"lon":-7.12582,"lat":41.655682}},{"displayName":"Torre de Esgueva, ES","country":"ES","name":"Torre de Esgueva","_id":6362291,"coord":{"lon":-4.23123,"lat":41.781342}},{"displayName":"Torre de Esgueva, ES","country":"ES","name":"Torre de Esgueva","_id":3107817,"coord":{"lon":-4.20004,"lat":41.768211}},{"displayName":"Torre de Esteban Hambrán (La), ES","country":"ES","name":"Torre de Esteban Hambrán (La)","_id":6361831,"coord":{"lon":-4.20387,"lat":40.16679}},{"displayName":"Torre de Juan Abad, ES","country":"ES","name":"Torre de Juan Abad","_id":6357178,"coord":{"lon":-3.24846,"lat":38.580341}},{"displayName":"Torre de Juan Abad, ES","country":"ES","name":"Torre de Juan Abad","_id":2510314,"coord":{"lon":-3.05994,"lat":38.584171}},{"displayName":"Torre de las Arcas, ES","country":"ES","name":"Torre de las Arcas","_id":6361624,"coord":{"lon":-0.70407,"lat":40.85059}},{"displayName":"Torre de las Arcas, ES","country":"ES","name":"Torre de las Arcas","_id":3107814,"coord":{"lon":-0.71783,"lat":40.84166}},{"displayName":"Torre de Miguel Sesmero, ES","country":"ES","name":"Torre de Miguel Sesmero","_id":6355996,"coord":{"lon":-6.7585,"lat":38.646889}},{"displayName":"Torre de Miguel Sesmero, ES","country":"ES","name":"Torre de Miguel Sesmero","_id":2510306,"coord":{"lon":-6.7958,"lat":38.619141}},{"displayName":"Torre de Moncorvo, PT","country":"PT","name":"Torre de Moncorvo","_id":8010468,"coord":{"lon":-7.0358,"lat":41.179218}},{"displayName":"Torre de Negri, IT","country":"IT","name":"Torre de Negri","_id":6534592,"coord":{"lon":9.33456,"lat":45.149658}},{"displayName":"Torre de Obato, ES","country":"ES","name":"Torre de Obato","_id":3107805,"coord":{"lon":0.34442,"lat":42.233261}},{"displayName":"Torre de Penafiel, ES","country":"ES","name":"Torre de Penafiel","_id":3107804,"coord":{"lon":-4.08833,"lat":41.536461}},{"displayName":"Torre de Peñafiel, ES","country":"ES","name":"Torre de Peñafiel","_id":6362292,"coord":{"lon":-4.11531,"lat":41.540649}},{"displayName":"Torre de Roveri, IT","country":"IT","name":"Torre de Roveri","_id":6534519,"coord":{"lon":9.76326,"lat":45.697182}},{"displayName":"Torre de Santa Maria, ES","country":"ES","name":"Torre de Santa Maria","_id":2510303,"coord":{"lon":-6.1161,"lat":39.25441}},{"displayName":"Torre de Santa María, ES","country":"ES","name":"Torre de Santa María","_id":6356883,"coord":{"lon":-6.09473,"lat":39.253712}},{"displayName":"Torre deBusi, IT","country":"IT","name":"Torre deBusi","_id":3165461,"coord":{"lon":9.48025,"lat":45.774078}},{"displayName":"Torre del Bierzo, ES","country":"ES","name":"Torre del Bierzo","_id":6358705,"coord":{"lon":-6.31174,"lat":42.572552}},{"displayName":"Torre del Bierzo, ES","country":"ES","name":"Torre del Bierzo","_id":3107813,"coord":{"lon":-6.36675,"lat":42.607689}},{"displayName":"Torre del Burgo, ES","country":"ES","name":"Torre del Burgo","_id":6358043,"coord":{"lon":-3.07719,"lat":40.800499}},{"displayName":"Torre del Burgo, ES","country":"ES","name":"Torre del Burgo","_id":3107812,"coord":{"lon":-3.07723,"lat":40.791759}},{"displayName":"Torre del Campo, ES","country":"ES","name":"Torre del Campo","_id":6358533,"coord":{"lon":-3.93297,"lat":37.85408}},{"displayName":"Torre del Campo, ES","country":"ES","name":"Torre del Campo","_id":2510310,"coord":{"lon":-3.89731,"lat":37.770512}},{"displayName":"Torre del Compte, ES","country":"ES","name":"Torre del Compte","_id":6361625,"coord":{"lon":0.12204,"lat":40.945969}},{"displayName":"Torre del Compte, ES","country":"ES","name":"Torre del Compte","_id":3107811,"coord":{"lon":0.10934,"lat":40.936249}},{"displayName":"Torre del Greco, IT","country":"IT","name":"Torre del Greco","_id":6541907,"coord":{"lon":14.37235,"lat":40.785221}},{"displayName":"Torre del Greco, IT","country":"IT","name":"Torre del Greco","_id":3165456,"coord":{"lon":14.3708,"lat":40.78392}},{"displayName":"Torre dePasseri, IT","country":"IT","name":"Torre dePasseri","_id":3165453,"coord":{"lon":13.9333,"lat":42.24324}},{"displayName":"Torre dePicenardi, IT","country":"IT","name":"Torre dePicenardi","_id":3165452,"coord":{"lon":10.28688,"lat":45.14357}},{"displayName":"Torre di Faro, IT","country":"IT","name":"Torre di Faro","_id":2522914,"coord":{"lon":15.65,"lat":38.26667}},{"displayName":"Torre di Mosto, IT","country":"IT","name":"Torre di Mosto","_id":6541000,"coord":{"lon":12.70292,"lat":45.685108}},{"displayName":"Torre di Mosto, IT","country":"IT","name":"Torre di Mosto","_id":3165448,"coord":{"lon":12.71361,"lat":45.69389}},{"displayName":"Torre di Ruggiero, IT","country":"IT","name":"Torre di Ruggiero","_id":2522911,"coord":{"lon":16.372801,"lat":38.653381}},{"displayName":"Torre di Santa Maria, IT","country":"IT","name":"Torre di Santa Maria","_id":3165447,"coord":{"lon":9.85155,"lat":46.233601}},{"displayName":"Torre dIsola, IT","country":"IT","name":"Torre dIsola","_id":3165446,"coord":{"lon":9.07615,"lat":45.217461}},{"displayName":"Torre en Cameros, ES","country":"ES","name":"Torre en Cameros","_id":6359137,"coord":{"lon":-2.52332,"lat":42.245022}},{"displayName":"Torre en Cameros, ES","country":"ES","name":"Torre en Cameros","_id":3107798,"coord":{"lon":-2.51805,"lat":42.241329}},{"displayName":"Torre le Nocelle, IT","country":"IT","name":"Torre le Nocelle","_id":3165436,"coord":{"lon":14.90934,"lat":41.023121}},{"displayName":"Torre los Negros, ES","country":"ES","name":"Torre los Negros","_id":6361627,"coord":{"lon":-1.08839,"lat":40.848061}},{"displayName":"Torre los Negros, ES","country":"ES","name":"Torre los Negros","_id":3107764,"coord":{"lon":-1.09782,"lat":40.853081}},{"displayName":"Torre Lupara, IT","country":"IT","name":"Torre Lupara","_id":6534284,"coord":{"lon":12.62194,"lat":42.001671}},{"displayName":"Torre Maggiore, IT","country":"IT","name":"Torre Maggiore","_id":3165435,"coord":{"lon":15.29634,"lat":41.690739}},{"displayName":"Torre Mondovi, IT","country":"IT","name":"Torre Mondovi","_id":6534376,"coord":{"lon":7.89964,"lat":44.352829}},{"displayName":"Torre Orsaia, IT","country":"IT","name":"Torre Orsaia","_id":3165430,"coord":{"lon":15.47327,"lat":40.133301}},{"displayName":"Torre Pallavicina, IT","country":"IT","name":"Torre Pallavicina","_id":6535777,"coord":{"lon":9.87706,"lat":45.446381}},{"displayName":"Torre Pedrera, IT","country":"IT","name":"Torre Pedrera","_id":3215190,"coord":{"lon":12.51274,"lat":44.106941}},{"displayName":"Torre Pellice, IT","country":"IT","name":"Torre Pellice","_id":3165427,"coord":{"lon":7.21602,"lat":44.81974}},{"displayName":"Torre San Giorgio, IT","country":"IT","name":"Torre San Giorgio","_id":6534851,"coord":{"lon":7.52812,"lat":44.735741}},{"displayName":"Torre San Patrizio, IT","country":"IT","name":"Torre San Patrizio","_id":3165423,"coord":{"lon":13.61278,"lat":43.182861}},{"displayName":"Torre Santa Susanna, IT","country":"IT","name":"Torre Santa Susanna","_id":3165420,"coord":{"lon":17.735609,"lat":40.46563}},{"displayName":"Torre Val de San Pedro, ES","country":"ES","name":"Torre Val de San Pedro","_id":6360926,"coord":{"lon":-3.86958,"lat":41.04216}},{"displayName":"Torre Val de San Pedro, ES","country":"ES","name":"Torre Val de San Pedro","_id":3107710,"coord":{"lon":-3.87116,"lat":41.07534}},{"displayName":"Torre, FR","country":"FR","name":"Torre","_id":2972416,"coord":{"lon":9.45566,"lat":42.532162}},{"displayName":"Torre, PT","country":"PT","name":"Torre","_id":2733511,"coord":{"lon":-7.52194,"lat":40.047249}},{"displayName":"Torre-Cardela, ES","country":"ES","name":"Torre-Cardela","_id":6357780,"coord":{"lon":-3.356,"lat":37.504688}},{"displayName":"Torre-Cardela, ES","country":"ES","name":"Torre-Cardela","_id":2510328,"coord":{"lon":-3.35609,"lat":37.504559}},{"displayName":"Torre-Pacheco, ES","country":"ES","name":"Torre-Pacheco","_id":2510271,"coord":{"lon":-0.95396,"lat":37.742931}},{"displayName":"Torre-Pacheco, ES","country":"ES","name":"Torre-Pacheco","_id":6359541,"coord":{"lon":-0.95593,"lat":37.793961}},{"displayName":"Torreadrada, ES","country":"ES","name":"Torreadrada","_id":6360922,"coord":{"lon":-3.83392,"lat":41.46011}},{"displayName":"Torreadrada, ES","country":"ES","name":"Torreadrada","_id":3107859,"coord":{"lon":-3.84,"lat":41.44474}},{"displayName":"Torreagüera, ES","country":"ES","name":"Torreagüera","_id":2510338,"coord":{"lon":-1.05298,"lat":37.98074}},{"displayName":"Torreano, IT","country":"IT","name":"Torreano","_id":3165474,"coord":{"lon":13.43528,"lat":46.131111}},{"displayName":"Torrebelvicino, IT","country":"IT","name":"Torrebelvicino","_id":3165473,"coord":{"lon":11.31949,"lat":45.716801}},{"displayName":"Torrebesses, ES","country":"ES","name":"Torrebesses","_id":6358954,"coord":{"lon":0.60356,"lat":41.420471}},{"displayName":"Torrebesses, ES","country":"ES","name":"Torrebesses","_id":3107851,"coord":{"lon":0.6,"lat":41.433331}},{"displayName":"Torreblacos, ES","country":"ES","name":"Torreblacos","_id":6361214,"coord":{"lon":-2.89311,"lat":41.673241}},{"displayName":"Torreblacos, ES","country":"ES","name":"Torreblacos","_id":3107850,"coord":{"lon":-2.87881,"lat":41.66927}},{"displayName":"Torreblanca de los Caños, ES","country":"ES","name":"Torreblanca de los Caños","_id":2510331,"coord":{"lon":-5.90506,"lat":37.384621}},{"displayName":"Torreblanca, ES","country":"ES","name":"Torreblanca","_id":6357067,"coord":{"lon":0.2179,"lat":40.20327}},{"displayName":"Torreblanca, ES","country":"ES","name":"Torreblanca","_id":3107849,"coord":{"lon":0.1965,"lat":40.220329}},{"displayName":"Torreblascopedro, ES","country":"ES","name":"Torreblascopedro","_id":6358532,"coord":{"lon":-3.66083,"lat":37.987728}},{"displayName":"Torreblascopedro, ES","country":"ES","name":"Torreblascopedro","_id":2510330,"coord":{"lon":-3.6378,"lat":37.997501}},{"displayName":"Torrebruna, IT","country":"IT","name":"Torrebruna","_id":3165470,"coord":{"lon":14.54082,"lat":41.86813}},{"displayName":"Torrecaballeros, ES","country":"ES","name":"Torrecaballeros","_id":6360923,"coord":{"lon":-3.98479,"lat":40.983059}},{"displayName":"Torrecaballeros, ES","country":"ES","name":"Torrecaballeros","_id":3107848,"coord":{"lon":-4.0247,"lat":40.992111}},{"displayName":"Torrecampo, ES","country":"ES","name":"Torrecampo","_id":6357257,"coord":{"lon":-4.64566,"lat":38.468929}},{"displayName":"Torrecampo, ES","country":"ES","name":"Torrecampo","_id":2510329,"coord":{"lon":-4.66667,"lat":38.466671}},{"displayName":"Torrechiva, ES","country":"ES","name":"Torrechiva","_id":6357068,"coord":{"lon":-0.40093,"lat":40.052101}},{"displayName":"Torrechiva, ES","country":"ES","name":"Torrechiva","_id":3107846,"coord":{"lon":-0.4,"lat":40.049999}},{"displayName":"Torrecilla de Alcaniz, ES","country":"ES","name":"Torrecilla de Alcaniz","_id":3107843,"coord":{"lon":-0.09077,"lat":40.96056}},{"displayName":"Torrecilla de Alcañiz, ES","country":"ES","name":"Torrecilla de Alcañiz","_id":6361621,"coord":{"lon":-0.09515,"lat":40.968109}},{"displayName":"Torrecilla de la Abadesa, ES","country":"ES","name":"Torrecilla de la Abadesa","_id":6362288,"coord":{"lon":-5.13786,"lat":41.477749}},{"displayName":"Torrecilla de la Abadesa, ES","country":"ES","name":"Torrecilla de la Abadesa","_id":3107842,"coord":{"lon":-5.08762,"lat":41.484982}},{"displayName":"Torrecilla de la Jara, ES","country":"ES","name":"Torrecilla de la Jara","_id":6361830,"coord":{"lon":-4.80235,"lat":39.67326}},{"displayName":"Torrecilla de la Jara, ES","country":"ES","name":"Torrecilla de la Jara","_id":2510320,"coord":{"lon":-4.77186,"lat":39.70425}},{"displayName":"Torrecilla de la Orden, ES","country":"ES","name":"Torrecilla de la Orden","_id":6362289,"coord":{"lon":-5.27042,"lat":41.21867}},{"displayName":"Torrecilla de la Orden, ES","country":"ES","name":"Torrecilla de la Orden","_id":3107841,"coord":{"lon":-5.22384,"lat":41.218849}},{"displayName":"Torrecilla de la Torre, ES","country":"ES","name":"Torrecilla de la Torre","_id":6362290,"coord":{"lon":-5.05277,"lat":41.677029}},{"displayName":"Torrecilla de la Torre, ES","country":"ES","name":"Torrecilla de la Torre","_id":3107840,"coord":{"lon":-5.04982,"lat":41.66716}},{"displayName":"Torrecilla de los Angeles, ES","country":"ES","name":"Torrecilla de los Angeles","_id":3107837,"coord":{"lon":-6.41606,"lat":40.247879}},{"displayName":"Torrecilla de los Ángeles, ES","country":"ES","name":"Torrecilla de los Ángeles","_id":6356880,"coord":{"lon":-6.41011,"lat":40.257359}},{"displayName":"Torrecilla del Monte, ES","country":"ES","name":"Torrecilla del Monte","_id":6356618,"coord":{"lon":-3.6754,"lat":42.103699}},{"displayName":"Torrecilla del Monte, ES","country":"ES","name":"Torrecilla del Monte","_id":3107838,"coord":{"lon":-3.69356,"lat":42.094898}},{"displayName":"Torrecilla del Pinar, ES","country":"ES","name":"Torrecilla del Pinar","_id":6360924,"coord":{"lon":-4.0543,"lat":41.362289}},{"displayName":"Torrecilla del Pinar, ES","country":"ES","name":"Torrecilla del Pinar","_id":3107835,"coord":{"lon":-4.03838,"lat":41.3736}},{"displayName":"Torrecilla del Rebollar, ES","country":"ES","name":"Torrecilla del Rebollar","_id":6361622,"coord":{"lon":-1.06118,"lat":40.915421}},{"displayName":"Torrecilla del Rebollar, ES","country":"ES","name":"Torrecilla del Rebollar","_id":3107834,"coord":{"lon":-1.07244,"lat":40.909779}},{"displayName":"Torrecilla en Cameros, ES","country":"ES","name":"Torrecilla en Cameros","_id":6359135,"coord":{"lon":-2.61813,"lat":42.262291}},{"displayName":"Torrecilla en Cameros, ES","country":"ES","name":"Torrecilla en Cameros","_id":3107830,"coord":{"lon":-2.63109,"lat":42.255322}},{"displayName":"Torrecilla sobre Alesanco, ES","country":"ES","name":"Torrecilla sobre Alesanco","_id":6359136,"coord":{"lon":-2.84116,"lat":42.415649}},{"displayName":"Torrecilla sobre Alesanco, ES","country":"ES","name":"Torrecilla sobre Alesanco","_id":3107829,"coord":{"lon":-2.83379,"lat":42.408249}},{"displayName":"Torrecillas de la Tiesa, ES","country":"ES","name":"Torrecillas de la Tiesa","_id":6356881,"coord":{"lon":-5.76272,"lat":39.593349}},{"displayName":"Torrecillas de la Tiesa, ES","country":"ES","name":"Torrecillas de la Tiesa","_id":2510319,"coord":{"lon":-5.74238,"lat":39.568371}},{"displayName":"Torrecuadrada de Molina, ES","country":"ES","name":"Torrecuadrada de Molina","_id":6358041,"coord":{"lon":-1.82065,"lat":40.735649}},{"displayName":"Torrecuadrada de Molina, ES","country":"ES","name":"Torrecuadrada de Molina","_id":3107825,"coord":{"lon":-1.80707,"lat":40.749458}},{"displayName":"Torrecuadradilla, ES","country":"ES","name":"Torrecuadradilla","_id":6358042,"coord":{"lon":-2.54094,"lat":40.847752}},{"displayName":"Torrecuadradilla, ES","country":"ES","name":"Torrecuadradilla","_id":3107824,"coord":{"lon":-2.53216,"lat":40.853642}},{"displayName":"Torrecuso, IT","country":"IT","name":"Torrecuso","_id":3165462,"coord":{"lon":14.67934,"lat":41.189419}},{"displayName":"Torredeita, PT","country":"PT","name":"Torredeita","_id":8014007,"coord":{"lon":-8.0282,"lat":40.642502}},{"displayName":"Torredembarra, ES","country":"ES","name":"Torredembarra","_id":6361395,"coord":{"lon":1.40506,"lat":41.14888}},{"displayName":"Torredembarra, ES","country":"ES","name":"Torredembarra","_id":3107807,"coord":{"lon":1.39861,"lat":41.14505}},{"displayName":"Torredonjimeno, ES","country":"ES","name":"Torredonjimeno","_id":6358534,"coord":{"lon":-4.04767,"lat":37.78907}},{"displayName":"Torredonjimeno, ES","country":"ES","name":"Torredonjimeno","_id":2510301,"coord":{"lon":-3.95776,"lat":37.767479}},{"displayName":"Torrefarrera, ES","country":"ES","name":"Torrefarrera","_id":3107797,"coord":{"lon":0.60671,"lat":41.67318}},{"displayName":"Torrefeta i Florejacs, ES","country":"ES","name":"Torrefeta i Florejacs","_id":6358984,"coord":{"lon":1.26601,"lat":41.807571}},{"displayName":"Torrefeta, ES","country":"ES","name":"Torrefeta","_id":3107796,"coord":{"lon":1.27355,"lat":41.753929}},{"displayName":"Torregalindo, ES","country":"ES","name":"Torregalindo","_id":6356619,"coord":{"lon":-3.74592,"lat":41.576141}},{"displayName":"Torregalindo, ES","country":"ES","name":"Torregalindo","_id":3107793,"coord":{"lon":-3.75222,"lat":41.582989}},{"displayName":"Torregamones, ES","country":"ES","name":"Torregamones","_id":6362644,"coord":{"lon":-6.21518,"lat":41.49205}},{"displayName":"Torregamones, ES","country":"ES","name":"Torregamones","_id":3107792,"coord":{"lon":-6.18335,"lat":41.487}},{"displayName":"Torregasa, ES","country":"ES","name":"Torregasa","_id":3107791,"coord":{"lon":1.52412,"lat":41.290829}},{"displayName":"Torreglia, IT","country":"IT","name":"Torreglia","_id":3165438,"coord":{"lon":11.73841,"lat":45.33609}},{"displayName":"Torregrosa, ES","country":"ES","name":"Torregrosa","_id":3107790,"coord":{"lon":0.82864,"lat":41.580341}},{"displayName":"Torregrotta, IT","country":"IT","name":"Torregrotta","_id":2522908,"coord":{"lon":15.34949,"lat":38.203171}},{"displayName":"Torrehermosa, ES","country":"ES","name":"Torrehermosa","_id":6362945,"coord":{"lon":-2.12351,"lat":41.245541}},{"displayName":"Torrehermosa, ES","country":"ES","name":"Torrehermosa","_id":3107788,"coord":{"lon":-2.128,"lat":41.237671}},{"displayName":"Torreiglesias, ES","country":"ES","name":"Torreiglesias","_id":6360925,"coord":{"lon":-4.04411,"lat":41.104481}},{"displayName":"Torreiglesias, ES","country":"ES","name":"Torreiglesias","_id":3107787,"coord":{"lon":-4.0328,"lat":41.10236}},{"displayName":"Torreilles, FR","country":"FR","name":"Torreilles","_id":6441047,"coord":{"lon":2.98333,"lat":42.75}},{"displayName":"Torreilles, FR","country":"FR","name":"Torreilles","_id":2972412,"coord":{"lon":2.99292,"lat":42.75433}},{"displayName":"Torreira, PT","country":"PT","name":"Torreira","_id":8010812,"coord":{"lon":-8.70028,"lat":40.76086}},{"displayName":"Torreira, PT","country":"PT","name":"Torreira","_id":2733481,"coord":{"lon":-8.70642,"lat":40.761829}},{"displayName":"Torrejon de Ardoz, ES","country":"ES","name":"Torrejon de Ardoz","_id":3107784,"coord":{"lon":-3.46973,"lat":40.455349}},{"displayName":"Torrejon de la Calzada, ES","country":"ES","name":"Torrejon de la Calzada","_id":3107783,"coord":{"lon":-3.797,"lat":40.19886}},{"displayName":"Torrejon de Velasco, ES","country":"ES","name":"Torrejon de Velasco","_id":3107781,"coord":{"lon":-3.77681,"lat":40.187462}},{"displayName":"Torrejon del Rey, ES","country":"ES","name":"Torrejon del Rey","_id":3107782,"coord":{"lon":-3.33376,"lat":40.64325}},{"displayName":"Torrejon el Rubio, ES","country":"ES","name":"Torrejon el Rubio","_id":2510293,"coord":{"lon":-6.0126,"lat":39.770679}},{"displayName":"Torrejoncillo del Rey, ES","country":"ES","name":"Torrejoncillo del Rey","_id":6357538,"coord":{"lon":-2.54491,"lat":40.005131}},{"displayName":"Torrejoncillo del Rey, ES","country":"ES","name":"Torrejoncillo del Rey","_id":2510294,"coord":{"lon":-2.57107,"lat":40.0084}},{"displayName":"Torrejoncillo, ES","country":"ES","name":"Torrejoncillo","_id":6356884,"coord":{"lon":-6.46073,"lat":39.907791}},{"displayName":"Torrejoncillo, ES","country":"ES","name":"Torrejoncillo","_id":2510295,"coord":{"lon":-6.46712,"lat":39.896751}},{"displayName":"Torrejón de Ardoz, ES","country":"ES","name":"Torrejón de Ardoz","_id":6359367,"coord":{"lon":-3.45805,"lat":40.467461}},{"displayName":"Torrejón de la Calzada, ES","country":"ES","name":"Torrejón de la Calzada","_id":6359368,"coord":{"lon":-3.79607,"lat":40.203602}},{"displayName":"Torrejón de Velasco, ES","country":"ES","name":"Torrejón de Velasco","_id":6359369,"coord":{"lon":-3.74984,"lat":40.178089}},{"displayName":"Torrejón del Rey, ES","country":"ES","name":"Torrejón del Rey","_id":6358044,"coord":{"lon":-3.34781,"lat":40.661579}},{"displayName":"Torrejón el Rubio, ES","country":"ES","name":"Torrejón el Rubio","_id":6356885,"coord":{"lon":-5.98556,"lat":39.752201}},{"displayName":"Torrelaguna, ES","country":"ES","name":"Torrelaguna","_id":6359370,"coord":{"lon":-3.54253,"lat":40.821579}},{"displayName":"Torrelaguna, ES","country":"ES","name":"Torrelaguna","_id":3107779,"coord":{"lon":-3.53683,"lat":40.827641}},{"displayName":"Torrelapaja, ES","country":"ES","name":"Torrelapaja","_id":6362946,"coord":{"lon":-1.95102,"lat":41.588161}},{"displayName":"Torrelapaja, ES","country":"ES","name":"Torrelapaja","_id":3107777,"coord":{"lon":-1.95181,"lat":41.581329}},{"displayName":"Torrelara, ES","country":"ES","name":"Torrelara","_id":6356620,"coord":{"lon":-3.50303,"lat":42.17474}},{"displayName":"Torrelara, ES","country":"ES","name":"Torrelara","_id":3107776,"coord":{"lon":-3.51689,"lat":42.166729}},{"displayName":"Torrelavega, ES","country":"ES","name":"Torrelavega","_id":6360731,"coord":{"lon":-4.0511,"lat":43.344582}},{"displayName":"Torrelavega, ES","country":"ES","name":"Torrelavega","_id":3107775,"coord":{"lon":-4.04785,"lat":43.349442}},{"displayName":"Torrelavit, ES","country":"ES","name":"Torrelavit","_id":3107774,"coord":{"lon":1.73333,"lat":41.450001}},{"displayName":"Torrella, ES","country":"ES","name":"Torrella","_id":6362108,"coord":{"lon":-0.57582,"lat":38.988319}},{"displayName":"Torrella, ES","country":"ES","name":"Torrella","_id":2510290,"coord":{"lon":-0.56727,"lat":38.984459}},{"displayName":"Torrellas, ES","country":"ES","name":"Torrellas","_id":6362947,"coord":{"lon":-1.76809,"lat":41.897839}},{"displayName":"Torrellas, ES","country":"ES","name":"Torrellas","_id":3107770,"coord":{"lon":-1.77139,"lat":41.89444}},{"displayName":"Torrelles de Llobregat, ES","country":"ES","name":"Torrelles de Llobregat","_id":3107768,"coord":{"lon":1.98333,"lat":41.349998}},{"displayName":"Torrelobaton, ES","country":"ES","name":"Torrelobaton","_id":3107766,"coord":{"lon":-5.02526,"lat":41.649422}},{"displayName":"Torrelobatón, ES","country":"ES","name":"Torrelobatón","_id":6362293,"coord":{"lon":-5.0084,"lat":41.658218}},{"displayName":"Torrelodones, ES","country":"ES","name":"Torrelodones","_id":6359371,"coord":{"lon":-3.92809,"lat":40.566761}},{"displayName":"Torrelodones, ES","country":"ES","name":"Torrelodones","_id":3107765,"coord":{"lon":-3.92658,"lat":40.576542}},{"displayName":"Torremaggiore, IT","country":"IT","name":"Torremaggiore","_id":6542269,"coord":{"lon":15.29634,"lat":41.690739}},{"displayName":"Torremayor, ES","country":"ES","name":"Torremayor","_id":6355997,"coord":{"lon":-6.54723,"lat":38.909538}},{"displayName":"Torremayor, ES","country":"ES","name":"Torremayor","_id":2510287,"coord":{"lon":-6.53858,"lat":38.901402}},{"displayName":"Torremendo, ES","country":"ES","name":"Torremendo","_id":2510285,"coord":{"lon":-0.86532,"lat":37.991508}},{"displayName":"Torremenga, ES","country":"ES","name":"Torremenga","_id":6356886,"coord":{"lon":-5.77924,"lat":40.035789}},{"displayName":"Torremenga, ES","country":"ES","name":"Torremenga","_id":3107762,"coord":{"lon":-5.77471,"lat":40.046581}},{"displayName":"Torremocha de Jadraque, ES","country":"ES","name":"Torremocha de Jadraque","_id":6358045,"coord":{"lon":-2.90389,"lat":41.014481}},{"displayName":"Torremocha de Jadraque, ES","country":"ES","name":"Torremocha de Jadraque","_id":3107757,"coord":{"lon":-2.89918,"lat":41.01881}},{"displayName":"Torremocha de Jarama, ES","country":"ES","name":"Torremocha de Jarama","_id":6359372,"coord":{"lon":-3.50063,"lat":40.83614}},{"displayName":"Torremocha de Jarama, ES","country":"ES","name":"Torremocha de Jarama","_id":3107756,"coord":{"lon":-3.49666,"lat":40.84148}},{"displayName":"Torremocha del Campo, ES","country":"ES","name":"Torremocha del Campo","_id":6358046,"coord":{"lon":-2.57642,"lat":40.925171}},{"displayName":"Torremocha del Campo, ES","country":"ES","name":"Torremocha del Campo","_id":3107754,"coord":{"lon":-2.61881,"lat":40.978191}},{"displayName":"Torremocha del Pinar, ES","country":"ES","name":"Torremocha del Pinar","_id":6358047,"coord":{"lon":-2.05675,"lat":40.88295}},{"displayName":"Torremocha del Pinar, ES","country":"ES","name":"Torremocha del Pinar","_id":3107753,"coord":{"lon":-2.04497,"lat":40.889542}},{"displayName":"Torremocha, ES","country":"ES","name":"Torremocha","_id":6356887,"coord":{"lon":-6.18023,"lat":39.320759}},{"displayName":"Torremocha, ES","country":"ES","name":"Torremocha","_id":2510283,"coord":{"lon":-6.17334,"lat":39.34565}},{"displayName":"Torremochuela, ES","country":"ES","name":"Torremochuela","_id":6358048,"coord":{"lon":-1.85463,"lat":40.753288}},{"displayName":"Torremochuela, ES","country":"ES","name":"Torremochuela","_id":3107752,"coord":{"lon":-1.8419,"lat":40.765282}},{"displayName":"Torremolinos, ES","country":"ES","name":"Torremolinos","_id":6359505,"coord":{"lon":-4.50458,"lat":36.623871}},{"displayName":"Torremolinos, ES","country":"ES","name":"Torremolinos","_id":2510281,"coord":{"lon":-4.49976,"lat":36.62035}},{"displayName":"Torremontalbo, ES","country":"ES","name":"Torremontalbo","_id":6359138,"coord":{"lon":-2.69738,"lat":42.486839}},{"displayName":"Torremontalbo, ES","country":"ES","name":"Torremontalbo","_id":3107751,"coord":{"lon":-2.68333,"lat":42.5}},{"displayName":"Torremormojon, ES","country":"ES","name":"Torremormojon","_id":3107750,"coord":{"lon":-4.77765,"lat":41.960178}},{"displayName":"Torremormojón, ES","country":"ES","name":"Torremormojón","_id":6360122,"coord":{"lon":-4.79029,"lat":41.9617}},{"displayName":"Torremuña, ES","country":"ES","name":"Torremuña","_id":3107749,"coord":{"lon":-2.41807,"lat":42.200748}},{"displayName":"Torrenostra, ES","country":"ES","name":"Torrenostra","_id":3107747,"coord":{"lon":0.22151,"lat":40.193668}},{"displayName":"Torrenova, IT","country":"IT","name":"Torrenova","_id":2522900,"coord":{"lon":14.67997,"lat":38.093761}},{"displayName":"Torrens Creek, AU","country":"AU","name":"Torrens Creek","_id":2146215,"coord":{"lon":145.016663,"lat":-20.76667}},{"displayName":"Torrent, ES","country":"ES","name":"Torrent","_id":6362109,"coord":{"lon":-0.4969,"lat":39.425911}},{"displayName":"Torrent, ES","country":"ES","name":"Torrent","_id":2510279,"coord":{"lon":-0.46546,"lat":39.43705}},{"displayName":"Torrent, ES","country":"ES","name":"Torrent","_id":6534152,"coord":{"lon":3.13296,"lat":41.951511}},{"displayName":"Torrent, ES","country":"ES","name":"Torrent","_id":3107746,"coord":{"lon":3.12684,"lat":41.952431}},{"displayName":"Torrenueva, ES","country":"ES","name":"Torrenueva","_id":6357179,"coord":{"lon":-3.36533,"lat":38.63488}},{"displayName":"Torrenueva, ES","country":"ES","name":"Torrenueva","_id":2510274,"coord":{"lon":-3.36259,"lat":38.639599}},{"displayName":"Torreon, MX","country":"MX","name":"Torreon","_id":3981254,"coord":{"lon":-103.433327,"lat":25.549999}},{"displayName":"Torreorgaz, ES","country":"ES","name":"Torreorgaz","_id":6356888,"coord":{"lon":-6.26087,"lat":39.352558}},{"displayName":"Torreorgaz, ES","country":"ES","name":"Torreorgaz","_id":2510272,"coord":{"lon":-6.24941,"lat":39.383099}},{"displayName":"Torreperogil, ES","country":"ES","name":"Torreperogil","_id":6358535,"coord":{"lon":-3.23071,"lat":38.034451}},{"displayName":"Torreperogil, ES","country":"ES","name":"Torreperogil","_id":2510270,"coord":{"lon":-3.28998,"lat":38.0354}},{"displayName":"Torrequemada, ES","country":"ES","name":"Torrequemada","_id":6356889,"coord":{"lon":-6.22965,"lat":39.34267}},{"displayName":"Torrequemada, ES","country":"ES","name":"Torrequemada","_id":2510268,"coord":{"lon":-6.22052,"lat":39.366638}},{"displayName":"Torrero, ES","country":"ES","name":"Torrero","_id":6619130,"coord":{"lon":-0.8865,"lat":41.628689}},{"displayName":"Torres de Albarracin, ES","country":"ES","name":"Torres de Albarracin","_id":3107726,"coord":{"lon":-1.53242,"lat":40.42709}},{"displayName":"Torres de Albarracín, ES","country":"ES","name":"Torres de Albarracín","_id":6361629,"coord":{"lon":-1.53237,"lat":40.428009}},{"displayName":"Torres de Alcanadre, ES","country":"ES","name":"Torres de Alcanadre","_id":6358431,"coord":{"lon":-0.10178,"lat":41.95499}},{"displayName":"Torres de Alcanadre, ES","country":"ES","name":"Torres de Alcanadre","_id":3107725,"coord":{"lon":-0.11096,"lat":41.96727}},{"displayName":"Torres de Barbues, ES","country":"ES","name":"Torres de Barbues","_id":3107724,"coord":{"lon":-0.4335,"lat":41.960499}},{"displayName":"Torres de Barbués, ES","country":"ES","name":"Torres de Barbués","_id":6358432,"coord":{"lon":-0.44804,"lat":41.95966}},{"displayName":"Torres de Berrellen, ES","country":"ES","name":"Torres de Berrellen","_id":3107723,"coord":{"lon":-1.0655,"lat":41.757969}},{"displayName":"Torres de Carolinas, PR","country":"PR","name":"Torres de Carolinas","_id":4568431,"coord":{"lon":-65.996834,"lat":18.4305}},{"displayName":"Torres de la Alameda, ES","country":"ES","name":"Torres de la Alameda","_id":6359373,"coord":{"lon":-3.3725,"lat":40.42141}},{"displayName":"Torres de la Alameda, ES","country":"ES","name":"Torres de la Alameda","_id":3107722,"coord":{"lon":-3.35767,"lat":40.402641}},{"displayName":"Torres de Montes, ES","country":"ES","name":"Torres de Montes","_id":3107718,"coord":{"lon":-0.19351,"lat":42.09174}},{"displayName":"Torres de Segre, ES","country":"ES","name":"Torres de Segre","_id":3107717,"coord":{"lon":0.5142,"lat":41.533989}},{"displayName":"Torres del Carrizal, ES","country":"ES","name":"Torres del Carrizal","_id":6362645,"coord":{"lon":-5.68373,"lat":41.631729}},{"displayName":"Torres del Carrizal, ES","country":"ES","name":"Torres del Carrizal","_id":3107721,"coord":{"lon":-5.67173,"lat":41.617008}},{"displayName":"Torres del Rio, ES","country":"ES","name":"Torres del Rio","_id":3107719,"coord":{"lon":-2.27285,"lat":42.55162}},{"displayName":"Torres del Río, ES","country":"ES","name":"Torres del Río","_id":6359778,"coord":{"lon":-2.26682,"lat":42.528511}},{"displayName":"Torres do Mondego, PT","country":"PT","name":"Torres do Mondego","_id":8014284,"coord":{"lon":-8.35808,"lat":40.210918}},{"displayName":"Torres Novas, PT","country":"PT","name":"Torres Novas","_id":8010612,"coord":{"lon":-8.54796,"lat":39.4916}},{"displayName":"Torres Novas, PT","country":"PT","name":"Torres Novas","_id":2262582,"coord":{"lon":-8.53949,"lat":39.48114}},{"displayName":"Torres Strait Island, AU","country":"AU","name":"Torres Strait Island","_id":7839398,"coord":{"lon":142.272949,"lat":-10.20141}},{"displayName":"Torres Vedras (São Pedro e São Tiago), PT","country":"PT","name":"Torres Vedras (São Pedro e São Tiago)","_id":8014187,"coord":{"lon":-9.2583,"lat":39.089989}},{"displayName":"Torres Vedras, PT","country":"PT","name":"Torres Vedras","_id":8010567,"coord":{"lon":-9.25238,"lat":39.102219}},{"displayName":"Torres Vedras, PT","country":"PT","name":"Torres Vedras","_id":2262581,"coord":{"lon":-9.2586,"lat":39.091091}},{"displayName":"Torres, AU","country":"AU","name":"Torres","_id":7839397,"coord":{"lon":142.179565,"lat":-10.70379}},{"displayName":"Torres, BR","country":"BR","name":"Torres","_id":3446295,"coord":{"lon":-49.72694,"lat":-29.335279}},{"displayName":"Torres, ES","country":"ES","name":"Torres","_id":6358536,"coord":{"lon":-3.52071,"lat":37.787251}},{"displayName":"Torres, ES","country":"ES","name":"Torres","_id":2510266,"coord":{"lon":-3.50902,"lat":37.78537}},{"displayName":"Torresandino, ES","country":"ES","name":"Torresandino","_id":6356622,"coord":{"lon":-3.93898,"lat":41.861691}},{"displayName":"Torresandino, ES","country":"ES","name":"Torresandino","_id":3107729,"coord":{"lon":-3.90981,"lat":41.829201}},{"displayName":"Torrescarcela, ES","country":"ES","name":"Torrescarcela","_id":3107728,"coord":{"lon":-4.3192,"lat":41.48455}},{"displayName":"Torrescárcela, ES","country":"ES","name":"Torrescárcela","_id":6362294,"coord":{"lon":-4.3474,"lat":41.482941}},{"displayName":"Torresina, IT","country":"IT","name":"Torresina","_id":6535490,"coord":{"lon":8.03674,"lat":44.43364}},{"displayName":"Torresmenudas, ES","country":"ES","name":"Torresmenudas","_id":6360563,"coord":{"lon":-5.78445,"lat":41.104172}},{"displayName":"Torresmenudas, ES","country":"ES","name":"Torresmenudas","_id":3107714,"coord":{"lon":-5.78475,"lat":41.102489}},{"displayName":"Torretta, IT","country":"IT","name":"Torretta","_id":2522893,"coord":{"lon":13.23174,"lat":38.130348}},{"displayName":"Torrevecchia Pia, IT","country":"IT","name":"Torrevecchia Pia","_id":6535221,"coord":{"lon":9.29635,"lat":45.281971}},{"displayName":"Torrevecchia Teatina, IT","country":"IT","name":"Torrevecchia Teatina","_id":3165412,"coord":{"lon":14.21331,"lat":42.38274}},{"displayName":"Torrevelilla, ES","country":"ES","name":"Torrevelilla","_id":6361630,"coord":{"lon":-0.11547,"lat":40.913349}},{"displayName":"Torrevelilla, ES","country":"ES","name":"Torrevelilla","_id":3107708,"coord":{"lon":-0.10977,"lat":40.902}},{"displayName":"Torrevieja, ES","country":"ES","name":"Torrevieja","_id":6355506,"coord":{"lon":-0.67491,"lat":37.989559}},{"displayName":"Torrevieja, ES","country":"ES","name":"Torrevieja","_id":2510253,"coord":{"lon":-0.68222,"lat":37.978722}},{"displayName":"Torreys, US","country":"US","name":"Torreys","_id":5610350,"coord":{"lon":-114.602287,"lat":44.253529}},{"displayName":"Torri del Benaco, IT","country":"IT","name":"Torri del Benaco","_id":3165395,"coord":{"lon":10.68928,"lat":45.602989}},{"displayName":"Torri di Quartesolo, IT","country":"IT","name":"Torri di Quartesolo","_id":3165394,"coord":{"lon":11.6123,"lat":45.52499}},{"displayName":"Torri in Sabina, IT","country":"IT","name":"Torri in Sabina","_id":3165391,"coord":{"lon":12.63857,"lat":42.353031}},{"displayName":"Torriana, IT","country":"IT","name":"Torriana","_id":3165406,"coord":{"lon":12.38504,"lat":43.985958}},{"displayName":"Torrice, IT","country":"IT","name":"Torrice","_id":3165404,"coord":{"lon":13.3984,"lat":41.629719}},{"displayName":"Torricella del Pizzo, IT","country":"IT","name":"Torricella del Pizzo","_id":3165399,"coord":{"lon":10.29598,"lat":45.01897}},{"displayName":"Torricella in Sabina, IT","country":"IT","name":"Torricella in Sabina","_id":3165398,"coord":{"lon":12.87008,"lat":42.263329}},{"displayName":"Torricella Peligna, IT","country":"IT","name":"Torricella Peligna","_id":3165397,"coord":{"lon":14.25912,"lat":42.024529}},{"displayName":"Torricella Sicura, IT","country":"IT","name":"Torricella Sicura","_id":3165396,"coord":{"lon":13.65719,"lat":42.659039}},{"displayName":"Torricella Verzate, IT","country":"IT","name":"Torricella Verzate","_id":6534593,"coord":{"lon":9.17356,"lat":45.019958}},{"displayName":"Torricella, IT","country":"IT","name":"Torricella","_id":3165403,"coord":{"lon":17.49971,"lat":40.356621}},{"displayName":"Torrico, ES","country":"ES","name":"Torrico","_id":6361832,"coord":{"lon":-5.21336,"lat":39.82954}},{"displayName":"Torrico, ES","country":"ES","name":"Torrico","_id":2510251,"coord":{"lon":-5.22581,"lat":39.829182}},{"displayName":"Torridge District, GB","country":"GB","name":"Torridge District","_id":2635640,"coord":{"lon":-4.4,"lat":50.950001}},{"displayName":"Torriglia, IT","country":"IT","name":"Torriglia","_id":3165392,"coord":{"lon":9.16016,"lat":44.520149}},{"displayName":"Torrijas, ES","country":"ES","name":"Torrijas","_id":6361631,"coord":{"lon":-0.95896,"lat":40.020142}},{"displayName":"Torrijas, ES","country":"ES","name":"Torrijas","_id":3107705,"coord":{"lon":-0.95,"lat":40.01667}},{"displayName":"Torrijo de la Canada, ES","country":"ES","name":"Torrijo de la Canada","_id":3107703,"coord":{"lon":-1.87441,"lat":41.473042}},{"displayName":"Torrijo de la Cañada, ES","country":"ES","name":"Torrijo de la Cañada","_id":6362949,"coord":{"lon":-1.88404,"lat":41.468559}},{"displayName":"Torrijo del Campo, ES","country":"ES","name":"Torrijo del Campo","_id":6361632,"coord":{"lon":-1.33559,"lat":40.820221}},{"displayName":"Torrijo del Campo, ES","country":"ES","name":"Torrijo del Campo","_id":3107702,"coord":{"lon":-1.33766,"lat":40.825748}},{"displayName":"Torrijos, ES","country":"ES","name":"Torrijos","_id":6361833,"coord":{"lon":-4.28108,"lat":39.983768}},{"displayName":"Torrijos, ES","country":"ES","name":"Torrijos","_id":2510249,"coord":{"lon":-4.28349,"lat":39.981941}},{"displayName":"Torrijos, PH","country":"PH","name":"Torrijos","_id":1681392,"coord":{"lon":122.084099,"lat":13.3238}},{"displayName":"Torring, DK","country":"DK","name":"Torring","_id":2611486,"coord":{"lon":9.48333,"lat":55.849998}},{"displayName":"Torrington, AU","country":"AU","name":"Torrington","_id":2146207,"coord":{"lon":151.699997,"lat":-29.316669}},{"displayName":"Torrington, CA","country":"CA","name":"Torrington","_id":6167918,"coord":{"lon":-113.603348,"lat":51.791809}},{"displayName":"Torrington, US","country":"US","name":"Torrington","_id":5841207,"coord":{"lon":-104.184387,"lat":42.062462}},{"displayName":"Torrington, US","country":"US","name":"Torrington","_id":4844309,"coord":{"lon":-73.121223,"lat":41.800652}},{"displayName":"Torrinha, BR","country":"BR","name":"Torrinha","_id":3446291,"coord":{"lon":-48.16917,"lat":-22.426109}},{"displayName":"Torrioni, IT","country":"IT","name":"Torrioni","_id":3165383,"coord":{"lon":14.81254,"lat":41.034019}},{"displayName":"Torrita di Siena, IT","country":"IT","name":"Torrita di Siena","_id":6540486,"coord":{"lon":11.77944,"lat":43.170238}},{"displayName":"Torrita di Siena, IT","country":"IT","name":"Torrita di Siena","_id":3165381,"coord":{"lon":11.77944,"lat":43.170238}},{"displayName":"Torrita Tiberina, IT","country":"IT","name":"Torrita Tiberina","_id":3165380,"coord":{"lon":12.61448,"lat":42.239128}},{"displayName":"Torrita, AU","country":"AU","name":"Torrita","_id":2146206,"coord":{"lon":141.933334,"lat":-35.150002}},{"displayName":"Torroella de Fluvia, ES","country":"ES","name":"Torroella de Fluvia","_id":3107701,"coord":{"lon":3.04025,"lat":42.17522}},{"displayName":"Torroella de Fluvià, ES","country":"ES","name":"Torroella de Fluvià","_id":6534153,"coord":{"lon":3.03924,"lat":42.175892}},{"displayName":"Torroella de Montgri, ES","country":"ES","name":"Torroella de Montgri","_id":3107700,"coord":{"lon":3.12703,"lat":42.042542}},{"displayName":"Torroella de Montgrí, ES","country":"ES","name":"Torroella de Montgrí","_id":6534154,"coord":{"lon":3.13153,"lat":42.041199}},{"displayName":"Torroso, ES","country":"ES","name":"Torroso","_id":3107695,"coord":{"lon":-8.61667,"lat":42.200001}},{"displayName":"Torrowangee, AU","country":"AU","name":"Torrowangee","_id":2146205,"coord":{"lon":141.483337,"lat":-31.466669}},{"displayName":"Torrox, ES","country":"ES","name":"Torrox","_id":6359495,"coord":{"lon":-3.95855,"lat":36.757969}},{"displayName":"Torrox, ES","country":"ES","name":"Torrox","_id":2510245,"coord":{"lon":-3.95233,"lat":36.757931}},{"displayName":"Torrubia de Soria, ES","country":"ES","name":"Torrubia de Soria","_id":6361215,"coord":{"lon":-2.06052,"lat":41.630051}},{"displayName":"Torrubia de Soria, ES","country":"ES","name":"Torrubia de Soria","_id":3107693,"coord":{"lon":-2.09151,"lat":41.630451}},{"displayName":"Torrubia del Campo, ES","country":"ES","name":"Torrubia del Campo","_id":6357539,"coord":{"lon":-2.93925,"lat":39.876469}},{"displayName":"Torrubia del Campo, ES","country":"ES","name":"Torrubia del Campo","_id":2510241,"coord":{"lon":-2.96133,"lat":39.897491}},{"displayName":"Torrubia del Castillo, ES","country":"ES","name":"Torrubia del Castillo","_id":6357540,"coord":{"lon":-2.29177,"lat":39.66592}},{"displayName":"Torrubia del Castillo, ES","country":"ES","name":"Torrubia del Castillo","_id":2510240,"coord":{"lon":-2.31172,"lat":39.65852}},{"displayName":"Torrubia, ES","country":"ES","name":"Torrubia","_id":6358049,"coord":{"lon":-1.88686,"lat":40.95789}},{"displayName":"Torrubia, ES","country":"ES","name":"Torrubia","_id":3107694,"coord":{"lon":-1.90064,"lat":40.965809}},{"displayName":"Torrumbarry, AU","country":"AU","name":"Torrumbarry","_id":2146204,"coord":{"lon":144.550003,"lat":-36.033329}},{"displayName":"Torry, GB","country":"GB","name":"Torry","_id":2635630,"coord":{"lon":-2.08672,"lat":57.136959}},{"displayName":"Torrão, BR","country":"BR","name":"Torrão","_id":3386260,"coord":{"lon":-40.01667,"lat":-7.08333}},{"displayName":"Torrão, PT","country":"PT","name":"Torrão","_id":8013107,"coord":{"lon":-8.29755,"lat":38.26601}},{"displayName":"Torrão, PT","country":"PT","name":"Torrão","_id":2262626,"coord":{"lon":-8.22661,"lat":38.293041}},{"displayName":"Torsas, SE","country":"SE","name":"Torsas","_id":2667904,"coord":{"lon":15.99844,"lat":56.41251}},{"displayName":"Torsballig, DE","country":"DE","name":"Torsballig","_id":2821756,"coord":{"lon":9.55,"lat":54.666672}},{"displayName":"Torsby Kommun, SE","country":"SE","name":"Torsby Kommun","_id":2667872,"coord":{"lon":13.08333,"lat":60.5}},{"displayName":"Torsby, SE","country":"SE","name":"Torsby","_id":2667876,"coord":{"lon":13.0082,"lat":60.135269}},{"displayName":"Torshalla, SE","country":"SE","name":"Torshalla","_id":2667847,"coord":{"lon":16.466669,"lat":59.416672}},{"displayName":"Torshavn, FO","country":"FO","name":"Torshavn","_id":2611396,"coord":{"lon":-6.77164,"lat":62.009731}},{"displayName":"Torsiac, FR","country":"FR","name":"Torsiac","_id":6434459,"coord":{"lon":3.23333,"lat":45.349998}},{"displayName":"Torsiac, FR","country":"FR","name":"Torsiac","_id":2972406,"coord":{"lon":3.23333,"lat":45.349998}},{"displayName":"Torslanda, SE","country":"SE","name":"Torslanda","_id":2667809,"coord":{"lon":11.77013,"lat":57.724319}},{"displayName":"Tortebesse, FR","country":"FR","name":"Tortebesse","_id":6440254,"coord":{"lon":2.65,"lat":45.73333}},{"displayName":"Tortebesse, FR","country":"FR","name":"Tortebesse","_id":2972404,"coord":{"lon":2.64983,"lat":45.73114}},{"displayName":"Tortel, HU","country":"HU","name":"Tortel","_id":3043758,"coord":{"lon":19.93714,"lat":47.122089}},{"displayName":"Tortes, ES","country":"ES","name":"Tortes","_id":3107686,"coord":{"lon":-7.18543,"lat":42.82872}},{"displayName":"Tortezais, FR","country":"FR","name":"Tortezais","_id":6425490,"coord":{"lon":2.86667,"lat":46.450001}},{"displayName":"Tortezais, FR","country":"FR","name":"Tortezais","_id":2972398,"coord":{"lon":2.85791,"lat":46.45343}},{"displayName":"Torthorwald, GB","country":"GB","name":"Torthorwald","_id":2635625,"coord":{"lon":-3.51505,"lat":55.089699}},{"displayName":"Tortisambert, FR","country":"FR","name":"Tortisambert","_id":6427522,"coord":{"lon":0.11667,"lat":48.966671}},{"displayName":"Tortisambert, FR","country":"FR","name":"Tortisambert","_id":2972397,"coord":{"lon":0.11721,"lat":48.966061}},{"displayName":"Tortkol Shahri, UZ","country":"UZ","name":"Tortkol Shahri","_id":1538222,"coord":{"lon":61.001801,"lat":41.560551}},{"displayName":"Tortola de Henares, ES","country":"ES","name":"Tortola de Henares","_id":3107684,"coord":{"lon":-3.12316,"lat":40.70425}},{"displayName":"Tortola, PT","country":"PT","name":"Tortola","_id":2733467,"coord":{"lon":-7.95227,"lat":41.129379}},{"displayName":"Tortoles, ES","country":"ES","name":"Tortoles","_id":3107682,"coord":{"lon":-5.2612,"lat":40.561199}},{"displayName":"Tortoli, IT","country":"IT","name":"Tortoli","_id":2522890,"coord":{"lon":9.65722,"lat":39.92556}},{"displayName":"Tortolita, US","country":"US","name":"Tortolita","_id":5317867,"coord":{"lon":-111.017319,"lat":32.410351}},{"displayName":"Tortolì, IT","country":"IT","name":"Tortolì","_id":6540128,"coord":{"lon":9.66465,"lat":39.929958}},{"displayName":"Tortoman, RO","country":"RO","name":"Tortoman","_id":664708,"coord":{"lon":28.216669,"lat":44.349998}},{"displayName":"Tortona, IT","country":"IT","name":"Tortona","_id":6536452,"coord":{"lon":8.86455,"lat":44.893349}},{"displayName":"Tortona, IT","country":"IT","name":"Tortona","_id":3165370,"coord":{"lon":8.86374,"lat":44.897839}},{"displayName":"Tortora, IT","country":"IT","name":"Tortora","_id":2522886,"coord":{"lon":15.80518,"lat":39.941299}},{"displayName":"Tortorella, IT","country":"IT","name":"Tortorella","_id":3165367,"coord":{"lon":15.60567,"lat":40.1422}},{"displayName":"Tortoreto, IT","country":"IT","name":"Tortoreto","_id":6540722,"coord":{"lon":13.9116,"lat":42.809052}},{"displayName":"Tortoreto, IT","country":"IT","name":"Tortoreto","_id":3165365,"coord":{"lon":13.9116,"lat":42.809052}},{"displayName":"Tortorici, IT","country":"IT","name":"Tortorici","_id":2522885,"coord":{"lon":14.82348,"lat":38.029961}},{"displayName":"Tortosa, ES","country":"ES","name":"Tortosa","_id":6361397,"coord":{"lon":0.47756,"lat":40.83485}},{"displayName":"Tortosa, ES","country":"ES","name":"Tortosa","_id":3107677,"coord":{"lon":0.5216,"lat":40.812489}},{"displayName":"Tortosa, PH","country":"PH","name":"Tortosa","_id":1681388,"coord":{"lon":123.089996,"lat":10.93294}},{"displayName":"Tortuera, ES","country":"ES","name":"Tortuera","_id":6358051,"coord":{"lon":-1.77551,"lat":41.006161}},{"displayName":"Tortuera, ES","country":"ES","name":"Tortuera","_id":3107675,"coord":{"lon":-1.79764,"lat":40.971809}},{"displayName":"Tortuero, ES","country":"ES","name":"Tortuero","_id":6358052,"coord":{"lon":-3.35325,"lat":40.942741}},{"displayName":"Tortuero, ES","country":"ES","name":"Tortuero","_id":3107674,"coord":{"lon":-3.35024,"lat":40.934139}},{"displayName":"Tortuga, TT","country":"TT","name":"Tortuga","_id":3573596,"coord":{"lon":-61.400002,"lat":10.36667}},{"displayName":"Tortugas, AR","country":"AR","name":"Tortugas","_id":3834080,"coord":{"lon":-61.820091,"lat":-32.747799}},{"displayName":"Tortuguitas, AR","country":"AR","name":"Tortuguitas","_id":3427687,"coord":{"lon":-58.759171,"lat":-34.469681}},{"displayName":"Tortum, TR","country":"TR","name":"Tortum","_id":738674,"coord":{"lon":41.54771,"lat":40.297298}},{"displayName":"Torul, TR","country":"TR","name":"Torul","_id":738668,"coord":{"lon":39.293598,"lat":40.558048}},{"displayName":"Torun, PL","country":"PL","name":"Torun","_id":3083271,"coord":{"lon":18.598141,"lat":53.013748}},{"displayName":"Torunos, VE","country":"VE","name":"Torunos","_id":3626074,"coord":{"lon":-70.080559,"lat":8.50016}},{"displayName":"Torup, SE","country":"SE","name":"Torup","_id":2667757,"coord":{"lon":13.08333,"lat":56.966671}},{"displayName":"Toruń Północny, PL","country":"PL","name":"Toruń Północny","_id":3083267,"coord":{"lon":18.6,"lat":53.033329}},{"displayName":"Torva, EE","country":"EE","name":"Torva","_id":588204,"coord":{"lon":25.934999,"lat":58.002781}},{"displayName":"Torviscosa, IT","country":"IT","name":"Torviscosa","_id":3165363,"coord":{"lon":13.28111,"lat":45.82111}},{"displayName":"Torzhok, RU","country":"RU","name":"Torzhok","_id":481985,"coord":{"lon":34.962212,"lat":57.043598}},{"displayName":"Torzym, PL","country":"PL","name":"Torzym","_id":3083264,"coord":{"lon":15.08243,"lat":52.313309}},{"displayName":"Torà, ES","country":"ES","name":"Torà","_id":6358951,"coord":{"lon":1.43722,"lat":41.833611}},{"displayName":"Torán, ES","country":"ES","name":"Torán","_id":3107974,"coord":{"lon":-7.83026,"lat":42.231201}},{"displayName":"Torás, ES","country":"ES","name":"Torás","_id":6357064,"coord":{"lon":-0.69608,"lat":39.932899}},{"displayName":"Torņakalns, LV","country":"LV","name":"Torņakalns","_id":454810,"coord":{"lon":24.09111,"lat":56.927776}},{"displayName":"Tosagua, EC","country":"EC","name":"Tosagua","_id":3650554,"coord":{"lon":-80.25,"lat":-0.78333}},{"displayName":"Tosantos, ES","country":"ES","name":"Tosantos","_id":6356624,"coord":{"lon":-3.24234,"lat":42.412609}},{"displayName":"Tosantos, ES","country":"ES","name":"Tosantos","_id":3107668,"coord":{"lon":-3.24286,"lat":42.413681}},{"displayName":"Tosca de Ana María, ES","country":"ES","name":"Tosca de Ana María","_id":2510229,"coord":{"lon":-16.450001,"lat":28.41667}},{"displayName":"Toscolano-Maderno, IT","country":"IT","name":"Toscolano-Maderno","_id":6535871,"coord":{"lon":10.60838,"lat":45.634491}},{"displayName":"Toscolano-Maderno, IT","country":"IT","name":"Toscolano-Maderno","_id":3165356,"coord":{"lon":10.60838,"lat":45.634491}},{"displayName":"Toses, ES","country":"ES","name":"Toses","_id":6357632,"coord":{"lon":2.03629,"lat":42.33078}},{"displayName":"Toses, ES","country":"ES","name":"Toses","_id":3107667,"coord":{"lon":2.01582,"lat":42.321621}},{"displayName":"Tosham, IN","country":"IN","name":"Tosham","_id":1254214,"coord":{"lon":75.916672,"lat":28.883329}},{"displayName":"Toshbuloq, UZ","country":"UZ","name":"Toshbuloq","_id":1512658,"coord":{"lon":71.572144,"lat":40.923389}},{"displayName":"Toshkent Shahri, UZ","country":"UZ","name":"Toshkent Shahri","_id":1484839,"coord":{"lon":69.25,"lat":41.333328}},{"displayName":"Toshkent Viloyati, UZ","country":"UZ","name":"Toshkent Viloyati","_id":1484838,"coord":{"lon":69.666672,"lat":41.0}},{"displayName":"Toshkovka, UA","country":"UA","name":"Toshkovka","_id":691355,"coord":{"lon":38.579029,"lat":48.77914}},{"displayName":"Toshloq, UZ","country":"UZ","name":"Toshloq","_id":1512568,"coord":{"lon":71.767776,"lat":40.477219}},{"displayName":"Tosing, LS","country":"LS","name":"Tosing","_id":931975,"coord":{"lon":27.9,"lat":-30.35}},{"displayName":"Tosno, RU","country":"RU","name":"Tosno","_id":481964,"coord":{"lon":30.877501,"lat":59.540001}},{"displayName":"Tosontsengel, MN","country":"MN","name":"Tosontsengel","_id":1515167,"coord":{"lon":98.28389,"lat":48.756672}},{"displayName":"Tosos, ES","country":"ES","name":"Tosos","_id":3107665,"coord":{"lon":-1.07292,"lat":41.315418}},{"displayName":"Tosos, ES","country":"ES","name":"Tosos","_id":6362950,"coord":{"lon":-1.10966,"lat":41.30703}},{"displayName":"Toss, CH","country":"CH","name":"Toss","_id":2658344,"coord":{"lon":8.70215,"lat":47.478901}},{"displayName":"Tossa de Mar, ES","country":"ES","name":"Tossa de Mar","_id":6534156,"coord":{"lon":2.93381,"lat":41.732471}},{"displayName":"Tossa de Mar, ES","country":"ES","name":"Tossa de Mar","_id":3107661,"coord":{"lon":2.93333,"lat":41.716671}},{"displayName":"Tosse, FR","country":"FR","name":"Tosse","_id":6434006,"coord":{"lon":-1.33333,"lat":43.683331}},{"displayName":"Tosse, FR","country":"FR","name":"Tosse","_id":2972388,"coord":{"lon":-1.33262,"lat":43.689159}},{"displayName":"Tossiat, FR","country":"FR","name":"Tossiat","_id":6424718,"coord":{"lon":5.31667,"lat":46.133331}},{"displayName":"Tossiat, FR","country":"FR","name":"Tossiat","_id":2972387,"coord":{"lon":5.31139,"lat":46.139889}},{"displayName":"Tossicia, IT","country":"IT","name":"Tossicia","_id":3165355,"coord":{"lon":13.64749,"lat":42.544941}},{"displayName":"Tostado, AR","country":"AR","name":"Tostado","_id":3834048,"coord":{"lon":-61.769169,"lat":-29.232019}},{"displayName":"Tostedt, DE","country":"DE","name":"Tostedt","_id":6552653,"coord":{"lon":9.7114,"lat":53.2771}},{"displayName":"Tostedt, DE","country":"DE","name":"Tostedt","_id":2821736,"coord":{"lon":9.71667,"lat":53.283329}},{"displayName":"Tosterglope, DE","country":"DE","name":"Tosterglope","_id":6552696,"coord":{"lon":10.8193,"lat":53.209839}},{"displayName":"Tosterglope, DE","country":"DE","name":"Tosterglope","_id":2821734,"coord":{"lon":10.8193,"lat":53.209839}},{"displayName":"Tosu, JP","country":"JP","name":"Tosu","_id":1849904,"coord":{"lon":130.516663,"lat":33.366669}},{"displayName":"Tosya, TR","country":"TR","name":"Tosya","_id":738662,"coord":{"lon":34.040131,"lat":41.01545}},{"displayName":"Toszeg, HU","country":"HU","name":"Toszeg","_id":714570,"coord":{"lon":20.15,"lat":47.099998}},{"displayName":"Toszek, PL","country":"PL","name":"Toszek","_id":7533551,"coord":{"lon":18.524799,"lat":50.4599}},{"displayName":"Toszek, PL","country":"PL","name":"Toszek","_id":3083263,"coord":{"lon":18.522091,"lat":50.454418}},{"displayName":"Totalan, ES","country":"ES","name":"Totalan","_id":7648466,"coord":{"lon":-4.29707,"lat":36.765259}},{"displayName":"Totalán, ES","country":"ES","name":"Totalán","_id":6359496,"coord":{"lon":-4.29289,"lat":36.760159}},{"displayName":"Totana, ES","country":"ES","name":"Totana","_id":6359543,"coord":{"lon":-1.56479,"lat":37.778889}},{"displayName":"Totana, ES","country":"ES","name":"Totana","_id":2510224,"coord":{"lon":-1.50229,"lat":37.768799}},{"displayName":"Totanes, ES","country":"ES","name":"Totanes","_id":2510223,"coord":{"lon":-4.22655,"lat":39.710571}},{"displayName":"Totanés, ES","country":"ES","name":"Totanés","_id":6361834,"coord":{"lon":-4.22314,"lat":39.711349}},{"displayName":"Totatiche, MX","country":"MX","name":"Totatiche","_id":3981175,"coord":{"lon":-103.449997,"lat":21.933331}},{"displayName":"Totenweg, CH","country":"CH","name":"Totenweg","_id":6291821,"coord":{"lon":8.43603,"lat":47.500408}},{"displayName":"Totero, ES","country":"ES","name":"Totero","_id":3107658,"coord":{"lon":-3.84069,"lat":43.299561}},{"displayName":"Totes, FR","country":"FR","name":"Totes","_id":2972381,"coord":{"lon":1.0465,"lat":49.680908}},{"displayName":"Totesti, RO","country":"RO","name":"Totesti","_id":664698,"coord":{"lon":22.883329,"lat":45.566669}},{"displayName":"Totkomlos, HU","country":"HU","name":"Totkomlos","_id":714548,"coord":{"lon":20.73333,"lat":46.416672}},{"displayName":"Totland, GB","country":"GB","name":"Totland","_id":2635613,"coord":{"lon":-1.53688,"lat":50.684662}},{"displayName":"Totleben, BG","country":"BG","name":"Totleben","_id":6460302,"coord":{"lon":24.91667,"lat":43.433331}},{"displayName":"Totleben, BG","country":"BG","name":"Totleben","_id":726368,"coord":{"lon":24.91667,"lat":43.433331}},{"displayName":"Totma, RU","country":"RU","name":"Totma","_id":481960,"coord":{"lon":42.764168,"lat":59.974724}},{"displayName":"Totnes, GB","country":"GB","name":"Totnes","_id":2635610,"coord":{"lon":-3.6843,"lat":50.431068}},{"displayName":"Totness, SR","country":"SR","name":"Totness","_id":3382867,"coord":{"lon":-56.316669,"lat":5.88333}},{"displayName":"Totocuitlapilco, MX","country":"MX","name":"Totocuitlapilco","_id":3515205,"coord":{"lon":-99.583328,"lat":19.23333}},{"displayName":"Totogalpa, NI","country":"NI","name":"Totogalpa","_id":3615998,"coord":{"lon":-86.492393,"lat":13.56269}},{"displayName":"Totok, ID","country":"ID","name":"Totok","_id":1900608,"coord":{"lon":119.306,"lat":-9.4828}},{"displayName":"Totolac, MX","country":"MX","name":"Totolac","_id":3815419,"coord":{"lon":-98.258331,"lat":19.325001}},{"displayName":"Totolan, PH","country":"PH","name":"Totolan","_id":1681377,"coord":{"lon":123.847023,"lat":9.63286}},{"displayName":"Totolapa, MX","country":"MX","name":"Totolapa","_id":3515202,"coord":{"lon":-92.683327,"lat":16.6}},{"displayName":"Totolapa, MX","country":"MX","name":"Totolapa","_id":3515200,"coord":{"lon":-96.183327,"lat":18.51667}},{"displayName":"Totolapan, MX","country":"MX","name":"Totolapan","_id":3515195,"coord":{"lon":-98.916672,"lat":18.966669}},{"displayName":"Totoltepec de Guerrero, MX","country":"MX","name":"Totoltepec de Guerrero","_id":3515192,"coord":{"lon":-97.849998,"lat":18.23333}},{"displayName":"Totonicapan, GT","country":"GT","name":"Totonicapan","_id":3588258,"coord":{"lon":-91.366669,"lat":14.91667}},{"displayName":"Totora, BO","country":"BO","name":"Totora","_id":3902523,"coord":{"lon":-65.193199,"lat":-17.72662}},{"displayName":"Totoral, BO","country":"BO","name":"Totoral","_id":3902504,"coord":{"lon":-66.866669,"lat":-18.51667}},{"displayName":"Totoral, PE","country":"PE","name":"Totoral","_id":3927023,"coord":{"lon":-70.364998,"lat":-17.405279}},{"displayName":"Totoras, AR","country":"AR","name":"Totoras","_id":3833995,"coord":{"lon":-61.168522,"lat":-32.5844}},{"displayName":"Totoro, CO","country":"CO","name":"Totoro","_id":3666834,"coord":{"lon":-76.401237,"lat":2.51204}},{"displayName":"Tototlan, MX","country":"MX","name":"Tototlan","_id":3981165,"coord":{"lon":-102.800003,"lat":20.549999}},{"displayName":"Totowa, US","country":"US","name":"Totowa","_id":5105455,"coord":{"lon":-74.209869,"lat":40.905102}},{"displayName":"Totskoye, RU","country":"RU","name":"Totskoye","_id":481955,"coord":{"lon":52.76228,"lat":52.52478}},{"displayName":"Totsukachō, JP","country":"JP","name":"Totsukachō","_id":1849897,"coord":{"lon":139.533325,"lat":35.400002}},{"displayName":"Tottenham, AU","country":"AU","name":"Tottenham","_id":2146193,"coord":{"lon":147.350006,"lat":-32.23333}},{"displayName":"Tottenham, CA","country":"CA","name":"Tottenham","_id":6167983,"coord":{"lon":-79.816338,"lat":44.016811}},{"displayName":"Totternhoe, GB","country":"GB","name":"Totternhoe","_id":2635606,"coord":{"lon":-0.57343,"lat":51.885551}},{"displayName":"Tottington, GB","country":"GB","name":"Tottington","_id":2635604,"coord":{"lon":-2.34071,"lat":53.613258}},{"displayName":"Tottleben, DE","country":"DE","name":"Tottleben","_id":6549944,"coord":{"lon":10.75,"lat":51.166698}},{"displayName":"Tottleben, DE","country":"DE","name":"Tottleben","_id":2821695,"coord":{"lon":10.75,"lat":51.166672}},{"displayName":"Totton, GB","country":"GB","name":"Totton","_id":2635603,"coord":{"lon":-1.49037,"lat":50.91877}},{"displayName":"Tottori, JP","country":"JP","name":"Tottori","_id":1849892,"coord":{"lon":134.233337,"lat":35.5}},{"displayName":"Tottori-ken, JP","country":"JP","name":"Tottori-ken","_id":1849890,"coord":{"lon":133.850815,"lat":35.367859}},{"displayName":"Totumbang, ID","country":"ID","name":"Totumbang","_id":7385892,"coord":{"lon":119.921097,"lat":-3.0779}},{"displayName":"Totut, ID","country":"ID","name":"Totut","_id":1965445,"coord":{"lon":112.642899,"lat":-8.039}},{"displayName":"Totutla, MX","country":"MX","name":"Totutla","_id":3515184,"coord":{"lon":-96.933327,"lat":19.216669}},{"displayName":"Touama, MA","country":"MA","name":"Touama","_id":2526924,"coord":{"lon":-7.49291,"lat":31.535009}},{"displayName":"Touba, CI","country":"CI","name":"Touba","_id":2280376,"coord":{"lon":-7.68333,"lat":8.28333}},{"displayName":"Touba, SN","country":"SN","name":"Touba","_id":2244322,"coord":{"lon":-15.88333,"lat":14.85}},{"displayName":"Touchongbu, TW","country":"TW","name":"Touchongbu","_id":1667031,"coord":{"lon":121.047218,"lat":24.7775}},{"displayName":"Toucy, FR","country":"FR","name":"Toucy","_id":6446048,"coord":{"lon":3.3,"lat":47.73333}},{"displayName":"Toucy, FR","country":"FR","name":"Toucy","_id":2972372,"coord":{"lon":3.29502,"lat":47.736019}},{"displayName":"Toudao, CN","country":"CN","name":"Toudao","_id":2034389,"coord":{"lon":125.872124,"lat":41.51244}},{"displayName":"Toufang, CN","country":"CN","name":"Toufang","_id":1792502,"coord":{"lon":105.099998,"lat":33.25}},{"displayName":"Toufflers, FR","country":"FR","name":"Toufflers","_id":6438525,"coord":{"lon":3.23333,"lat":50.666672}},{"displayName":"Toufflers, FR","country":"FR","name":"Toufflers","_id":2972365,"coord":{"lon":3.23358,"lat":50.660389}},{"displayName":"Tougan, BF","country":"BF","name":"Tougan","_id":2354176,"coord":{"lon":-3.06667,"lat":13.06667}},{"displayName":"Touggourt, DZ","country":"DZ","name":"Touggourt","_id":2475475,"coord":{"lon":6.05796,"lat":33.10527}},{"displayName":"Toughkenamon, US","country":"US","name":"Toughkenamon","_id":4561755,"coord":{"lon":-75.757439,"lat":39.831501}},{"displayName":"Tougue, GN","country":"GN","name":"Tougue","_id":2414545,"coord":{"lon":-11.68333,"lat":11.45}},{"displayName":"Tougues, PT","country":"PT","name":"Tougues","_id":8012924,"coord":{"lon":-8.70077,"lat":41.36013}},{"displayName":"Tougues, PT","country":"PT","name":"Tougues","_id":2733459,"coord":{"lon":-8.69866,"lat":41.362358}},{"displayName":"Touguinha, PT","country":"PT","name":"Touguinha","_id":8012925,"coord":{"lon":-8.71782,"lat":41.374779}},{"displayName":"Touguinha, PT","country":"PT","name":"Touguinha","_id":2733458,"coord":{"lon":-8.71608,"lat":41.374802}},{"displayName":"Touguinho, PT","country":"PT","name":"Touguinho","_id":2733457,"coord":{"lon":-8.69986,"lat":41.382462}},{"displayName":"Touguinhó, PT","country":"PT","name":"Touguinhó","_id":8012926,"coord":{"lon":-8.71,"lat":41.384411}},{"displayName":"Touho, NC","country":"NC","name":"Touho","_id":2137869,"coord":{"lon":165.242264,"lat":-20.785971}},{"displayName":"Touho, NC","country":"NC","name":"Touho","_id":2137873,"coord":{"lon":165.233337,"lat":-20.783331}},{"displayName":"Toukh, EG","country":"EG","name":"Toukh","_id":347236,"coord":{"lon":31.20071,"lat":30.353939}},{"displayName":"Toul, FR","country":"FR","name":"Toul","_id":6454314,"coord":{"lon":5.9,"lat":48.683331}},{"displayName":"Toul, FR","country":"FR","name":"Toul","_id":2972350,"coord":{"lon":5.9,"lat":48.683331}},{"displayName":"Toulat, FR","country":"FR","name":"Toulat","_id":2972343,"coord":{"lon":2.45424,"lat":45.28751}},{"displayName":"Toulaud, FR","country":"FR","name":"Toulaud","_id":6425867,"coord":{"lon":4.81667,"lat":44.900002}},{"displayName":"Toulaud, FR","country":"FR","name":"Toulaud","_id":2972342,"coord":{"lon":4.81721,"lat":44.900089}},{"displayName":"Toulenne, FR","country":"FR","name":"Toulenne","_id":6432489,"coord":{"lon":-0.26667,"lat":44.549999}},{"displayName":"Toulenne, FR","country":"FR","name":"Toulenne","_id":2972339,"coord":{"lon":-0.26328,"lat":44.556648}},{"displayName":"Toulepleu Guere, CI","country":"CI","name":"Toulepleu Guere","_id":2280333,"coord":{"lon":-8.42592,"lat":6.57395}},{"displayName":"Toulon, FR","country":"FR","name":"Toulon","_id":6612862,"coord":{"lon":5.93333,"lat":43.116669}},{"displayName":"Toulon, FR","country":"FR","name":"Toulon","_id":2972328,"coord":{"lon":5.93333,"lat":43.116669}},{"displayName":"Toulon, US","country":"US","name":"Toulon","_id":4913799,"coord":{"lon":-89.86483,"lat":41.093651}},{"displayName":"Toulon-sur-Allier, FR","country":"FR","name":"Toulon-sur-Allier","_id":6425491,"coord":{"lon":3.35993,"lat":46.518452}},{"displayName":"Toulon-sur-Allier, FR","country":"FR","name":"Toulon-sur-Allier","_id":2972321,"coord":{"lon":3.35989,"lat":46.518452}},{"displayName":"Toulon-sur-Arroux, FR","country":"FR","name":"Toulon-sur-Arroux","_id":6442512,"coord":{"lon":4.13333,"lat":46.683331}},{"displayName":"Toulon-sur-Arroux, FR","country":"FR","name":"Toulon-sur-Arroux","_id":2972320,"coord":{"lon":4.13869,"lat":46.693451}},{"displayName":"Toulouges, FR","country":"FR","name":"Toulouges","_id":6441048,"coord":{"lon":2.83333,"lat":42.666672}},{"displayName":"Toulouges, FR","country":"FR","name":"Toulouges","_id":2972317,"coord":{"lon":2.83008,"lat":42.669609}},{"displayName":"Toulouse, FR","country":"FR","name":"Toulouse","_id":6453974,"coord":{"lon":1.44367,"lat":43.604259}},{"displayName":"Toulouse, FR","country":"FR","name":"Toulouse","_id":2972315,"coord":{"lon":1.44367,"lat":43.604259}},{"displayName":"Toulouzette, FR","country":"FR","name":"Toulouzette","_id":6434007,"coord":{"lon":-0.68333,"lat":43.75}},{"displayName":"Toulouzette, FR","country":"FR","name":"Toulouzette","_id":2972312,"coord":{"lon":-0.68538,"lat":43.756069}},{"displayName":"Toumboudrané, ML","country":"ML","name":"Toumboudrané","_id":6779095,"coord":{"lon":-7.25946,"lat":15.2055}},{"displayName":"Toumodi, CI","country":"CI","name":"Toumodi","_id":2280316,"coord":{"lon":-5.01575,"lat":6.56128}},{"displayName":"Toungo, NG","country":"NG","name":"Toungo","_id":2321926,"coord":{"lon":12.05,"lat":8.11667}},{"displayName":"Toupah, CI","country":"CI","name":"Toupah","_id":2280289,"coord":{"lon":-4.57,"lat":5.31639}},{"displayName":"Toupi, CN","country":"CN","name":"Toupi","_id":7454443,"coord":{"lon":116.19268,"lat":26.75605}},{"displayName":"Toupopu, ID","country":"ID","name":"Toupopu","_id":7456203,"coord":{"lon":119.471703,"lat":-9.7028}},{"displayName":"Touques, FR","country":"FR","name":"Touques","_id":6453483,"coord":{"lon":0.1,"lat":49.333328}},{"displayName":"Touques, FR","country":"FR","name":"Touques","_id":2972307,"coord":{"lon":0.10218,"lat":49.344429}},{"displayName":"Touquettes, FR","country":"FR","name":"Touquettes","_id":6439327,"coord":{"lon":0.41667,"lat":48.799999}},{"displayName":"Touquettes, FR","country":"FR","name":"Touquettes","_id":2972302,"coord":{"lon":0.42296,"lat":48.79784}},{"displayName":"Touquin, FR","country":"FR","name":"Touquin","_id":6443874,"coord":{"lon":3.01667,"lat":48.73333}},{"displayName":"Touquin, FR","country":"FR","name":"Touquin","_id":2972301,"coord":{"lon":3.01222,"lat":48.734982}},{"displayName":"Tourais, PT","country":"PT","name":"Tourais","_id":8012263,"coord":{"lon":-7.75975,"lat":40.459942}},{"displayName":"Tourais, PT","country":"PT","name":"Tourais","_id":2733456,"coord":{"lon":-7.75011,"lat":40.47142}},{"displayName":"Tourbes, FR","country":"FR","name":"Tourbes","_id":6432669,"coord":{"lon":3.38333,"lat":43.450001}},{"displayName":"Tourbes, FR","country":"FR","name":"Tourbes","_id":2972288,"coord":{"lon":3.37852,"lat":43.446152}},{"displayName":"Tourcoing, FR","country":"FR","name":"Tourcoing","_id":6438526,"coord":{"lon":3.15,"lat":50.716671}},{"displayName":"Tourcoing, FR","country":"FR","name":"Tourcoing","_id":2972284,"coord":{"lon":3.16117,"lat":50.723911}},{"displayName":"Tourelhe, PT","country":"PT","name":"Tourelhe","_id":2733454,"coord":{"lon":-8.14993,"lat":40.682652}},{"displayName":"Tourello, AU","country":"AU","name":"Tourello","_id":2146186,"coord":{"lon":143.783325,"lat":-37.349998}},{"displayName":"Tourgeville, FR","country":"FR","name":"Tourgeville","_id":2972271,"coord":{"lon":0.0704,"lat":49.32135}},{"displayName":"Tourgéville, FR","country":"FR","name":"Tourgéville","_id":6613768,"coord":{"lon":0.06667,"lat":49.316669}},{"displayName":"Tourim, PT","country":"PT","name":"Tourim","_id":2733451,"coord":{"lon":-8.43289,"lat":41.846748}},{"displayName":"Tourlaville, FR","country":"FR","name":"Tourlaville","_id":2972270,"coord":{"lon":-1.56639,"lat":49.638279}},{"displayName":"Tourliac, FR","country":"FR","name":"Tourliac","_id":6435107,"coord":{"lon":0.81667,"lat":44.683331}},{"displayName":"Tourliac, FR","country":"FR","name":"Tourliac","_id":2972269,"coord":{"lon":0.80873,"lat":44.686039}},{"displayName":"Tourmi, FR","country":"FR","name":"Tourmi","_id":2972264,"coord":{"lon":0.61796,"lat":44.57885}},{"displayName":"Tournai, BE","country":"BE","name":"Tournai","_id":2785342,"coord":{"lon":3.41943,"lat":50.618389}},{"displayName":"Tournai, BE","country":"BE","name":"Tournai","_id":2785341,"coord":{"lon":3.38932,"lat":50.607151}},{"displayName":"Tournai-sur-Dive, FR","country":"FR","name":"Tournai-sur-Dive","_id":6617269,"coord":{"lon":0.0467,"lat":48.811501}},{"displayName":"Tournai-sur-Dive, FR","country":"FR","name":"Tournai-sur-Dive","_id":2972255,"coord":{"lon":0.05,"lat":48.816669}},{"displayName":"Tournan-en-Brie, FR","country":"FR","name":"Tournan-en-Brie","_id":6443875,"coord":{"lon":2.76667,"lat":48.73333}},{"displayName":"Tournan-en-Brie, FR","country":"FR","name":"Tournan-en-Brie","_id":2972253,"coord":{"lon":2.772,"lat":48.741459}},{"displayName":"Tournay, BE","country":"BE","name":"Tournay","_id":2785336,"coord":{"lon":5.65,"lat":50.700001}},{"displayName":"Tournay, FR","country":"FR","name":"Tournay","_id":6440945,"coord":{"lon":0.25,"lat":43.183331}},{"displayName":"Tournay, FR","country":"FR","name":"Tournay","_id":2972248,"coord":{"lon":0.24454,"lat":43.18438}},{"displayName":"Tournay-sur-Odon, FR","country":"FR","name":"Tournay-sur-Odon","_id":6427525,"coord":{"lon":-0.58333,"lat":49.099998}},{"displayName":"Tournay-sur-Odon, FR","country":"FR","name":"Tournay-sur-Odon","_id":2972246,"coord":{"lon":-0.60023,"lat":49.104759}},{"displayName":"Tournebu, FR","country":"FR","name":"Tournebu","_id":6427526,"coord":{"lon":-0.33333,"lat":48.966671}},{"displayName":"Tournebu, FR","country":"FR","name":"Tournebu","_id":2972242,"coord":{"lon":-0.34049,"lat":48.96941}},{"displayName":"Tournefeuille, FR","country":"FR","name":"Tournefeuille","_id":6431860,"coord":{"lon":1.35,"lat":43.583328}},{"displayName":"Tournefeuille, FR","country":"FR","name":"Tournefeuille","_id":2972237,"coord":{"lon":1.31922,"lat":43.588718}},{"displayName":"Tournehem-sur-la-Hem, FR","country":"FR","name":"Tournehem-sur-la-Hem","_id":6617301,"coord":{"lon":2.0492,"lat":50.806801}},{"displayName":"Tournehem-sur-la-Hem, FR","country":"FR","name":"Tournehem-sur-la-Hem","_id":2972235,"coord":{"lon":2.05,"lat":50.799999}},{"displayName":"Tournemire, FR","country":"FR","name":"Tournemire","_id":6427669,"coord":{"lon":2.41667,"lat":45.049999}},{"displayName":"Tournemire, FR","country":"FR","name":"Tournemire","_id":2972230,"coord":{"lon":2.41667,"lat":45.049999}},{"displayName":"Tournes, FR","country":"FR","name":"Tournes","_id":6426145,"coord":{"lon":4.63333,"lat":49.799999}},{"displayName":"Tournes, FR","country":"FR","name":"Tournes","_id":2972229,"coord":{"lon":4.63856,"lat":49.797001}},{"displayName":"Tournières, FR","country":"FR","name":"Tournières","_id":6427527,"coord":{"lon":-0.93333,"lat":49.23333}},{"displayName":"Tournières, FR","country":"FR","name":"Tournières","_id":2972220,"coord":{"lon":-0.93119,"lat":49.23262}},{"displayName":"Tournon-d\u0027Agenais, FR","country":"FR","name":"Tournon-d\u0027Agenais","_id":6435108,"coord":{"lon":1.0,"lat":44.400002}},{"displayName":"Tournon-d\u0027Agenais, FR","country":"FR","name":"Tournon-d\u0027Agenais","_id":2972210,"coord":{"lon":0.99619,"lat":44.40036}},{"displayName":"Tournon-Saint-Martin, FR","country":"FR","name":"Tournon-Saint-Martin","_id":6432997,"coord":{"lon":0.95,"lat":46.73333}},{"displayName":"Tournon-Saint-Martin, FR","country":"FR","name":"Tournon-Saint-Martin","_id":2972209,"coord":{"lon":0.95514,"lat":46.73423}},{"displayName":"Tournon-sur-Rhone, FR","country":"FR","name":"Tournon-sur-Rhone","_id":2972214,"coord":{"lon":4.83333,"lat":45.066669}},{"displayName":"Tournon-sur-Rhône, FR","country":"FR","name":"Tournon-sur-Rhône","_id":6612251,"coord":{"lon":4.83333,"lat":45.066669}},{"displayName":"Tournus, FR","country":"FR","name":"Tournus","_id":6442513,"coord":{"lon":4.9,"lat":46.566669}},{"displayName":"Tournus, FR","country":"FR","name":"Tournus","_id":2972203,"coord":{"lon":4.90574,"lat":46.567581}},{"displayName":"Touro, BR","country":"BR","name":"Touro","_id":3446273,"coord":{"lon":-39.216671,"lat":-12.73333}},{"displayName":"Touro, ES","country":"ES","name":"Touro","_id":6357352,"coord":{"lon":-8.30443,"lat":42.84713}},{"displayName":"Touro, ES","country":"ES","name":"Touro","_id":3107653,"coord":{"lon":-8.30764,"lat":42.868118}},{"displayName":"Touro, PT","country":"PT","name":"Touro","_id":8013980,"coord":{"lon":-7.73954,"lat":40.906891}},{"displayName":"Touro, PT","country":"PT","name":"Touro","_id":2733449,"coord":{"lon":-7.74787,"lat":40.896191}},{"displayName":"Touros, BR","country":"BR","name":"Touros","_id":3386213,"coord":{"lon":-35.460831,"lat":-5.19889}},{"displayName":"Tourouvre, FR","country":"FR","name":"Tourouvre","_id":6439328,"coord":{"lon":0.66667,"lat":48.583328}},{"displayName":"Tourouvre, FR","country":"FR","name":"Tourouvre","_id":2972201,"coord":{"lon":0.65252,"lat":48.589512}},{"displayName":"Tourrette-Levens, FR","country":"FR","name":"Tourrette-Levens","_id":6425691,"coord":{"lon":7.26667,"lat":43.783329}},{"displayName":"Tourrette-Levens, FR","country":"FR","name":"Tourrette-Levens","_id":2972195,"coord":{"lon":7.27364,"lat":43.78746}},{"displayName":"Tourrettes-sur-Loup, FR","country":"FR","name":"Tourrettes-sur-Loup","_id":6618141,"coord":{"lon":7.0604,"lat":43.715698}},{"displayName":"Tourrettes-sur-Loup, FR","country":"FR","name":"Tourrettes-sur-Loup","_id":2972273,"coord":{"lon":7.05,"lat":43.716671}},{"displayName":"Tourriers, FR","country":"FR","name":"Tourriers","_id":6427878,"coord":{"lon":0.18333,"lat":45.799999}},{"displayName":"Tourriers, FR","country":"FR","name":"Tourriers","_id":2972194,"coord":{"lon":0.19171,"lat":45.79718}},{"displayName":"Tours, FR","country":"FR","name":"Tours","_id":6454060,"coord":{"lon":0.68901,"lat":47.39019}},{"displayName":"Tours, FR","country":"FR","name":"Tours","_id":2972191,"coord":{"lon":0.68333,"lat":47.383331}},{"displayName":"Tours-sur-Marne, FR","country":"FR","name":"Tours-sur-Marne","_id":6436049,"coord":{"lon":4.11667,"lat":49.049999}},{"displayName":"Tours-sur-Marne, FR","country":"FR","name":"Tours-sur-Marne","_id":2972186,"coord":{"lon":4.1206,"lat":49.048729}},{"displayName":"Tours-sur-Meymont, FR","country":"FR","name":"Tours-sur-Meymont","_id":6440255,"coord":{"lon":3.58333,"lat":45.666672}},{"displayName":"Tours-sur-Meymont, FR","country":"FR","name":"Tours-sur-Meymont","_id":2972185,"coord":{"lon":3.57615,"lat":45.6745}},{"displayName":"Tourtoirac, FR","country":"FR","name":"Tourtoirac","_id":6429662,"coord":{"lon":1.06667,"lat":45.26667}},{"displayName":"Tourtoirac, FR","country":"FR","name":"Tourtoirac","_id":2972178,"coord":{"lon":1.05878,"lat":45.270081}},{"displayName":"Tourtrès, FR","country":"FR","name":"Tourtrès","_id":6435109,"coord":{"lon":0.43333,"lat":44.5}},{"displayName":"Tourtrès, FR","country":"FR","name":"Tourtrès","_id":2972171,"coord":{"lon":0.42948,"lat":44.5056}},{"displayName":"Tourves, FR","country":"FR","name":"Tourves","_id":6445078,"coord":{"lon":5.93333,"lat":43.400002}},{"displayName":"Tourves, FR","country":"FR","name":"Tourves","_id":2972168,"coord":{"lon":5.92415,"lat":43.407761}},{"displayName":"Tourville-la-Riviere, FR","country":"FR","name":"Tourville-la-Riviere","_id":2972163,"coord":{"lon":1.10551,"lat":49.32782}},{"displayName":"Tourville-la-Rivière, FR","country":"FR","name":"Tourville-la-Rivière","_id":6443557,"coord":{"lon":1.1,"lat":49.333328}},{"displayName":"Tourville-sur-Arques, FR","country":"FR","name":"Tourville-sur-Arques","_id":6443559,"coord":{"lon":1.1,"lat":49.849998}},{"displayName":"Tourville-sur-Arques, FR","country":"FR","name":"Tourville-sur-Arques","_id":2972161,"coord":{"lon":1.10238,"lat":49.859261}},{"displayName":"Tourville-sur-Odon, FR","country":"FR","name":"Tourville-sur-Odon","_id":6427529,"coord":{"lon":-0.5,"lat":49.133331}},{"displayName":"Tourville-sur-Odon, FR","country":"FR","name":"Tourville-sur-Odon","_id":2972160,"coord":{"lon":-0.50128,"lat":49.141541}},{"displayName":"Tourville-sur-Sienne, FR","country":"FR","name":"Tourville-sur-Sienne","_id":6435683,"coord":{"lon":-1.55,"lat":49.049999}},{"displayName":"Tourville-sur-Sienne, FR","country":"FR","name":"Tourville-sur-Sienne","_id":2972158,"coord":{"lon":-1.54839,"lat":49.04591}},{"displayName":"Toury, FR","country":"FR","name":"Toury","_id":6616339,"coord":{"lon":1.9367,"lat":48.194099}},{"displayName":"Toury, FR","country":"FR","name":"Toury","_id":2972156,"coord":{"lon":1.93484,"lat":48.19397}},{"displayName":"Tourzel-Ronzières, FR","country":"FR","name":"Tourzel-Ronzières","_id":6440256,"coord":{"lon":3.13333,"lat":45.533329}},{"displayName":"Tourzel-Ronzières, FR","country":"FR","name":"Tourzel-Ronzières","_id":2972151,"coord":{"lon":3.12977,"lat":45.526909}},{"displayName":"Touré, SN","country":"SN","name":"Touré","_id":2244221,"coord":{"lon":-16.066669,"lat":14.51667}},{"displayName":"Tourém, PT","country":"PT","name":"Tourém","_id":8013642,"coord":{"lon":-7.90251,"lat":41.89296}},{"displayName":"Tourém, PT","country":"PT","name":"Tourém","_id":2733453,"coord":{"lon":-7.8973,"lat":41.906342}},{"displayName":"Tourón, ES","country":"ES","name":"Tourón","_id":3107651,"coord":{"lon":-8.52612,"lat":42.402039}},{"displayName":"Tous, ES","country":"ES","name":"Tous","_id":6362111,"coord":{"lon":-0.64599,"lat":39.160149}},{"displayName":"Tous, ES","country":"ES","name":"Tous","_id":2510221,"coord":{"lon":-0.58777,"lat":39.139511}},{"displayName":"Toussieu, FR","country":"FR","name":"Toussieu","_id":6441840,"coord":{"lon":4.98333,"lat":45.650002}},{"displayName":"Toussieu, FR","country":"FR","name":"Toussieu","_id":2972146,"coord":{"lon":4.98618,"lat":45.653709}},{"displayName":"Toussus-le-Noble, FR","country":"FR","name":"Toussus-le-Noble","_id":6444089,"coord":{"lon":2.11667,"lat":48.75}},{"displayName":"Toussus-le-Noble, FR","country":"FR","name":"Toussus-le-Noble","_id":2972143,"coord":{"lon":2.11341,"lat":48.74926}},{"displayName":"Toutainville, FR","country":"FR","name":"Toutainville","_id":6430671,"coord":{"lon":0.46667,"lat":49.366669}},{"displayName":"Toutainville, FR","country":"FR","name":"Toutainville","_id":2972142,"coord":{"lon":0.46538,"lat":49.364738}},{"displayName":"Toutlemonde, FR","country":"FR","name":"Toutlemonde","_id":6435337,"coord":{"lon":-0.76667,"lat":47.049999}},{"displayName":"Toutlemonde, FR","country":"FR","name":"Toutlemonde","_id":2972137,"coord":{"lon":-0.76548,"lat":47.054878}},{"displayName":"Touvois, FR","country":"FR","name":"Touvois","_id":6612553,"coord":{"lon":-1.68333,"lat":46.900002}},{"displayName":"Touvois, FR","country":"FR","name":"Touvois","_id":2972128,"coord":{"lon":-1.68333,"lat":46.902081}},{"displayName":"Touvre, FR","country":"FR","name":"Touvre","_id":6453718,"coord":{"lon":0.25,"lat":45.666672}},{"displayName":"Touvre, FR","country":"FR","name":"Touvre","_id":2972126,"coord":{"lon":0.25,"lat":45.666672}},{"displayName":"Touying, CN","country":"CN","name":"Touying","_id":1792484,"coord":{"lon":117.21833,"lat":39.96389}},{"displayName":"Touying, CN","country":"CN","name":"Touying","_id":1792485,"coord":{"lon":106.218452,"lat":36.164848}},{"displayName":"Touzao, CN","country":"CN","name":"Touzao","_id":1792482,"coord":{"lon":120.54924,"lat":32.889229}},{"displayName":"Touzim, CZ","country":"CZ","name":"Touzim","_id":3064145,"coord":{"lon":12.98506,"lat":50.06049}},{"displayName":"Tovacov, CZ","country":"CZ","name":"Tovacov","_id":3064143,"coord":{"lon":17.287951,"lat":49.430828}},{"displayName":"Tovar, VE","country":"VE","name":"Tovar","_id":3626046,"coord":{"lon":-66.133331,"lat":10.36667}},{"displayName":"Tovar, VE","country":"VE","name":"Tovar","_id":3626047,"coord":{"lon":-71.751183,"lat":8.33204}},{"displayName":"Tovariševo, RS","country":"RS","name":"Tovariševo","_id":3188949,"coord":{"lon":19.325001,"lat":45.353611}},{"displayName":"Tovarkovo, RU","country":"RU","name":"Tovarkovo","_id":481941,"coord":{"lon":35.938599,"lat":54.67617}},{"displayName":"Tovarkovskiy, RU","country":"RU","name":"Tovarkovskiy","_id":481938,"coord":{"lon":38.209202,"lat":53.682171}},{"displayName":"Tovarnik, HR","country":"HR","name":"Tovarnik","_id":3188946,"coord":{"lon":19.151939,"lat":45.165001}},{"displayName":"Tovo di SantAgata, IT","country":"IT","name":"Tovo di SantAgata","_id":6535140,"coord":{"lon":10.24856,"lat":46.246101}},{"displayName":"Tovo San Giacomo, IT","country":"IT","name":"Tovo San Giacomo","_id":6535087,"coord":{"lon":8.27045,"lat":44.17593}},{"displayName":"Tovste, UA","country":"UA","name":"Tovste","_id":691444,"coord":{"lon":25.72621,"lat":48.846619}},{"displayName":"Tovuz Rayon, AZ","country":"AZ","name":"Tovuz Rayon","_id":584861,"coord":{"lon":45.75,"lat":41.0}},{"displayName":"Tovuz, AZ","country":"AZ","name":"Tovuz","_id":584821,"coord":{"lon":45.628891,"lat":40.992222}},{"displayName":"Tow Law, GB","country":"GB","name":"Tow Law","_id":2635590,"coord":{"lon":-1.81434,"lat":54.74456}},{"displayName":"Towama, SL","country":"SL","name":"Towama","_id":2403268,"coord":{"lon":-11.77167,"lat":7.92889}},{"displayName":"Towamba, AU","country":"AU","name":"Towamba","_id":2146180,"coord":{"lon":149.683334,"lat":-37.083328}},{"displayName":"Towamensing Trails, US","country":"US","name":"Towamensing Trails","_id":5215856,"coord":{"lon":-75.584633,"lat":41.00787}},{"displayName":"Towanda, US","country":"US","name":"Towanda","_id":4280531,"coord":{"lon":-96.999763,"lat":37.79752}},{"displayName":"Towanda, US","country":"US","name":"Towanda","_id":5215859,"coord":{"lon":-76.442719,"lat":41.767578}},{"displayName":"Towaoc, US","country":"US","name":"Towaoc","_id":5441792,"coord":{"lon":-108.729538,"lat":37.204441}},{"displayName":"Towcester, GB","country":"GB","name":"Towcester","_id":2635597,"coord":{"lon":-0.99057,"lat":52.133591}},{"displayName":"Towdystan, CA","country":"CA","name":"Towdystan","_id":6168072,"coord":{"lon":-125.086372,"lat":52.26646}},{"displayName":"Tower City, US","country":"US","name":"Tower City","_id":5215886,"coord":{"lon":-76.55246,"lat":40.589249}},{"displayName":"Tower Hamlets, GB","country":"GB","name":"Tower Hamlets","_id":2635594,"coord":{"lon":-0.05,"lat":51.51667}},{"displayName":"Tower Hill, AU","country":"AU","name":"Tower Hill","_id":2146165,"coord":{"lon":142.350006,"lat":-38.333328}},{"displayName":"Tower Lake, US","country":"US","name":"Tower Lake","_id":4913816,"coord":{"lon":-88.152023,"lat":42.231972}},{"displayName":"Tower, IE","country":"IE","name":"Tower","_id":2961129,"coord":{"lon":-8.6,"lat":51.916672}},{"displayName":"Towitta, AU","country":"AU","name":"Towitta","_id":2059956,"coord":{"lon":139.25,"lat":-34.533329}},{"displayName":"Town and Country Mobile Home Park, US","country":"US","name":"Town and Country Mobile Home Park","_id":5403106,"coord":{"lon":-116.974747,"lat":32.83255}},{"displayName":"Town and Country Mobile Village, US","country":"US","name":"Town and Country Mobile Village","_id":7225018,"coord":{"lon":-85.602783,"lat":44.741669}},