[{"displayName":"Yamparáez, BO","country":"BO","name":"Yamparáez","_id":6621221,"coord":{"lon":-65.077713,"lat":-19.251459}},{"displayName":"Yampil, UA","country":"UA","name":"Yampil","_id":688501,"coord":{"lon":33.783333,"lat":51.950001}},{"displayName":"Yamrat, NG","country":"NG","name":"Yamrat","_id":2318399,"coord":{"lon":9.82604,"lat":10.11161}},{"displayName":"Yamunanagar, IN","country":"IN","name":"Yamunanagar","_id":1252797,"coord":{"lon":77.283333,"lat":30.1}},{"displayName":"Yan Nawa, TH","country":"TH","name":"Yan Nawa","_id":1604792,"coord":{"lon":100.542122,"lat":13.69634}},{"displayName":"Yan Ta Khao, TH","country":"TH","name":"Yan Ta Khao","_id":1149757,"coord":{"lon":99.666924,"lat":7.38622}},{"displayName":"Yana, RU","country":"RU","name":"Yana","_id":2116271,"coord":{"lon":149.386932,"lat":59.738331}},{"displayName":"Yanac, AU","country":"AU","name":"Yanac","_id":2142624,"coord":{"lon":141.433334,"lat":-36.133331}},{"displayName":"Yanacancha, PE","country":"PE","name":"Yanacancha","_id":3925863,"coord":{"lon":-76.645561,"lat":-10.24111}},{"displayName":"Yanacocha, EC","country":"EC","name":"Yanacocha","_id":3650095,"coord":{"lon":-79.216667,"lat":-3.98333}},{"displayName":"Yanada, JP","country":"JP","name":"Yanada","_id":1848575,"coord":{"lon":139.483337,"lat":36.299999}},{"displayName":"Yanagawa, JP","country":"JP","name":"Yanagawa","_id":2110538,"coord":{"lon":140.600006,"lat":37.849998}},{"displayName":"Yanagawa, JP","country":"JP","name":"Yanagawa","_id":1848573,"coord":{"lon":130.399994,"lat":33.166672}},{"displayName":"Yanahuanca, PE","country":"PE","name":"Yanahuanca","_id":3925809,"coord":{"lon":-76.498611,"lat":-10.51667}},{"displayName":"Yanai, JP","country":"JP","name":"Yanai","_id":1848550,"coord":{"lon":132.116669,"lat":33.966671}},{"displayName":"Yanam, IN","country":"IN","name":"Yanam","_id":1252795,"coord":{"lon":82.216667,"lat":16.73333}},{"displayName":"Yanamalakuduru, IN","country":"IN","name":"Yanamalakuduru","_id":7302853,"coord":{"lon":80.667458,"lat":16.48531}},{"displayName":"Yanaoca, PE","country":"PE","name":"Yanaoca","_id":3925749,"coord":{"lon":-71.431671,"lat":-14.21806}},{"displayName":"Yanaul, RU","country":"RU","name":"Yanaul","_id":469178,"coord":{"lon":54.930859,"lat":56.2719}},{"displayName":"Yanaul, RU","country":"RU","name":"Yanaul","_id":469181,"coord":{"lon":53.683331,"lat":55.75}},{"displayName":"Yanbanpu, CN","country":"CN","name":"Yanbanpu","_id":1927962,"coord":{"lon":109.832733,"lat":29.091459}},{"displayName":"Yanbei, CN","country":"CN","name":"Yanbei","_id":1920412,"coord":{"lon":112.822472,"lat":24.27392}},{"displayName":"Yanbei, CN","country":"CN","name":"Yanbei","_id":1925370,"coord":{"lon":115.532341,"lat":27.36974}},{"displayName":"Yanbodu, CN","country":"CN","name":"Yanbodu","_id":1787758,"coord":{"lon":110.96814,"lat":29.37467}},{"displayName":"Yanbu al Bahr, SA","country":"SA","name":"Yanbu al Bahr","_id":100425,"coord":{"lon":38.06374,"lat":24.089121}},{"displayName":"Yancang, CN","country":"CN","name":"Yancang","_id":1898634,"coord":{"lon":122.056938,"lat":30.0329}},{"displayName":"Yancey County, US","country":"US","name":"Yancey County","_id":4500160,"coord":{"lon":-82.29985,"lat":35.900108}},{"displayName":"Yanceyville, US","country":"US","name":"Yanceyville","_id":4500166,"coord":{"lon":-79.336128,"lat":36.40403}},{"displayName":"Yanchekrak, UA","country":"UA","name":"Yanchekrak","_id":706967,"coord":{"lon":35.360279,"lat":47.536388}},{"displayName":"Yancheng, CN","country":"CN","name":"Yancheng","_id":1787746,"coord":{"lon":120.125282,"lat":33.385559}},{"displayName":"Yancheng, CN","country":"CN","name":"Yancheng","_id":1790852,"coord":{"lon":111.869278,"lat":38.915379}},{"displayName":"Yancheng, CN","country":"CN","name":"Yancheng","_id":1805560,"coord":{"lon":104.06723,"lat":29.650681}},{"displayName":"Yancheng, CN","country":"CN","name":"Yancheng","_id":1806483,"coord":{"lon":103.566788,"lat":29.74357}},{"displayName":"Yanchep, AU","country":"AU","name":"Yanchep","_id":2057575,"coord":{"lon":115.683327,"lat":-31.549999}},{"displayName":"Yanchi, CN","country":"CN","name":"Yanchi","_id":1927972,"coord":{"lon":110.929878,"lat":29.799219}},{"displayName":"Yanco, AU","country":"AU","name":"Yanco","_id":2142612,"coord":{"lon":146.399994,"lat":-34.599998}},{"displayName":"Yancun, CN","country":"CN","name":"Yancun","_id":2001855,"coord":{"lon":109.494957,"lat":34.418968}},{"displayName":"Yanda Bayo, NG","country":"NG","name":"Yanda Bayo","_id":2318383,"coord":{"lon":10.7459,"lat":11.5071}},{"displayName":"Yandaran, AU","country":"AU","name":"Yandaran","_id":2142602,"coord":{"lon":152.116669,"lat":-24.716669}},{"displayName":"Yanderra, AU","country":"AU","name":"Yanderra","_id":2142598,"coord":{"lon":150.566666,"lat":-34.333328}},{"displayName":"Yandev, NG","country":"NG","name":"Yandev","_id":2318374,"coord":{"lon":9.05,"lat":7.36667}},{"displayName":"Yandian, CN","country":"CN","name":"Yandian","_id":7653967,"coord":{"lon":113.566521,"lat":31.335171}},{"displayName":"Yandilla, AU","country":"AU","name":"Yandilla","_id":2142596,"coord":{"lon":151.366669,"lat":-27.85}},{"displayName":"Yandina, AU","country":"AU","name":"Yandina","_id":2142595,"coord":{"lon":152.966675,"lat":-26.566669}},{"displayName":"Yandoit, AU","country":"AU","name":"Yandoit","_id":2142592,"coord":{"lon":144.100006,"lat":-37.200001}},{"displayName":"Yandun, CN","country":"CN","name":"Yandun","_id":1552321,"coord":{"lon":118.15757,"lat":30.721741}},{"displayName":"Yanduo, CN","country":"CN","name":"Yanduo","_id":1279592,"coord":{"lon":97.683327,"lat":30.65}},{"displayName":"Yandyki, RU","country":"RU","name":"Yandyki","_id":469151,"coord":{"lon":47.125771,"lat":45.769131}},{"displayName":"Yanfang, CN","country":"CN","name":"Yanfang","_id":7643683,"coord":{"lon":115.70076,"lat":29.22369}},{"displayName":"Yanfeng, CN","country":"CN","name":"Yanfeng","_id":1913971,"coord":{"lon":110.554512,"lat":19.951151}},{"displayName":"Yang Chum Noi, TH","country":"TH","name":"Yang Chum Noi","_id":1604807,"coord":{"lon":104.39769,"lat":15.26453}},{"displayName":"Yang Si Surat, TH","country":"TH","name":"Yang Si Surat","_id":1597130,"coord":{"lon":103.103111,"lat":15.68361}},{"displayName":"Yang Talat, TH","country":"TH","name":"Yang Talat","_id":1604797,"coord":{"lon":103.367851,"lat":16.39982}},{"displayName":"Yanga, CD","country":"CD","name":"Yanga","_id":2310882,"coord":{"lon":13.36667,"lat":-5.35}},{"displayName":"Yanga, MX","country":"MX","name":"Yanga","_id":3514329,"coord":{"lon":-96.800003,"lat":18.83333}},{"displayName":"Yangambi, CD","country":"CD","name":"Yangambi","_id":203717,"coord":{"lon":24.43359,"lat":0.81021}},{"displayName":"Yangan, AU","country":"AU","name":"Yangan","_id":2142589,"coord":{"lon":152.199997,"lat":-28.183331}},{"displayName":"Yangba, CN","country":"CN","name":"Yangba","_id":1787689,"coord":{"lon":106.781914,"lat":32.474628}},{"displayName":"Yangba, CN","country":"CN","name":"Yangba","_id":1914171,"coord":{"lon":105.766434,"lat":33.010269}},{"displayName":"Yangban, CN","country":"CN","name":"Yangban","_id":1928120,"coord":{"lon":111.69075,"lat":29.529961}},{"displayName":"Yangce, CN","country":"CN","name":"Yangce","_id":1787681,"coord":{"lon":113.247063,"lat":32.992851}},{"displayName":"Yangcheng, CN","country":"CN","name":"Yangcheng","_id":1787669,"coord":{"lon":112.64521,"lat":24.4762}},{"displayName":"Yangchun, CN","country":"CN","name":"Yangchun","_id":1814786,"coord":{"lon":111.783333,"lat":22.16667}},{"displayName":"Yangchun, CN","country":"CN","name":"Yangchun","_id":7408081,"coord":{"lon":106.901482,"lat":33.033241}},{"displayName":"Yangcun, CN","country":"CN","name":"Yangcun","_id":1787646,"coord":{"lon":117.06028,"lat":39.363892}},{"displayName":"Yangcun, CN","country":"CN","name":"Yangcun","_id":1787656,"coord":{"lon":114.627991,"lat":24.637341}},{"displayName":"Yangcun, CN","country":"CN","name":"Yangcun","_id":1787657,"coord":{"lon":114.467743,"lat":23.433661}},{"displayName":"Yangdi, CN","country":"CN","name":"Yangdi","_id":1787638,"coord":{"lon":116.328148,"lat":26.048639}},{"displayName":"Yangdian, CN","country":"CN","name":"Yangdian","_id":1787554,"coord":{"lon":106.426559,"lat":33.933319}},{"displayName":"Yangery, AU","country":"AU","name":"Yangery","_id":2142586,"coord":{"lon":142.416672,"lat":-38.316669}},{"displayName":"Yangezhuang, CN","country":"CN","name":"Yangezhuang","_id":1787624,"coord":{"lon":117.690277,"lat":39.996391}},{"displayName":"Yangfangkou, CN","country":"CN","name":"Yangfangkou","_id":1787619,"coord":{"lon":112.330589,"lat":39.100712}},{"displayName":"Yangfanglin, CN","country":"CN","name":"Yangfanglin","_id":1787618,"coord":{"lon":114.363022,"lat":29.484131}},{"displayName":"Yangfeng, CN","country":"CN","name":"Yangfeng","_id":1910073,"coord":{"lon":113.853157,"lat":33.134399}},{"displayName":"Yangfeng, CN","country":"CN","name":"Yangfeng","_id":7636858,"coord":{"lon":116.377647,"lat":29.29108}},{"displayName":"Yanggang, CN","country":"CN","name":"Yanggang","_id":1787610,"coord":{"lon":115.137413,"lat":29.57818}},{"displayName":"Yanggang-do, KP","country":"KP","name":"Yanggang-do","_id":2039332,"coord":{"lon":128.203613,"lat":41.214169}},{"displayName":"Yanggok, KR","country":"KR","name":"Yanggok","_id":1897122,"coord":{"lon":127.214172,"lat":37.636669}},{"displayName":"Yanggu, CN","country":"CN","name":"Yanggu","_id":1787601,"coord":{"lon":115.775284,"lat":36.110561}},{"displayName":"Yanggu, CN","country":"CN","name":"Yanggu","_id":1921672,"coord":{"lon":116.316292,"lat":25.386061}},{"displayName":"Yanggu, KR","country":"KR","name":"Yanggu","_id":1832909,"coord":{"lon":127.989441,"lat":38.105831}},{"displayName":"Yangguang, CN","country":"CN","name":"Yangguang","_id":1787599,"coord":{"lon":102.793892,"lat":24.13722}},{"displayName":"Yangguao, CN","country":"CN","name":"Yangguao","_id":1983170,"coord":{"lon":110.943893,"lat":27.48667}},{"displayName":"Yangguo, CN","country":"CN","name":"Yangguo","_id":1787594,"coord":{"lon":109.51963,"lat":34.355881}},{"displayName":"Yanghe, CN","country":"CN","name":"Yanghe","_id":1787590,"coord":{"lon":113.580887,"lat":31.096251}},{"displayName":"Yanghe, CN","country":"CN","name":"Yanghe","_id":2033916,"coord":{"lon":123.40889,"lat":40.058331}},{"displayName":"Yanghe, CN","country":"CN","name":"Yanghe","_id":7050525,"coord":{"lon":110.704102,"lat":29.26502}},{"displayName":"Yanghong, CN","country":"CN","name":"Yanghong","_id":1787581,"coord":{"lon":108.315163,"lat":34.519581}},{"displayName":"Yanghou, CN","country":"CN","name":"Yanghou","_id":1787580,"coord":{"lon":118.508057,"lat":26.640829}},{"displayName":"Yanghu, CN","country":"CN","name":"Yanghu","_id":1787579,"coord":{"lon":118.297096,"lat":29.70237}},{"displayName":"Yanghuxiang, CN","country":"CN","name":"Yanghuxiang","_id":7328917,"coord":{"lon":115.493248,"lat":28.0229}},{"displayName":"Yangi Mirishkor, UZ","country":"UZ","name":"Yangi Mirishkor","_id":1216490,"coord":{"lon":65.277893,"lat":38.851429}},{"displayName":"Yangi Qalah, AF","country":"AF","name":"Yangi Qalah","_id":1121271,"coord":{"lon":69.611313,"lat":37.465721}},{"displayName":"Yangi-Nishon Shahri, UZ","country":"UZ","name":"Yangi-Nishon Shahri","_id":1346493,"coord":{"lon":65.689522,"lat":38.645012}},{"displayName":"Yangiobod, UZ","country":"UZ","name":"Yangiobod","_id":1512372,"coord":{"lon":70.094063,"lat":41.11919}},{"displayName":"Yangiqorgon, UZ","country":"UZ","name":"Yangiqorgon","_id":1512350,"coord":{"lon":71.73333,"lat":41.187222}},{"displayName":"Yangirabot, UZ","country":"UZ","name":"Yangirabot","_id":1512348,"coord":{"lon":65.960953,"lat":40.025391}},{"displayName":"Yangiyer, UZ","country":"UZ","name":"Yangiyer","_id":1512342,"coord":{"lon":68.822502,"lat":40.275002}},{"displayName":"Yangiyul, UZ","country":"UZ","name":"Yangiyul","_id":1512339,"coord":{"lon":69.047096,"lat":41.112019}},{"displayName":"Yangiyŭl Shahri, UZ","country":"UZ","name":"Yangiyŭl Shahri","_id":1538262,"coord":{"lon":69.055,"lat":41.113331}},{"displayName":"Yangji, CN","country":"CN","name":"Yangji","_id":1787538,"coord":{"lon":112.994919,"lat":31.218941}},{"displayName":"Yangji, CN","country":"CN","name":"Yangji","_id":7069747,"coord":{"lon":112.992569,"lat":33.327209}},{"displayName":"Yangjia, CN","country":"CN","name":"Yangjia","_id":1811481,"coord":{"lon":121.467323,"lat":30.104429}},{"displayName":"Yangjiachang, CN","country":"CN","name":"Yangjiachang","_id":1787557,"coord":{"lon":112.284767,"lat":30.06632}},{"displayName":"Yangjiafang, CN","country":"CN","name":"Yangjiafang","_id":1928100,"coord":{"lon":111.357529,"lat":29.755699}},{"displayName":"Yangjiaji, CN","country":"CN","name":"Yangjiaji","_id":1909481,"coord":{"lon":113.338448,"lat":32.829479}},{"displayName":"Yangjialusanqiu, CN","country":"CN","name":"Yangjialusanqiu","_id":7530465,"coord":{"lon":121.067947,"lat":30.219641}},{"displayName":"Yangjian, CN","country":"CN","name":"Yangjian","_id":1898130,"coord":{"lon":120.55632,"lat":31.62575}},{"displayName":"Yangjiang, CN","country":"CN","name":"Yangjiang","_id":1806408,"coord":{"lon":111.966667,"lat":21.85}},{"displayName":"Yangjiang, CN","country":"CN","name":"Yangjiang","_id":1787531,"coord":{"lon":114.53405,"lat":27.856581}},{"displayName":"Yangjiang, CN","country":"CN","name":"Yangjiang","_id":1894135,"coord":{"lon":110.343117,"lat":19.100889}},{"displayName":"Yangjiang, CN","country":"CN","name":"Yangjiang","_id":6957984,"coord":{"lon":118.804909,"lat":31.332371}},{"displayName":"Yangjiapo, CN","country":"CN","name":"Yangjiapo","_id":1787521,"coord":{"lon":117.887497,"lat":39.29417}},{"displayName":"Yangjiapu, CN","country":"CN","name":"Yangjiapu","_id":7404519,"coord":{"lon":123.330971,"lat":40.192791}},{"displayName":"Yangjinzhuang, CN","country":"CN","name":"Yangjinzhuang","_id":1787481,"coord":{"lon":117.398064,"lat":39.884998}},{"displayName":"Yangju, KR","country":"KR","name":"Yangju","_id":1832847,"coord":{"lon":127.061691,"lat":37.833111}},{"displayName":"Yangla, CN","country":"CN","name":"Yangla","_id":6643953,"coord":{"lon":99.1278,"lat":28.94183}},{"displayName":"Yanglang, CN","country":"CN","name":"Yanglang","_id":1787470,"coord":{"lon":106.169701,"lat":36.225681}},{"displayName":"Yanglin, CN","country":"CN","name":"Yanglin","_id":7064737,"coord":{"lon":117.691879,"lat":28.141171}},{"displayName":"Yanglin, CN","country":"CN","name":"Yanglin","_id":7630159,"coord":{"lon":127.131554,"lat":46.077599}},{"displayName":"Yangling, CN","country":"CN","name":"Yangling","_id":1787458,"coord":{"lon":108.078911,"lat":34.271729}},{"displayName":"Yanglinjie, CN","country":"CN","name":"Yanglinjie","_id":1793662,"coord":{"lon":113.590897,"lat":39.00898}},{"displayName":"Yanglinshi, CN","country":"CN","name":"Yanglinshi","_id":1787455,"coord":{"lon":111.775551,"lat":29.97875}},{"displayName":"Yangliu, CN","country":"CN","name":"Yangliu","_id":1787438,"coord":{"lon":118.611732,"lat":30.83795}},{"displayName":"Yangliuqing, CN","country":"CN","name":"Yangliuqing","_id":1787437,"coord":{"lon":116.999718,"lat":39.137501}},{"displayName":"Yanglu, CN","country":"CN","name":"Yanglu","_id":1787421,"coord":{"lon":106.14164,"lat":36.636551}},{"displayName":"Yanglu, CN","country":"CN","name":"Yanglu","_id":7516123,"coord":{"lon":106.14164,"lat":36.636551}},{"displayName":"Yangmaogong, CN","country":"CN","name":"Yangmaogong","_id":1538461,"coord":{"lon":87.577217,"lat":44.136669}},{"displayName":"Yangmei, CN","country":"CN","name":"Yangmei","_id":1787409,"coord":{"lon":112.56176,"lat":24.10231}},{"displayName":"Yangmen, CN","country":"CN","name":"Yangmen","_id":7658382,"coord":{"lon":114.397102,"lat":27.135469}},{"displayName":"Yangming, CN","country":"CN","name":"Yangming","_id":1787397,"coord":{"lon":114.934402,"lat":24.45088}},{"displayName":"Yangmingbu, CN","country":"CN","name":"Yangmingbu","_id":1787395,"coord":{"lon":112.872223,"lat":39.012501}},{"displayName":"Yangmulinzi, CN","country":"CN","name":"Yangmulinzi","_id":2033489,"coord":{"lon":130.496384,"lat":42.902222}},{"displayName":"Yangon Division, MM","country":"MM","name":"Yangon Division","_id":1298822,"coord":{"lon":96.166672,"lat":17.0}},{"displayName":"Yangong, CN","country":"CN","name":"Yangong","_id":7638021,"coord":{"lon":118.450188,"lat":30.65062}},{"displayName":"Yangping, CN","country":"CN","name":"Yangping","_id":1787384,"coord":{"lon":107.489861,"lat":34.337898}},{"displayName":"Yangpingguan, CN","country":"CN","name":"Yangpingguan","_id":1787381,"coord":{"lon":106.053978,"lat":32.962318}},{"displayName":"Yangpu, CN","country":"CN","name":"Yangpu","_id":1787375,"coord":{"lon":121.519043,"lat":31.26193}},{"displayName":"Yangpyong, KR","country":"KR","name":"Yangpyong","_id":1832830,"coord":{"lon":127.490562,"lat":37.489719}},{"displayName":"Yangqianhe, CN","country":"CN","name":"Yangqianhe","_id":7516251,"coord":{"lon":112.305008,"lat":40.101292}},{"displayName":"Yangqiao, CN","country":"CN","name":"Yangqiao","_id":1787367,"coord":{"lon":114.589973,"lat":27.95746}},{"displayName":"Yangqiaodian, CN","country":"CN","name":"Yangqiaodian","_id":1925380,"coord":{"lon":116.54184,"lat":28.37162}},{"displayName":"Yangqitan, CN","country":"CN","name":"Yangqitan","_id":1811151,"coord":{"lon":118.543678,"lat":29.435141}},{"displayName":"Yangquan, CN","country":"CN","name":"Yangquan","_id":1787351,"coord":{"lon":113.563332,"lat":37.857498}},{"displayName":"Yangsan, KR","country":"KR","name":"Yangsan","_id":1832828,"coord":{"lon":129.038605,"lat":35.338612}},{"displayName":"Yangsha, CN","country":"CN","name":"Yangsha","_id":1787339,"coord":{"lon":103.668159,"lat":34.831551}},{"displayName":"Yangshan, CN","country":"CN","name":"Yangshan","_id":1787335,"coord":{"lon":116.25,"lat":35.183331}},{"displayName":"Yangshan, CN","country":"CN","name":"Yangshan","_id":1925381,"coord":{"lon":115.028702,"lat":28.761471}},{"displayName":"Yangshan, CN","country":"CN","name":"Yangshan","_id":8246755,"coord":{"lon":122.076851,"lat":30.59416}},{"displayName":"Yangshe, CN","country":"CN","name":"Yangshe","_id":6685842,"coord":{"lon":120.605217,"lat":31.88994}},{"displayName":"Yangshi, CN","country":"CN","name":"Yangshi","_id":7661836,"coord":{"lon":112.899979,"lat":30.36978}},{"displayName":"Yangshu, CN","country":"CN","name":"Yangshu","_id":1553494,"coord":{"lon":117.509048,"lat":29.945539}},{"displayName":"Yangshufang, CN","country":"CN","name":"Yangshufang","_id":2033483,"coord":{"lon":122.4328,"lat":40.242538}},{"displayName":"Yangshuo, CN","country":"CN","name":"Yangshuo","_id":1787323,"coord":{"lon":110.48967,"lat":24.780809}},{"displayName":"Yangsi, CN","country":"CN","name":"Yangsi","_id":1925382,"coord":{"lon":115.755508,"lat":28.99378}},{"displayName":"Yangtan, CN","country":"CN","name":"Yangtan","_id":1787313,"coord":{"lon":111.538467,"lat":35.775162}},{"displayName":"Yangtan, CN","country":"CN","name":"Yangtan","_id":1787314,"coord":{"lon":119.16806,"lat":30.70583}},{"displayName":"Yangtian, CN","country":"CN","name":"Yangtian","_id":1899343,"coord":{"lon":105.664528,"lat":33.18396}},{"displayName":"Yangtou, CN","country":"CN","name":"Yangtou","_id":1787304,"coord":{"lon":109.413887,"lat":27.68944}},{"displayName":"Yanguan, CN","country":"CN","name":"Yanguan","_id":1881661,"coord":{"lon":120.54673,"lat":30.45607}},{"displayName":"Yanguas de Eresma, ES","country":"ES","name":"Yanguas de Eresma","_id":6360947,"coord":{"lon":-4.25148,"lat":41.066921}},{"displayName":"Yanguas de Eresma, ES","country":"ES","name":"Yanguas de Eresma","_id":3104443,"coord":{"lon":-4.23905,"lat":41.07201}},{"displayName":"Yanguas, ES","country":"ES","name":"Yanguas","_id":6361242,"coord":{"lon":-2.32504,"lat":42.117161}},{"displayName":"Yanguas, ES","country":"ES","name":"Yanguas","_id":3104444,"coord":{"lon":-2.33986,"lat":42.101719}},{"displayName":"Yangwang, CN","country":"CN","name":"Yangwang","_id":1787285,"coord":{"lon":111.115211,"lat":35.50716}},{"displayName":"Yangxi, CN","country":"CN","name":"Yangxi","_id":1787272,"coord":{"lon":118.642097,"lat":30.15667}},{"displayName":"Yangxi, CN","country":"CN","name":"Yangxi","_id":1787274,"coord":{"lon":116.731918,"lat":28.229771}},{"displayName":"Yangxi, CN","country":"CN","name":"Yangxi","_id":1787277,"coord":{"lon":114.213249,"lat":27.297991}},{"displayName":"Yangxi, CN","country":"CN","name":"Yangxi","_id":1787278,"coord":{"lon":117.726723,"lat":26.311411}},{"displayName":"Yangxi, CN","country":"CN","name":"Yangxi","_id":7454440,"coord":{"lon":116.39254,"lat":26.62191}},{"displayName":"Yangxu, CN","country":"CN","name":"Yangxu","_id":1787255,"coord":{"lon":115.158493,"lat":28.369221}},{"displayName":"Yangxunqiao, CN","country":"CN","name":"Yangxunqiao","_id":7735248,"coord":{"lon":120.355942,"lat":30.14328}},{"displayName":"Yangyang, KR","country":"KR","name":"Yangyang","_id":1832809,"coord":{"lon":128.621109,"lat":38.073891}},{"displayName":"Yangye, CN","country":"CN","name":"Yangye","_id":7757674,"coord":{"lon":115.066406,"lat":30.31506}},{"displayName":"Yangying, CN","country":"CN","name":"Yangying","_id":1908845,"coord":{"lon":112.167023,"lat":33.0023}},{"displayName":"Yangyong, CN","country":"CN","name":"Yangyong","_id":7432952,"coord":{"lon":103.471977,"lat":34.645901}},{"displayName":"Yangyong, CN","country":"CN","name":"Yangyong","_id":7446325,"coord":{"lon":103.478081,"lat":34.648529}},{"displayName":"Yangyu, CN","country":"CN","name":"Yangyu","_id":1787246,"coord":{"lon":111.090973,"lat":35.42012}},{"displayName":"Yangyu, CN","country":"CN","name":"Yangyu","_id":1787247,"coord":{"lon":108.206421,"lat":34.651211}},{"displayName":"Yangzhai, CN","country":"CN","name":"Yangzhai","_id":1787497,"coord":{"lon":113.995079,"lat":31.517241}},{"displayName":"Yangzhong, CN","country":"CN","name":"Yangzhong","_id":1787230,"coord":{"lon":119.374443,"lat":26.705561}},{"displayName":"Yangzhou, CN","country":"CN","name":"Yangzhou","_id":1787227,"coord":{"lon":119.435829,"lat":32.397221}},{"displayName":"Yangzhou, CN","country":"CN","name":"Yangzhou","_id":1787228,"coord":{"lon":115.38028,"lat":29.16279}},{"displayName":"Yangzhuang, CN","country":"CN","name":"Yangzhuang","_id":1910091,"coord":{"lon":113.481049,"lat":33.26852}},{"displayName":"Yangzhuang, CN","country":"CN","name":"Yangzhuang","_id":1910101,"coord":{"lon":113.837433,"lat":33.337132}},{"displayName":"Yangzhuang, CN","country":"CN","name":"Yangzhuang","_id":1910178,"coord":{"lon":113.035027,"lat":33.835758}},{"displayName":"Yangzhuang, CN","country":"CN","name":"Yangzhuang","_id":1998359,"coord":{"lon":109.140327,"lat":34.041248}},{"displayName":"Yangzhuang, CN","country":"CN","name":"Yangzhuang","_id":7446494,"coord":{"lon":104.0392,"lat":35.067181}},{"displayName":"Yangzi, CN","country":"CN","name":"Yangzi","_id":1787206,"coord":{"lon":116.604118,"lat":29.6413}},{"displayName":"Yangzi, CN","country":"CN","name":"Yangzi","_id":1787208,"coord":{"lon":112.632431,"lat":31.292101}},{"displayName":"Yangzizhou, CN","country":"CN","name":"Yangzizhou","_id":7328867,"coord":{"lon":115.905937,"lat":28.722191}},{"displayName":"Yangzongnan Hengjie, CN","country":"CN","name":"Yangzongnan Hengjie","_id":1787204,"coord":{"lon":102.969452,"lat":24.82222}},{"displayName":"Yanhe, CN","country":"CN","name":"Yanhe","_id":6825373,"coord":{"lon":102.495918,"lat":24.25876}},{"displayName":"Yanhe, CN","country":"CN","name":"Yanhe","_id":6962805,"coord":{"lon":106.338707,"lat":32.547039}},{"displayName":"Yanhe, CN","country":"CN","name":"Yanhe","_id":7628682,"coord":{"lon":126.919746,"lat":45.11586}},{"displayName":"Yanhong, CN","country":"CN","name":"Yanhong","_id":1919643,"coord":{"lon":116.867538,"lat":23.608801}},{"displayName":"Yaniklar, TR","country":"TR","name":"Yaniklar","_id":7280504,"coord":{"lon":29.05081,"lat":36.708271}},{"displayName":"Yaninee, AU","country":"AU","name":"Yaninee","_id":2057534,"coord":{"lon":135.266663,"lat":-32.950001}},{"displayName":"Yanino Pervoye, RU","country":"RU","name":"Yanino Pervoye","_id":546213,"coord":{"lon":30.555834,"lat":59.946667}},{"displayName":"Yanino Vtoroye, RU","country":"RU","name":"Yanino Vtoroye","_id":469087,"coord":{"lon":30.615339,"lat":59.935501}},{"displayName":"Yanishpole, RU","country":"RU","name":"Yanishpole","_id":469083,"coord":{"lon":34.27562,"lat":62.11467}},{"displayName":"Yanisyarvi, RU","country":"RU","name":"Yanisyarvi","_id":469081,"coord":{"lon":30.950001,"lat":61.883331}},{"displayName":"Yanji, CN","country":"CN","name":"Yanji","_id":2033467,"coord":{"lon":129.507782,"lat":42.907501}},{"displayName":"Yanjiang, CN","country":"CN","name":"Yanjiang","_id":1783683,"coord":{"lon":104.648109,"lat":30.12108}},{"displayName":"Yanjiao, CN","country":"CN","name":"Yanjiao","_id":1787178,"coord":{"lon":118.041107,"lat":29.82}},{"displayName":"Yanjing, CN","country":"CN","name":"Yanjing","_id":1787162,"coord":{"lon":106.347504,"lat":29.94278}},{"displayName":"Yanjing, CN","country":"CN","name":"Yanjing","_id":1787163,"coord":{"lon":111.759438,"lat":29.84277}},{"displayName":"Yanjing, CN","country":"CN","name":"Yanjing","_id":1787164,"coord":{"lon":101.509682,"lat":27.426991}},{"displayName":"Yanjing, CN","country":"CN","name":"Yanjing","_id":1787166,"coord":{"lon":104.189003,"lat":28.072069}},{"displayName":"Yankalilla, AU","country":"AU","name":"Yankalilla","_id":7839471,"coord":{"lon":138.342255,"lat":-35.4939}},{"displayName":"Yankalilla, AU","country":"AU","name":"Yankalilla","_id":2057532,"coord":{"lon":138.350006,"lat":-35.466671}},{"displayName":"Yankou, CN","country":"CN","name":"Yankou","_id":1787151,"coord":{"lon":106.28669,"lat":30.351151}},{"displayName":"Yankou, CN","country":"CN","name":"Yankou","_id":1787152,"coord":{"lon":111.088058,"lat":27.34833}},{"displayName":"Yankton County, US","country":"US","name":"Yankton County","_id":5233056,"coord":{"lon":-97.383667,"lat":43.049999}},{"displayName":"Yankton, US","country":"US","name":"Yankton","_id":5233053,"coord":{"lon":-97.397278,"lat":42.871109}},{"displayName":"Yanliang, CN","country":"CN","name":"Yanliang","_id":1787144,"coord":{"lon":109.22921,"lat":34.65918}},{"displayName":"Yanling, CN","country":"CN","name":"Yanling","_id":1787143,"coord":{"lon":104.661079,"lat":29.530649}},{"displayName":"Yanliupu, CN","country":"CN","name":"Yanliupu","_id":8016799,"coord":{"lon":111.128143,"lat":29.569189}},{"displayName":"Yanmen, CN","country":"CN","name":"Yanmen","_id":1787131,"coord":{"lon":109.74028,"lat":27.855}},{"displayName":"Yanmen, CN","country":"CN","name":"Yanmen","_id":6643961,"coord":{"lon":99.023163,"lat":28.07225}},{"displayName":"Yanmenguan, CN","country":"CN","name":"Yanmenguan","_id":1787129,"coord":{"lon":112.859459,"lat":39.190182}},{"displayName":"Yanmenkou, CN","country":"CN","name":"Yanmenkou","_id":7661837,"coord":{"lon":112.974693,"lat":30.83473}},{"displayName":"Yannathan, AU","country":"AU","name":"Yannathan","_id":2142569,"coord":{"lon":145.649994,"lat":-38.23333}},{"displayName":"Yannergee, AU","country":"AU","name":"Yannergee","_id":2142567,"coord":{"lon":150.033325,"lat":-31.450001}},{"displayName":"Yanohama, JP","country":"JP","name":"Yanohama","_id":1848528,"coord":{"lon":136.199997,"lat":34.066669}},{"displayName":"Yanping, CN","country":"CN","name":"Yanping","_id":7578272,"coord":{"lon":126.911217,"lat":42.268681}},{"displayName":"Yanqi, CN","country":"CN","name":"Yanqi","_id":1529031,"coord":{"lon":86.568329,"lat":42.058609}},{"displayName":"Yanqian, CN","country":"CN","name":"Yanqian","_id":1787125,"coord":{"lon":117.451637,"lat":26.26259}},{"displayName":"Yanqiao, CN","country":"CN","name":"Yanqiao","_id":1787123,"coord":{"lon":120.330948,"lat":31.712721}},{"displayName":"Yanqing, CN","country":"CN","name":"Yanqing","_id":2033458,"coord":{"lon":115.966667,"lat":40.466671}},{"displayName":"Yanqul, OM","country":"OM","name":"Yanqul","_id":411849,"coord":{"lon":56.550079,"lat":23.590509}},{"displayName":"Yanrui, CN","country":"CN","name":"Yanrui","_id":1924365,"coord":{"lon":118.337151,"lat":28.713989}},{"displayName":"Yansi, CN","country":"CN","name":"Yansi","_id":1787094,"coord":{"lon":118.336792,"lat":29.82365}},{"displayName":"Yanta, CN","country":"CN","name":"Yanta","_id":2001380,"coord":{"lon":108.9524,"lat":34.20636}},{"displayName":"Yantai, CN","country":"CN","name":"Yantai","_id":1787093,"coord":{"lon":121.400002,"lat":37.533329}},{"displayName":"Yantal, RU","country":"RU","name":"Yantal","_id":2055868,"coord":{"lon":105.254204,"lat":56.847099}},{"displayName":"Yantan, CN","country":"CN","name":"Yantan","_id":1787080,"coord":{"lon":104.873802,"lat":29.27396}},{"displayName":"Yantang, CN","country":"CN","name":"Yantang","_id":1787079,"coord":{"lon":113.695831,"lat":26.78833}},{"displayName":"Yantarne, UA","country":"UA","name":"Yantarne","_id":7018912,"coord":{"lon":34.222069,"lat":45.433819}},{"displayName":"Yantarnyy, RU","country":"RU","name":"Yantarnyy","_id":2609894,"coord":{"lon":19.938057,"lat":54.871666}},{"displayName":"Yantian, CN","country":"CN","name":"Yantian","_id":1787072,"coord":{"lon":114.37429,"lat":27.36594}},{"displayName":"Yantian, CN","country":"CN","name":"Yantian","_id":1787073,"coord":{"lon":119.857498,"lat":26.853331}},{"displayName":"Yantian, CN","country":"CN","name":"Yantian","_id":1787075,"coord":{"lon":114.26722,"lat":22.584221}},{"displayName":"Yantianhe, CN","country":"CN","name":"Yantianhe","_id":7757669,"coord":{"lon":115.171303,"lat":30.96973}},{"displayName":"Yantikovo, RU","country":"RU","name":"Yantikovo","_id":469049,"coord":{"lon":47.910358,"lat":55.821579}},{"displayName":"Yantikovo, RU","country":"RU","name":"Yantikovo","_id":469050,"coord":{"lon":47.77927,"lat":55.52103}},{"displayName":"Yantongshan, CN","country":"CN","name":"Yantongshan","_id":2033449,"coord":{"lon":126.009438,"lat":43.291939}},{"displayName":"Yantou, CN","country":"CN","name":"Yantou","_id":1787065,"coord":{"lon":113.329018,"lat":39.060589}},{"displayName":"Yantzaza, EC","country":"EC","name":"Yantzaza","_id":3650053,"coord":{"lon":-78.759438,"lat":-3.82778}},{"displayName":"Yanwan, CN","country":"CN","name":"Yanwan","_id":1787059,"coord":{"lon":106.978302,"lat":34.033699}},{"displayName":"Yanwang, CN","country":"CN","name":"Yanwang","_id":1999718,"coord":{"lon":108.801941,"lat":34.571671}},{"displayName":"Yanweigang, CN","country":"CN","name":"Yanweigang","_id":1787057,"coord":{"lon":119.76667,"lat":34.466671}},{"displayName":"Yanwu, CN","country":"CN","name":"Yanwu","_id":1787053,"coord":{"lon":107.073677,"lat":36.1577}},{"displayName":"Yanwukou, CN","country":"CN","name":"Yanwukou","_id":1927922,"coord":{"lon":109.916458,"lat":29.501381}},{"displayName":"Yanxi, CN","country":"CN","name":"Yanxi","_id":1787048,"coord":{"lon":115.039047,"lat":27.64255}},{"displayName":"Yanxia, CN","country":"CN","name":"Yanxia","_id":1787046,"coord":{"lon":114.862793,"lat":29.56974}},{"displayName":"Yanxia, CN","country":"CN","name":"Yanxia","_id":1998706,"coord":{"lon":108.54306,"lat":34.575562}},{"displayName":"Yanyang, CN","country":"CN","name":"Yanyang","_id":7746307,"coord":{"lon":115.124496,"lat":29.12076}},{"displayName":"Yanzhen, CN","country":"CN","name":"Yanzhen","_id":1919348,"coord":{"lon":115.444939,"lat":24.490721}},{"displayName":"Yanzhou, CN","country":"CN","name":"Yanzhou","_id":1787031,"coord":{"lon":116.828613,"lat":35.55278}},{"displayName":"Yanzhou, CN","country":"CN","name":"Yanzhou","_id":7029917,"coord":{"lon":114.93866,"lat":22.725719}},{"displayName":"Yanzi, CN","country":"CN","name":"Yanzi","_id":1787022,"coord":{"lon":110.220284,"lat":29.96806}},{"displayName":"Yanzibian, CN","country":"CN","name":"Yanzibian","_id":1787020,"coord":{"lon":105.9254,"lat":32.901192}},{"displayName":"Yanzihe, CN","country":"CN","name":"Yanzihe","_id":1787016,"coord":{"lon":113.605057,"lat":31.968969}},{"displayName":"Yan’an, CN","country":"CN","name":"Yan’an","_id":1787765,"coord":{"lon":109.491669,"lat":36.598888}},{"displayName":"Yao, JP","country":"JP","name":"Yao","_id":1848522,"coord":{"lon":135.600006,"lat":34.616669}},{"displayName":"Yaoan, CN","country":"CN","name":"Yaoan","_id":1920524,"coord":{"lon":112.405518,"lat":25.01824}},{"displayName":"Yaocheng, CN","country":"CN","name":"Yaocheng","_id":1787005,"coord":{"lon":114.701393,"lat":37.3325}},{"displayName":"Yaocun, CN","country":"CN","name":"Yaocun","_id":1787003,"coord":{"lon":119.100578,"lat":30.891809}},{"displayName":"Yaodian, CN","country":"CN","name":"Yaodian","_id":1786996,"coord":{"lon":108.851936,"lat":34.407501}},{"displayName":"Yaodu, CN","country":"CN","name":"Yaodu","_id":1786990,"coord":{"lon":117.01667,"lat":30.1}},{"displayName":"Yaofeng, CN","country":"CN","name":"Yaofeng","_id":1789752,"coord":{"lon":111.212219,"lat":35.138611}},{"displayName":"Yaojia, CN","country":"CN","name":"Yaojia","_id":1916663,"coord":{"lon":118.783623,"lat":29.552601}},{"displayName":"Yaojiadian, CN","country":"CN","name":"Yaojiadian","_id":1786997,"coord":{"lon":111.43763,"lat":30.36681}},{"displayName":"Yaojiagou, CN","country":"CN","name":"Yaojiagou","_id":1786964,"coord":{"lon":107.521477,"lat":34.56641}},{"displayName":"Yaoli, CN","country":"CN","name":"Yaoli","_id":1786955,"coord":{"lon":117.57502,"lat":29.546209}},{"displayName":"Yaonahuac, MX","country":"MX","name":"Yaonahuac","_id":3514326,"coord":{"lon":-97.449997,"lat":19.866671}},{"displayName":"Yaopi, CN","country":"CN","name":"Yaopi","_id":1786948,"coord":{"lon":113.644173,"lat":26.88694}},{"displayName":"Yaosai, CN","country":"CN","name":"Yaosai","_id":7525692,"coord":{"lon":120.282097,"lat":31.90543}},{"displayName":"Yaoshan, CN","country":"CN","name":"Yaoshan","_id":7057435,"coord":{"lon":112.383728,"lat":33.752628}},{"displayName":"Yaoshan, CN","country":"CN","name":"Yaoshan","_id":7679689,"coord":{"lon":119.065781,"lat":29.964439}},{"displayName":"Yaoshi, CN","country":"CN","name":"Yaoshi","_id":1786926,"coord":{"lon":109.936592,"lat":34.057961}},{"displayName":"Yaoshi, CN","country":"CN","name":"Yaoshi","_id":1786927,"coord":{"lon":109.530281,"lat":27.639441}},{"displayName":"Yaoshi, CN","country":"CN","name":"Yaoshi","_id":1786928,"coord":{"lon":110.789169,"lat":26.29306}},{"displayName":"Yaoshui, CN","country":"CN","name":"Yaoshui","_id":1930423,"coord":{"lon":113.689171,"lat":26.826941}},{"displayName":"Yaotian, CN","country":"CN","name":"Yaotian","_id":1917121,"coord":{"lon":113.826111,"lat":23.983061}},{"displayName":"Yaotian, CN","country":"CN","name":"Yaotian","_id":1925398,"coord":{"lon":115.620789,"lat":27.129641}},{"displayName":"Yaotsu, JP","country":"JP","name":"Yaotsu","_id":1848518,"coord":{"lon":137.149994,"lat":35.466671}},{"displayName":"Yaouk, AU","country":"AU","name":"Yaouk","_id":2142552,"coord":{"lon":148.800003,"lat":-35.816669}},{"displayName":"Yaounde, CM","country":"CM","name":"Yaounde","_id":2220957,"coord":{"lon":11.51667,"lat":3.86667}},{"displayName":"Yaowang, CN","country":"CN","name":"Yaowang","_id":1786960,"coord":{"lon":120.066673,"lat":32.216671}},{"displayName":"Yaoxu, CN","country":"CN","name":"Yaoxu","_id":1786893,"coord":{"lon":115.208122,"lat":27.85428}},{"displayName":"Yaoxu, CN","country":"CN","name":"Yaoxu","_id":1925399,"coord":{"lon":116.793114,"lat":28.1096}},{"displayName":"Yaozhou, CN","country":"CN","name":"Yaozhou","_id":1786900,"coord":{"lon":108.970001,"lat":34.905281}},{"displayName":"Yaozhuang, CN","country":"CN","name":"Yaozhuang","_id":1910186,"coord":{"lon":113.270943,"lat":33.875751}},{"displayName":"Yaozhuang, CN","country":"CN","name":"Yaozhuang","_id":7735218,"coord":{"lon":120.956512,"lat":30.91399}},{"displayName":"Yapak, PH","country":"PH","name":"Yapak","_id":1723907,"coord":{"lon":121.933327,"lat":11.95}},{"displayName":"Yapeen, AU","country":"AU","name":"Yapeen","_id":2142548,"coord":{"lon":144.183334,"lat":-37.133331}},{"displayName":"Yapeyu, AR","country":"AR","name":"Yapeyu","_id":3427279,"coord":{"lon":-56.818409,"lat":-29.469139}},{"displayName":"Yaphank, US","country":"US","name":"Yaphank","_id":5145197,"coord":{"lon":-72.917053,"lat":40.836769}},{"displayName":"Yaprakbasi, TR","country":"TR","name":"Yaprakbasi","_id":297704,"coord":{"lon":40.544819,"lat":37.653969}},{"displayName":"Yaprakli, TR","country":"TR","name":"Yaprakli","_id":737980,"coord":{"lon":33.778191,"lat":40.757851}},{"displayName":"Yapurquer, CO","country":"CO","name":"Yapurquer","_id":3828718,"coord":{"lon":-77.731049,"lat":0.8482}},{"displayName":"Yaqian, CN","country":"CN","name":"Yaqian","_id":1786875,"coord":{"lon":116.452881,"lat":28.289829}},{"displayName":"Yaqian, CN","country":"CN","name":"Yaqian","_id":7735276,"coord":{"lon":120.403664,"lat":30.1621}},{"displayName":"Yaquehu, CN","country":"CN","name":"Yaquehu","_id":7636837,"coord":{"lon":116.629402,"lat":29.3239}},{"displayName":"Yaqueling, CN","country":"CN","name":"Yaqueling","_id":1786872,"coord":{"lon":111.586151,"lat":30.64543}},{"displayName":"Yaqui, MX","country":"MX","name":"Yaqui","_id":3979975,"coord":{"lon":-110.166672,"lat":27.366671}},{"displayName":"Yar, RU","country":"RU","name":"Yar","_id":469017,"coord":{"lon":52.102581,"lat":58.248981}},{"displayName":"Yar-Sale, RU","country":"RU","name":"Yar-Sale","_id":1486321,"coord":{"lon":70.833328,"lat":66.833328}},{"displayName":"Yara, CU","country":"CU","name":"Yara","_id":3533753,"coord":{"lon":-76.953331,"lat":20.27528}},{"displayName":"Yaracal, VE","country":"VE","name":"Yaracal","_id":3625214,"coord":{"lon":-68.54435,"lat":10.97099}},{"displayName":"Yarada, IN","country":"IN","name":"Yarada","_id":1252783,"coord":{"lon":83.26667,"lat":17.65}},{"displayName":"Yarang, TH","country":"TH","name":"Yarang","_id":1604863,"coord":{"lon":101.293388,"lat":6.75986}},{"displayName":"Yaransk, RU","country":"RU","name":"Yaransk","_id":469005,"coord":{"lon":47.886108,"lat":57.30331}},{"displayName":"Yarck, AU","country":"AU","name":"Yarck","_id":2142537,"coord":{"lon":145.616669,"lat":-37.099998}},{"displayName":"Yardimli, AZ","country":"AZ","name":"Yardimli","_id":146961,"coord":{"lon":48.237221,"lat":38.920559}},{"displayName":"Yardley, US","country":"US","name":"Yardley","_id":5816621,"coord":{"lon":-117.333542,"lat":47.667122}},{"displayName":"Yardley, US","country":"US","name":"Yardley","_id":5220281,"coord":{"lon":-74.846001,"lat":40.245659}},{"displayName":"Yardville, US","country":"US","name":"Yardville","_id":4833084,"coord":{"lon":-74.664322,"lat":40.181221}},{"displayName":"Yardymli Rayon, AZ","country":"AZ","name":"Yardymli Rayon","_id":146962,"coord":{"lon":48.25,"lat":38.916672}},{"displayName":"Yarebitsa, BG","country":"BG","name":"Yarebitsa","_id":725554,"coord":{"lon":27.0,"lat":43.849998}},{"displayName":"Yarega, RU","country":"RU","name":"Yarega","_id":468991,"coord":{"lon":53.5765,"lat":63.435429}},{"displayName":"Yaremche, UA","country":"UA","name":"Yaremche","_id":688455,"coord":{"lon":24.551945,"lat":48.458332}},{"displayName":"Yaren, NR","country":"NR","name":"Yaren","_id":2110418,"coord":{"lon":166.915985,"lat":-0.54724}},{"displayName":"Yarensk, RU","country":"RU","name":"Yarensk","_id":468983,"coord":{"lon":49.091621,"lat":62.167549}},{"displayName":"Yarikta, RU","country":"RU","name":"Yarikta","_id":2013101,"coord":{"lon":110.01667,"lat":53.933331}},{"displayName":"Yarim, YE","country":"YE","name":"Yarim","_id":69559,"coord":{"lon":44.377949,"lat":14.29804}},{"displayName":"Yaring, TH","country":"TH","name":"Yaring","_id":1604771,"coord":{"lon":101.368942,"lat":6.86617}},{"displayName":"Yaritagua, VE","country":"VE","name":"Yaritagua","_id":3625207,"coord":{"lon":-69.126106,"lat":10.08}},{"displayName":"Yarizovka, UA","country":"UA","name":"Yarizovka","_id":688451,"coord":{"lon":34.5,"lat":48.950001}},{"displayName":"Yarker, CA","country":"CA","name":"Yarker","_id":6185213,"coord":{"lon":-76.766121,"lat":44.383419}},{"displayName":"Yarkovo, RU","country":"RU","name":"Yarkovo","_id":1486369,"coord":{"lon":67.078613,"lat":57.402779}},{"displayName":"Yarkovo, RU","country":"RU","name":"Yarkovo","_id":1486371,"coord":{"lon":82.5989,"lat":54.805599}},{"displayName":"Yarlington, AU","country":"AU","name":"Yarlington","_id":2142527,"coord":{"lon":147.333328,"lat":-42.549999}},{"displayName":"Yarloop, AU","country":"AU","name":"Yarloop","_id":2057470,"coord":{"lon":115.900002,"lat":-32.966671}},{"displayName":"Yarlovo, BG","country":"BG","name":"Yarlovo","_id":725551,"coord":{"lon":23.283331,"lat":42.466671}},{"displayName":"Yarlykovo, RU","country":"RU","name":"Yarlykovo","_id":817687,"coord":{"lon":37.859444,"lat":55.27861}},{"displayName":"Yarm, GB","country":"GB","name":"Yarm","_id":2633415,"coord":{"lon":-1.35793,"lat":54.503639}},{"displayName":"Yarma, TR","country":"TR","name":"Yarma","_id":297628,"coord":{"lon":32.882778,"lat":37.811489}},{"displayName":"Yarmolyntsi, UA","country":"UA","name":"Yarmolyntsi","_id":688440,"coord":{"lon":26.83725,"lat":49.19236}},{"displayName":"Yarmouth Junction, US","country":"US","name":"Yarmouth Junction","_id":4983578,"coord":{"lon":-70.193657,"lat":43.81369}},{"displayName":"Yarmouth Port, US","country":"US","name":"Yarmouth Port","_id":4956338,"coord":{"lon":-70.249458,"lat":41.702049}},{"displayName":"Yarmouth, CA","country":"CA","name":"Yarmouth","_id":6185217,"coord":{"lon":-66.11557,"lat":43.83345}},{"displayName":"Yarmouth, GB","country":"GB","name":"Yarmouth","_id":2633414,"coord":{"lon":-1.49929,"lat":50.705292}},{"displayName":"Yarmouth, US","country":"US","name":"Yarmouth","_id":4956335,"coord":{"lon":-70.22863,"lat":41.705669}},{"displayName":"Yarmouth, US","country":"US","name":"Yarmouth","_id":4983572,"coord":{"lon":-70.186722,"lat":43.80064}},{"displayName":"Yarnton, GB","country":"GB","name":"Yarnton","_id":2633412,"coord":{"lon":-1.30694,"lat":51.80986}},{"displayName":"Yaropolets, RU","country":"RU","name":"Yaropolets","_id":468927,"coord":{"lon":35.833172,"lat":56.133331}},{"displayName":"Yaroslavl, RU","country":"RU","name":"Yaroslavl","_id":468902,"coord":{"lon":39.873676,"lat":57.629871}},{"displayName":"Yaroslavskaya Oblast’, RU","country":"RU","name":"Yaroslavskaya Oblast’","_id":468898,"coord":{"lon":39.5,"lat":58.0}},{"displayName":"Yaroslavskaya, RU","country":"RU","name":"Yaroslavskaya","_id":468899,"coord":{"lon":40.464169,"lat":44.610561}},{"displayName":"Yaroslavskiy, RU","country":"RU","name":"Yaroslavskiy","_id":2013089,"coord":{"lon":132.207214,"lat":44.168331}},{"displayName":"Yaroslavskiy, RU","country":"RU","name":"Yaroslavskiy","_id":530088,"coord":{"lon":37.721668,"lat":55.88139}},{"displayName":"Yarovoye, RU","country":"RU","name":"Yarovoye","_id":1486340,"coord":{"lon":78.580002,"lat":52.927299}},{"displayName":"Yarpturk, AU","country":"AU","name":"Yarpturk","_id":2142523,"coord":{"lon":142.433334,"lat":-38.299999}},{"displayName":"Yarqa, JO","country":"JO","name":"Yarqa","_id":245939,"coord":{"lon":35.694729,"lat":31.978451}},{"displayName":"Yarra Glen, AU","country":"AU","name":"Yarra Glen","_id":2142507,"coord":{"lon":145.366669,"lat":-37.666672}},{"displayName":"Yarra Junction, AU","country":"AU","name":"Yarra Junction","_id":2142501,"coord":{"lon":145.616669,"lat":-37.783329}},{"displayName":"Yarra Ranges, AU","country":"AU","name":"Yarra Ranges","_id":7839837,"coord":{"lon":145.737076,"lat":-37.750061}},{"displayName":"Yarra, AU","country":"AU","name":"Yarra","_id":2142522,"coord":{"lon":149.633331,"lat":-34.783329}},{"displayName":"Yarrabandai, AU","country":"AU","name":"Yarrabandai","_id":2142518,"coord":{"lon":147.600006,"lat":-33.133331}},{"displayName":"Yarraford, AU","country":"AU","name":"Yarraford","_id":2142509,"coord":{"lon":151.783325,"lat":-29.65}},{"displayName":"Yarragon, AU","country":"AU","name":"Yarragon","_id":2142506,"coord":{"lon":146.066666,"lat":-38.200001}},{"displayName":"Yarragundry, AU","country":"AU","name":"Yarragundry","_id":2142503,"coord":{"lon":147.233337,"lat":-35.116669}},{"displayName":"Yarram, AU","country":"AU","name":"Yarram","_id":2142494,"coord":{"lon":146.666672,"lat":-38.566669}},{"displayName":"Yarramalong, AU","country":"AU","name":"Yarramalong","_id":2142493,"coord":{"lon":151.283325,"lat":-33.23333}},{"displayName":"Yarraman, AU","country":"AU","name":"Yarraman","_id":2142492,"coord":{"lon":151.983337,"lat":-26.83333}},{"displayName":"Yarrambat, AU","country":"AU","name":"Yarrambat","_id":2142478,"coord":{"lon":145.003387,"lat":-37.804909}},{"displayName":"Yarranlea, AU","country":"AU","name":"Yarranlea","_id":2142466,"coord":{"lon":151.533325,"lat":-27.73333}},{"displayName":"Yarras, AU","country":"AU","name":"Yarras","_id":2142459,"coord":{"lon":152.350006,"lat":-31.41667}},{"displayName":"Yarraville, AU","country":"AU","name":"Yarraville","_id":2142457,"coord":{"lon":144.899994,"lat":-37.816669}},{"displayName":"Yarrawalla, AU","country":"AU","name":"Yarrawalla","_id":2142455,"coord":{"lon":144.033325,"lat":-36.066669}},{"displayName":"Yarrawarrah, AU","country":"AU","name":"Yarrawarrah","_id":2205980,"coord":{"lon":151.033325,"lat":-34.049999}},{"displayName":"Yarrawonga, AU","country":"AU","name":"Yarrawonga","_id":2142447,"coord":{"lon":146.0,"lat":-36.01667}},{"displayName":"Yarriambiack, AU","country":"AU","name":"Yarriambiack","_id":7839838,"coord":{"lon":142.404526,"lat":-36.02618}},{"displayName":"Yarrie Lake, AU","country":"AU","name":"Yarrie Lake","_id":2142439,"coord":{"lon":149.516663,"lat":-30.35}},{"displayName":"Yarrow Point, US","country":"US","name":"Yarrow Point","_id":5816626,"coord":{"lon":-122.217346,"lat":47.64621}},{"displayName":"Yarrow, CA","country":"CA","name":"Yarrow","_id":7669010,"coord":{"lon":-122.050339,"lat":49.082069}},{"displayName":"Yarroweyah, AU","country":"AU","name":"Yarroweyah","_id":2142426,"coord":{"lon":145.550003,"lat":-35.933331}},{"displayName":"Yarrowitch, AU","country":"AU","name":"Yarrowitch","_id":2142425,"coord":{"lon":151.949997,"lat":-31.25}},{"displayName":"Yarrowyck, AU","country":"AU","name":"Yarrowyck","_id":2142420,"coord":{"lon":151.350006,"lat":-30.466669}},{"displayName":"Yartsevo, RU","country":"RU","name":"Yartsevo","_id":468859,"coord":{"lon":43.833332,"lat":57.900002}},{"displayName":"Yartsevo, RU","country":"RU","name":"Yartsevo","_id":468867,"coord":{"lon":32.666672,"lat":55.066669}},{"displayName":"Yartsevo, RU","country":"RU","name":"Yartsevo","_id":468866,"coord":{"lon":32.696388,"lat":55.066669}},{"displayName":"Yaruchel, HN","country":"HN","name":"Yaruchel","_id":3600236,"coord":{"lon":-88.816673,"lat":14.53333}},{"displayName":"Yarumal, CO","country":"CO","name":"Yarumal","_id":3787902,"coord":{"lon":-75.67083,"lat":6.89028}},{"displayName":"Yarumal, CO","country":"CO","name":"Yarumal","_id":3665741,"coord":{"lon":-75.417381,"lat":6.96321}},{"displayName":"Yarumela, HN","country":"HN","name":"Yarumela","_id":3600232,"coord":{"lon":-87.633331,"lat":14.33333}},{"displayName":"Yarvekyulya, EE","country":"EE","name":"Yarvekyulya","_id":591951,"coord":{"lon":24.79278,"lat":59.376671}},{"displayName":"Yarwun, AU","country":"AU","name":"Yarwun","_id":2142413,"coord":{"lon":151.116669,"lat":-23.85}},{"displayName":"Yarīm, YE","country":"YE","name":"Yarīm","_id":69558,"coord":{"lon":44.31176,"lat":14.25388}},{"displayName":"Yasennaya, RU","country":"RU","name":"Yasennaya","_id":468799,"coord":{"lon":31.966667,"lat":54.766666}},{"displayName":"Yasenskaya, RU","country":"RU","name":"Yasenskaya","_id":468782,"coord":{"lon":38.269001,"lat":46.3592}},{"displayName":"Yasen’, BY","country":"BY","name":"Yasen’","_id":8020123,"coord":{"lon":27.3592,"lat":53.4492}},{"displayName":"Yashalta, RU","country":"RU","name":"Yashalta","_id":468776,"coord":{"lon":42.276199,"lat":46.3395}},{"displayName":"Yashan, CN","country":"CN","name":"Yashan","_id":1786867,"coord":{"lon":109.94194,"lat":22.1975}},{"displayName":"Yashan, CN","country":"CN","name":"Yashan","_id":1786866,"coord":{"lon":118.01667,"lat":30.816669}},{"displayName":"Yashikera, NG","country":"NG","name":"Yashikera","_id":2318238,"coord":{"lon":3.4,"lat":9.76667}},{"displayName":"Yashio-shi, JP","country":"JP","name":"Yashio-shi","_id":1848499,"coord":{"lon":139.83905,"lat":35.822552}},{"displayName":"Yashiro, JP","country":"JP","name":"Yashiro","_id":1848498,"coord":{"lon":134.966675,"lat":34.916672}},{"displayName":"Yashkino, RU","country":"RU","name":"Yashkino","_id":1486298,"coord":{"lon":85.426498,"lat":55.8736}},{"displayName":"Yashkul, RU","country":"RU","name":"Yashkul","_id":468747,"coord":{"lon":45.343498,"lat":46.171101}},{"displayName":"Yasid, PS","country":"PS","name":"Yasid","_id":281297,"coord":{"lon":35.277569,"lat":32.296879}},{"displayName":"Yasinovataya, UA","country":"UA","name":"Yasinovataya","_id":688373,"coord":{"lon":37.859402,"lat":48.129799}},{"displayName":"Yasinya, UA","country":"UA","name":"Yasinya","_id":688365,"coord":{"lon":24.36042,"lat":48.279369}},{"displayName":"Yaskino, RU","country":"RU","name":"Yaskino","_id":6417681,"coord":{"lon":37.271942,"lat":55.665001}},{"displayName":"Yasna Polyana, UA","country":"UA","name":"Yasna Polyana","_id":688357,"coord":{"lon":34.633331,"lat":46.183334}},{"displayName":"Yasnaya Polyana, KZ","country":"KZ","name":"Yasnaya Polyana","_id":1517310,"coord":{"lon":70.283333,"lat":53.950001}},{"displayName":"Yasnaya Polyana, RU","country":"RU","name":"Yasnaya Polyana","_id":805755,"coord":{"lon":42.753899,"lat":44.022499}},{"displayName":"Yasnaya Polyana, RU","country":"RU","name":"Yasnaya Polyana","_id":468682,"coord":{"lon":42.216667,"lat":59.666668}},{"displayName":"Yasnaya Polyana, RU","country":"RU","name":"Yasnaya Polyana","_id":468691,"coord":{"lon":37.527779,"lat":54.071388}},{"displayName":"Yasnogorsk, RU","country":"RU","name":"Yasnogorsk","_id":468671,"coord":{"lon":37.697498,"lat":54.480278}},{"displayName":"Yasnyy Les, BY","country":"BY","name":"Yasnyy Les","_id":619670,"coord":{"lon":29.35,"lat":53.166668}},{"displayName":"Yasnyy, RU","country":"RU","name":"Yasnyy","_id":468657,"coord":{"lon":59.874199,"lat":51.033298}},{"displayName":"Yasothon, TH","country":"TH","name":"Yasothon","_id":1604769,"coord":{"lon":104.145103,"lat":15.79408}},{"displayName":"Yass Valley, AU","country":"AU","name":"Yass Valley","_id":7839793,"coord":{"lon":148.972397,"lat":-34.9263}},{"displayName":"Yass, AU","country":"AU","name":"Yass","_id":2142412,"coord":{"lon":148.916672,"lat":-34.833328}},{"displayName":"Yastrebki, RU","country":"RU","name":"Yastrebki","_id":468632,"coord":{"lon":36.764721,"lat":55.671944}},{"displayName":"Yasu, JP","country":"JP","name":"Yasu","_id":1848489,"coord":{"lon":136.02327,"lat":35.068008}},{"displayName":"Yasuf, PS","country":"PS","name":"Yasuf","_id":281295,"coord":{"lon":35.237839,"lat":32.10841}},{"displayName":"Yasugi, JP","country":"JP","name":"Yasugi","_id":1848482,"coord":{"lon":133.25,"lat":35.433331}},{"displayName":"Yasuj, IR","country":"IR","name":"Yasuj","_id":66093,"coord":{"lon":51.587959,"lat":30.66824}},{"displayName":"Yatagan, TR","country":"TR","name":"Yatagan","_id":297564,"coord":{"lon":28.14279,"lat":37.34026}},{"displayName":"Yataity Calle, AR","country":"AR","name":"Yataity Calle","_id":3427273,"coord":{"lon":-58.908459,"lat":-29.019131}},{"displayName":"Yataity del Norte, PY","country":"PY","name":"Yataity del Norte","_id":3436655,"coord":{"lon":-56.349998,"lat":-24.83333}},{"displayName":"Yataity, PY","country":"PY","name":"Yataity","_id":3436657,"coord":{"lon":-56.066669,"lat":-26.366671}},{"displayName":"Yatala, AU","country":"AU","name":"Yatala","_id":2142409,"coord":{"lon":153.216675,"lat":-27.716669}},{"displayName":"Yatchaw, AU","country":"AU","name":"Yatchaw","_id":2142407,"coord":{"lon":142.100006,"lat":-37.816669}},{"displayName":"Yate, GB","country":"GB","name":"Yate","_id":7300065,"coord":{"lon":-2.40944,"lat":51.54805}},{"displayName":"Yate, GB","country":"GB","name":"Yate","_id":2633406,"coord":{"lon":-2.41839,"lat":51.540741}},{"displayName":"Yate-Barrage, NC","country":"NC","name":"Yate-Barrage","_id":2137644,"coord":{"lon":166.883331,"lat":-22.15}},{"displayName":"Yateley, GB","country":"GB","name":"Yateley","_id":6620293,"coord":{"lon":-0.82985,"lat":51.343048}},{"displayName":"Yates Center, US","country":"US","name":"Yates Center","_id":4282061,"coord":{"lon":-95.733322,"lat":37.881149}},{"displayName":"Yatian, CN","country":"CN","name":"Yatian","_id":1929865,"coord":{"lon":111.014442,"lat":27.59194}},{"displayName":"Yatina, AU","country":"AU","name":"Yatina","_id":2057421,"coord":{"lon":138.666672,"lat":-32.933331}},{"displayName":"Yatma, PS","country":"PS","name":"Yatma","_id":281293,"coord":{"lon":35.269089,"lat":32.108891}},{"displayName":"Yatnyaketi, ID","country":"ID","name":"Yatnyaketi","_id":7084591,"coord":{"lon":114.93,"lat":-8.2371}},{"displayName":"Yatou, CN","country":"CN","name":"Yatou","_id":1786855,"coord":{"lon":122.383331,"lat":37.150002}},{"displayName":"Yatova, ES","country":"ES","name":"Yatova","_id":2509406,"coord":{"lon":-0.8,"lat":39.383331}},{"displayName":"Yatsuo, JP","country":"JP","name":"Yatsuo","_id":1848447,"coord":{"lon":137.133331,"lat":36.566669}},{"displayName":"Yatsushiro, JP","country":"JP","name":"Yatsushiro","_id":1848445,"coord":{"lon":130.600006,"lat":32.5}},{"displayName":"Yatsuzawa, JP","country":"JP","name":"Yatsuzawa","_id":1848440,"coord":{"lon":139.116669,"lat":35.616669}},{"displayName":"Yatton, GB","country":"GB","name":"Yatton","_id":2633403,"coord":{"lon":-2.53333,"lat":51.966671}},{"displayName":"Yatton, GB","country":"GB","name":"Yatton","_id":2633404,"coord":{"lon":-2.81667,"lat":51.383331}},{"displayName":"Yatunpu, CN","country":"CN","name":"Yatunpu","_id":1786854,"coord":{"lon":109.626671,"lat":26.155001}},{"displayName":"Yaté-Village, NC","country":"NC","name":"Yaté-Village","_id":2137643,"coord":{"lon":166.899994,"lat":-22.15}},{"displayName":"Yauco Municipio, PR","country":"PR","name":"Yauco Municipio","_id":4568918,"coord":{"lon":-66.855179,"lat":18.078569}},{"displayName":"Yauco, PR","country":"PR","name":"Yauco","_id":4568917,"coord":{"lon":-66.849899,"lat":18.03496}},{"displayName":"Yaurel, PR","country":"PR","name":"Yaurel","_id":4568957,"coord":{"lon":-66.057114,"lat":18.026911}},{"displayName":"Yautepec, MX","country":"MX","name":"Yautepec","_id":3514321,"coord":{"lon":-99.067146,"lat":18.88188}},{"displayName":"Yauya, PE","country":"PE","name":"Yauya","_id":3690733,"coord":{"lon":-77.300003,"lat":-8.98333}},{"displayName":"Yaval, IN","country":"IN","name":"Yaval","_id":1252773,"coord":{"lon":75.699997,"lat":21.16667}},{"displayName":"Yavapai County, US","country":"US","name":"Yavapai County","_id":5321860,"coord":{"lon":-112.375717,"lat":34.508362}},{"displayName":"Yavaros, MX","country":"MX","name":"Yavaros","_id":3979962,"coord":{"lon":-109.51667,"lat":26.700001}},{"displayName":"Yavas, RU","country":"RU","name":"Yavas","_id":468587,"coord":{"lon":42.849098,"lat":54.415901}},{"displayName":"Yavatmal, IN","country":"IN","name":"Yavatmal","_id":1252770,"coord":{"lon":78.133331,"lat":20.4}},{"displayName":"Yaviza, PA","country":"PA","name":"Yaviza","_id":3699980,"coord":{"lon":-77.693077,"lat":8.1537}},{"displayName":"Yavlenka, KZ","country":"KZ","name":"Yavlenka","_id":1517305,"coord":{"lon":68.457497,"lat":54.346111}},{"displayName":"Yavne, IL","country":"IL","name":"Yavne","_id":293222,"coord":{"lon":34.740002,"lat":31.87639}},{"displayName":"Yavneel, IL","country":"IL","name":"Yavneel","_id":293220,"coord":{"lon":35.506618,"lat":32.70356}},{"displayName":"Yavoriv, UA","country":"UA","name":"Yavoriv","_id":688288,"coord":{"lon":23.38254,"lat":49.938641}},{"displayName":"Yavoruv, UA","country":"UA","name":"Yavoruv","_id":688279,"coord":{"lon":22.914049,"lat":49.016739}},{"displayName":"Yavuzeli, TR","country":"TR","name":"Yavuzeli","_id":297532,"coord":{"lon":37.568241,"lat":37.317719}},{"displayName":"Yawangkou, CN","country":"CN","name":"Yawangkou","_id":1786853,"coord":{"lon":117.216667,"lat":36.816669}},{"displayName":"Yawata, JP","country":"JP","name":"Yawata","_id":1848439,"coord":{"lon":135.702698,"lat":34.87009}},{"displayName":"Yaxchoj, MX","country":"MX","name":"Yaxchoj","_id":3514297,"coord":{"lon":-92.133331,"lat":16.25}},{"displayName":"Yaxcopoil, MX","country":"MX","name":"Yaxcopoil","_id":3514293,"coord":{"lon":-89.466667,"lat":20.75}},{"displayName":"Yaxing, CN","country":"CN","name":"Yaxing","_id":1783554,"coord":{"lon":109.262733,"lat":19.447781}},{"displayName":"Yaxley, GB","country":"GB","name":"Yaxley","_id":2633399,"coord":{"lon":-0.25852,"lat":52.517681}},{"displayName":"Yaya, RU","country":"RU","name":"Yaya","_id":1486261,"coord":{"lon":86.440002,"lat":56.206001}},{"displayName":"Yayas de Viajama, DO","country":"DO","name":"Yayas de Viajama","_id":3491736,"coord":{"lon":-70.927528,"lat":18.6071}},{"displayName":"Yayladagi, TR","country":"TR","name":"Yayladagi","_id":297466,"coord":{"lon":36.062721,"lat":35.9025}},{"displayName":"Yayladere, TR","country":"TR","name":"Yayladere","_id":297461,"coord":{"lon":40.0695,"lat":39.226139}},{"displayName":"Yayli, TR","country":"TR","name":"Yayli","_id":297416,"coord":{"lon":40.754768,"lat":37.202011}},{"displayName":"Yaypan, UZ","country":"UZ","name":"Yaypan","_id":1512320,"coord":{"lon":70.815559,"lat":40.375832}},{"displayName":"Yayva, RU","country":"RU","name":"Yayva","_id":468560,"coord":{"lon":57.26408,"lat":59.33033}},{"displayName":"Yayvantepe, TR","country":"TR","name":"Yayvantepe","_id":297404,"coord":{"lon":41.520199,"lat":37.30117}},{"displayName":"Yazd, IR","country":"IR","name":"Yazd","_id":111822,"coord":{"lon":54.3675,"lat":31.897221}},{"displayName":"Yazhou, CN","country":"CN","name":"Yazhou","_id":1786841,"coord":{"lon":120.325562,"lat":32.390831}},{"displayName":"Yazihan, TR","country":"TR","name":"Yazihan","_id":297371,"coord":{"lon":38.18,"lat":38.594719}},{"displayName":"Yazman Mandi, PK","country":"PK","name":"Yazman Mandi","_id":1162316,"coord":{"lon":71.744591,"lat":29.12122}},{"displayName":"Yazoo City, US","country":"US","name":"Yazoo City","_id":4451810,"coord":{"lon":-90.405647,"lat":32.855129}},{"displayName":"Yazor, GB","country":"GB","name":"Yazor","_id":2633398,"coord":{"lon":-2.86667,"lat":52.116669}},{"displayName":"Yazykovo, RU","country":"RU","name":"Yazykovo","_id":468483,"coord":{"lon":56.135319,"lat":55.219879}},{"displayName":"Yazykovo, RU","country":"RU","name":"Yazykovo","_id":468486,"coord":{"lon":47.389099,"lat":54.292198}},{"displayName":"Yazykovo, RU","country":"RU","name":"Yazykovo","_id":468479,"coord":{"lon":37.349998,"lat":56.23333}},{"displayName":"Yazıbaşı, TR","country":"TR","name":"Yazıbaşı","_id":7590363,"coord":{"lon":36.873531,"lat":39.821079}},{"displayName":"Yazıkonak, TR","country":"TR","name":"Yazıkonak","_id":297362,"coord":{"lon":39.299999,"lat":38.61161}},{"displayName":"Yazılıkaya Yaylası, TR","country":"TR","name":"Yazılıkaya Yaylası","_id":297347,"coord":{"lon":30.6,"lat":39.150002}},{"displayName":"Ybbs an der Donau, AT","country":"AT","name":"Ybbs an der Donau","_id":7871831,"coord":{"lon":15.07832,"lat":48.177052}},{"displayName":"Ybbs an der Donau, AT","country":"AT","name":"Ybbs an der Donau","_id":2760772,"coord":{"lon":15.08333,"lat":48.166672}},{"displayName":"Ybbsitz, AT","country":"AT","name":"Ybbsitz","_id":7872831,"coord":{"lon":14.90534,"lat":47.924229}},{"displayName":"Ybbsitz, AT","country":"AT","name":"Ybbsitz","_id":2760770,"coord":{"lon":14.88333,"lat":47.933331}},{"displayName":"Ybycui, PY","country":"PY","name":"Ybycui","_id":3436642,"coord":{"lon":-57.049999,"lat":-26.01667}},{"displayName":"Ychoux, FR","country":"FR","name":"Ychoux","_id":6434019,"coord":{"lon":-0.96667,"lat":44.333328}},{"displayName":"Ychoux, FR","country":"FR","name":"Ychoux","_id":2967253,"coord":{"lon":-0.9518,"lat":44.32869}},{"displayName":"Yde, NL","country":"NL","name":"Yde","_id":2744130,"coord":{"lon":6.59306,"lat":53.115829}},{"displayName":"Ydes, FR","country":"FR","name":"Ydes","_id":6427682,"coord":{"lon":2.438,"lat":45.347401}},{"displayName":"Ydes, FR","country":"FR","name":"Ydes","_id":2967252,"coord":{"lon":2.46667,"lat":45.333328}},{"displayName":"Ydra, GR","country":"GR","name":"Ydra","_id":261822,"coord":{"lon":23.46697,"lat":37.350948}},{"displayName":"Ydroussa, GR","country":"GR","name":"Ydroussa","_id":261816,"coord":{"lon":26.751671,"lat":37.779442}},{"displayName":"Yeadon, GB","country":"GB","name":"Yeadon","_id":2633397,"coord":{"lon":-1.68743,"lat":53.864368}},{"displayName":"Yeadon, US","country":"US","name":"Yeadon","_id":4562430,"coord":{"lon":-75.255463,"lat":39.938999}},{"displayName":"Yeager, US","country":"US","name":"Yeager","_id":4556125,"coord":{"lon":-96.339447,"lat":35.157581}},{"displayName":"Yeagertown, US","country":"US","name":"Yeagertown","_id":5220310,"coord":{"lon":-77.580551,"lat":40.643131}},{"displayName":"Yealering, AU","country":"AU","name":"Yealering","_id":2057415,"coord":{"lon":117.616669,"lat":-32.599998}},{"displayName":"Yealmpton, GB","country":"GB","name":"Yealmpton","_id":2633394,"coord":{"lon":-3.99877,"lat":50.34856}},{"displayName":"Yebaishou, CN","country":"CN","name":"Yebaishou","_id":2033423,"coord":{"lon":119.640831,"lat":41.397499}},{"displayName":"Yeban, PH","country":"PH","name":"Yeban","_id":1679488,"coord":{"lon":121.94194,"lat":17.02195}},{"displayName":"Yebes, ES","country":"ES","name":"Yebes","_id":6358083,"coord":{"lon":-3.1048,"lat":40.548939}},{"displayName":"Yebes, ES","country":"ES","name":"Yebes","_id":3104439,"coord":{"lon":-3.10782,"lat":40.53162}},{"displayName":"Yebleron, FR","country":"FR","name":"Yebleron","_id":2967251,"coord":{"lon":0.53746,"lat":49.633331}},{"displayName":"Yebra de Basa, ES","country":"ES","name":"Yebra de Basa","_id":6358444,"coord":{"lon":-0.2435,"lat":42.487011}},{"displayName":"Yebra de Basa, ES","country":"ES","name":"Yebra de Basa","_id":3104436,"coord":{"lon":-0.28178,"lat":42.486469}},{"displayName":"Yebra, ES","country":"ES","name":"Yebra","_id":6358084,"coord":{"lon":-2.95558,"lat":40.35136}},{"displayName":"Yebra, ES","country":"ES","name":"Yebra","_id":3104438,"coord":{"lon":-2.9663,"lat":40.357021}},{"displayName":"Yecapixtla, MX","country":"MX","name":"Yecapixtla","_id":3514278,"coord":{"lon":-98.866669,"lat":18.883329}},{"displayName":"Yechagām, IN","country":"IN","name":"Yechagām","_id":1252765,"coord":{"lon":74.76667,"lat":33.98333}},{"displayName":"Yecla de Yeltes, ES","country":"ES","name":"Yecla de Yeltes","_id":6360613,"coord":{"lon":-6.48063,"lat":40.946781}},{"displayName":"Yecla de Yeltes, ES","country":"ES","name":"Yecla de Yeltes","_id":3104435,"coord":{"lon":-6.48904,"lat":40.959171}},{"displayName":"Yecla, ES","country":"ES","name":"Yecla","_id":6359547,"coord":{"lon":-1.1296,"lat":38.65514}},{"displayName":"Yecla, ES","country":"ES","name":"Yecla","_id":2509402,"coord":{"lon":-1.11468,"lat":38.613651}},{"displayName":"Yecuatla, MX","country":"MX","name":"Yecuatla","_id":3514277,"coord":{"lon":-96.75,"lat":19.866671}},{"displayName":"Yedisu, TR","country":"TR","name":"Yedisu","_id":297286,"coord":{"lon":40.54417,"lat":39.43306}},{"displayName":"Yediyol, TR","country":"TR","name":"Yediyol","_id":297280,"coord":{"lon":41.11639,"lat":37.942501}},{"displayName":"Yednevo, RU","country":"RU","name":"Yednevo","_id":468454,"coord":{"lon":36.233334,"lat":56.099998}},{"displayName":"Yedun, CN","country":"CN","name":"Yedun","_id":1914421,"coord":{"lon":118.141617,"lat":26.909849}},{"displayName":"Yeed, SO","country":"SO","name":"Yeed","_id":49593,"coord":{"lon":43.033329,"lat":4.55}},{"displayName":"Yeelanna, AU","country":"AU","name":"Yeelanna","_id":2057402,"coord":{"lon":135.733337,"lat":-34.150002}},{"displayName":"Yefimovka, RU","country":"RU","name":"Yefimovka","_id":468424,"coord":{"lon":37.228889,"lat":55.231945}},{"displayName":"Yefimovo, RU","country":"RU","name":"Yefimovo","_id":468418,"coord":{"lon":44.75,"lat":58.299999}},{"displayName":"Yefim’yevo, RU","country":"RU","name":"Yefim’yevo","_id":468401,"coord":{"lon":36.099998,"lat":56.150002}},{"displayName":"Yefino, RU","country":"RU","name":"Yefino","_id":468397,"coord":{"lon":43.671665,"lat":57.746113}},{"displayName":"Yefremov, RU","country":"RU","name":"Yefremov","_id":468390,"coord":{"lon":38.099239,"lat":53.14806}},{"displayName":"Yefremovskaya, RU","country":"RU","name":"Yefremovskaya","_id":468364,"coord":{"lon":38.984165,"lat":55.422779}},{"displayName":"Yefutino, RU","country":"RU","name":"Yefutino","_id":6608597,"coord":{"lon":43.559444,"lat":56.806389}},{"displayName":"Yeganovo, RU","country":"RU","name":"Yeganovo","_id":468345,"coord":{"lon":38.02972,"lat":55.535}},{"displayName":"Yegen, ES","country":"ES","name":"Yegen","_id":2509397,"coord":{"lon":-3.119,"lat":36.98103}},{"displayName":"Yeghegis, AM","country":"AM","name":"Yeghegis","_id":174980,"coord":{"lon":45.36002,"lat":39.871811}},{"displayName":"Yeghegnadzor, AM","country":"AM","name":"Yeghegnadzor","_id":174710,"coord":{"lon":45.33239,"lat":39.763889}},{"displayName":"Yeghegnavan, AM","country":"AM","name":"Yeghegnavan","_id":174709,"coord":{"lon":44.625309,"lat":39.83799}},{"displayName":"Yeghegnut, AM","country":"AM","name":"Yeghegnut","_id":616060,"coord":{"lon":44.63155,"lat":40.903019}},{"displayName":"Yeghegnut, AM","country":"AM","name":"Yeghegnut","_id":616061,"coord":{"lon":44.160179,"lat":40.091862}},{"displayName":"Yeghvard, AM","country":"AM","name":"Yeghvard","_id":616065,"coord":{"lon":44.48138,"lat":40.32053}},{"displayName":"Yegorlykskaya, RU","country":"RU","name":"Yegorlykskaya","_id":468307,"coord":{"lon":40.656212,"lat":46.565639}},{"displayName":"Yegoryevsk, RU","country":"RU","name":"Yegoryevsk","_id":468250,"coord":{"lon":39.041111,"lat":55.378334}},{"displayName":"Yegros, PY","country":"PY","name":"Yegros","_id":3436617,"coord":{"lon":-56.400002,"lat":-26.450001}},{"displayName":"Yehorove, UA","country":"UA","name":"Yehorove","_id":826042,"coord":{"lon":36.482777,"lat":45.385834}},{"displayName":"Yehualtepec, MX","country":"MX","name":"Yehualtepec","_id":3514272,"coord":{"lon":-97.650002,"lat":18.783331}},{"displayName":"Yei, SS","country":"SS","name":"Yei","_id":363619,"coord":{"lon":30.677919,"lat":4.09504}},{"displayName":"Yejia, CN","country":"CN","name":"Yejia","_id":1790363,"coord":{"lon":119.287659,"lat":30.40764}},{"displayName":"Yekaterinburg, RU","country":"RU","name":"Yekaterinburg","_id":1486209,"coord":{"lon":60.612499,"lat":56.857498}},{"displayName":"Yekaterinoslavka, RU","country":"RU","name":"Yekaterinoslavka","_id":2013032,"coord":{"lon":129.113861,"lat":50.37336}},{"displayName":"Yekaterinoslavskiy, RU","country":"RU","name":"Yekaterinoslavskiy","_id":468197,"coord":{"lon":40.168331,"lat":45.342777}},{"displayName":"Yekaterinovka, RU","country":"RU","name":"Yekaterinovka","_id":2013030,"coord":{"lon":133.047226,"lat":42.924999}},{"displayName":"Yekaterinovka, RU","country":"RU","name":"Yekaterinovka","_id":468180,"coord":{"lon":44.34515,"lat":52.050831}},{"displayName":"Yekaterinovka, RU","country":"RU","name":"Yekaterinovka","_id":468127,"coord":{"lon":37.383331,"lat":55.766666}},{"displayName":"Yekaterinovka, RU","country":"RU","name":"Yekaterinovka","_id":802105,"coord":{"lon":39.037777,"lat":47.314999}},{"displayName":"Yekimikha, RU","country":"RU","name":"Yekimikha","_id":468119,"coord":{"lon":42.433334,"lat":59.883331}},{"displayName":"Yekimovichi, RU","country":"RU","name":"Yekimovichi","_id":468116,"coord":{"lon":33.296478,"lat":54.11285}},{"displayName":"Yekimtsevo, RU","country":"RU","name":"Yekimtsevo","_id":468102,"coord":{"lon":42.333332,"lat":59.0}},{"displayName":"Yekusha, RU","country":"RU","name":"Yekusha","_id":468091,"coord":{"lon":52.966671,"lat":67.666672}},{"displayName":"Yelabuga, RU","country":"RU","name":"Yelabuga","_id":468082,"coord":{"lon":52.06493,"lat":55.761269}},{"displayName":"Yelahanka, IN","country":"IN","name":"Yelahanka","_id":1252758,"coord":{"lon":77.600281,"lat":13.1075}},{"displayName":"Yelamos de Abajo, ES","country":"ES","name":"Yelamos de Abajo","_id":3104429,"coord":{"lon":-2.85803,"lat":40.63092}},{"displayName":"Yelamos de Arriba, ES","country":"ES","name":"Yelamos de Arriba","_id":3104428,"coord":{"lon":-2.8434,"lat":40.640079}},{"displayName":"Yelan, RU","country":"RU","name":"Yelan","_id":468063,"coord":{"lon":43.737808,"lat":50.949001}},{"displayName":"Yelan-Koleno, RU","country":"RU","name":"Yelan-Koleno","_id":468044,"coord":{"lon":41.230598,"lat":51.152302}},{"displayName":"Yelan-Kolenovskiy, RU","country":"RU","name":"Yelan-Kolenovskiy","_id":468042,"coord":{"lon":41.151001,"lat":51.1632}},{"displayName":"Yelandur, IN","country":"IN","name":"Yelandur","_id":1252756,"coord":{"lon":77.033333,"lat":12.06667}},{"displayName":"Yelanets’, UA","country":"UA","name":"Yelanets’","_id":688221,"coord":{"lon":31.85253,"lat":47.696819}},{"displayName":"Yelanskiy, RU","country":"RU","name":"Yelanskiy","_id":2052150,"coord":{"lon":101.371109,"lat":54.34972}},{"displayName":"Yelanskiy, RU","country":"RU","name":"Yelanskiy","_id":1486164,"coord":{"lon":62.5014,"lat":56.8419}},{"displayName":"Yelarbon, AU","country":"AU","name":"Yelarbon","_id":2142378,"coord":{"lon":150.75,"lat":-28.566669}},{"displayName":"Yelatma, RU","country":"RU","name":"Yelatma","_id":468030,"coord":{"lon":41.750832,"lat":54.967499}},{"displayName":"Yelbarga, IN","country":"IN","name":"Yelbarga","_id":1252753,"coord":{"lon":76.01667,"lat":15.63333}},{"displayName":"Yelbeni, AU","country":"AU","name":"Yelbeni","_id":2057393,"coord":{"lon":117.666672,"lat":-31.183331}},{"displayName":"Yelch - New Village, PW","country":"PW","name":"Yelch - New Village","_id":4038353,"coord":{"lon":134.5457,"lat":7.36051}},{"displayName":"Yeles, ES","country":"ES","name":"Yeles","_id":6361860,"coord":{"lon":-3.78375,"lat":40.121399}},{"displayName":"Yeles, ES","country":"ES","name":"Yeles","_id":3104427,"coord":{"lon":-3.80487,"lat":40.12035}},{"displayName":"Yelesino, RU","country":"RU","name":"Yelesino","_id":6418652,"coord":{"lon":44.277222,"lat":56.298058}},{"displayName":"Yelets, RU","country":"RU","name":"Yelets","_id":467978,"coord":{"lon":38.50169,"lat":52.623661}},{"displayName":"Yelevo, RU","country":"RU","name":"Yelevo","_id":6607941,"coord":{"lon":43.834999,"lat":56.531113}},{"displayName":"Yelgazino, RU","country":"RU","name":"Yelgazino","_id":467951,"coord":{"lon":37.866669,"lat":55.416668}},{"displayName":"Yelgun, AU","country":"AU","name":"Yelgun","_id":2142377,"coord":{"lon":153.516663,"lat":-28.48333}},{"displayName":"Yeliguan, CN","country":"CN","name":"Yeliguan","_id":1786811,"coord":{"lon":103.660492,"lat":34.964401}},{"displayName":"Yelin, CN","country":"CN","name":"Yelin","_id":7635189,"coord":{"lon":110.041061,"lat":18.52216}},{"displayName":"Yelino, RU","country":"RU","name":"Yelino","_id":467934,"coord":{"lon":36.766666,"lat":56.25}},{"displayName":"Yelizarovo, RU","country":"RU","name":"Yelizarovo","_id":467896,"coord":{"lon":36.766666,"lat":56.166668}},{"displayName":"Yelizavetino, RU","country":"RU","name":"Yelizavetino","_id":467856,"coord":{"lon":29.79376,"lat":59.49157}},{"displayName":"Yelizavetinskaya, RU","country":"RU","name":"Yelizavetinskaya","_id":467854,"coord":{"lon":38.795799,"lat":45.04446}},{"displayName":"Yelizavetinskoye, RU","country":"RU","name":"Yelizavetinskoye","_id":467850,"coord":{"lon":43.349442,"lat":45.007221}},{"displayName":"Yelizavetovka, UA","country":"UA","name":"Yelizavetovka","_id":688170,"coord":{"lon":36.345829,"lat":49.186111}},{"displayName":"Yelizovo, RU","country":"RU","name":"Yelizovo","_id":2119538,"coord":{"lon":158.380493,"lat":53.187302}},{"displayName":"Yelkhovka, RU","country":"RU","name":"Yelkhovka","_id":467819,"coord":{"lon":50.283192,"lat":53.86668}},{"displayName":"Yelkino, RU","country":"RU","name":"Yelkino","_id":467787,"coord":{"lon":59.829109,"lat":58.694}},{"displayName":"Yellandu, IN","country":"IN","name":"Yellandu","_id":1252745,"coord":{"lon":80.333328,"lat":17.6}},{"displayName":"Yellapur, IN","country":"IN","name":"Yellapur","_id":1252744,"coord":{"lon":74.716667,"lat":14.96667}},{"displayName":"Yellow Furze, IE","country":"IE","name":"Yellow Furze","_id":2960874,"coord":{"lon":-6.57167,"lat":53.673328}},{"displayName":"Yellow Grass, CA","country":"CA","name":"Yellow Grass","_id":6185353,"coord":{"lon":-104.167809,"lat":49.80006}},{"displayName":"Yellow Springs, US","country":"US","name":"Yellow Springs","_id":4528866,"coord":{"lon":-83.886871,"lat":39.80645}},{"displayName":"Yellowdine, AU","country":"AU","name":"Yellowdine","_id":2057381,"coord":{"lon":119.650002,"lat":-31.299999}},{"displayName":"Yellowknife, CA","country":"CA","name":"Yellowknife","_id":6185377,"coord":{"lon":-114.352547,"lat":62.456001}},{"displayName":"Yellowstone County, US","country":"US","name":"Yellowstone County","_id":5687489,"coord":{"lon":-108.300682,"lat":45.916618}},{"displayName":"Yellville, US","country":"US","name":"Yellville","_id":4137291,"coord":{"lon":-92.684891,"lat":36.226181}},{"displayName":"Yelm, US","country":"US","name":"Yelm","_id":5816656,"coord":{"lon":-122.605957,"lat":46.942039}},{"displayName":"Yelnya, RU","country":"RU","name":"Yelnya","_id":467753,"coord":{"lon":33.183731,"lat":54.57864}},{"displayName":"Yelo, ES","country":"ES","name":"Yelo","_id":6361243,"coord":{"lon":-2.542,"lat":41.220219}},{"displayName":"Yelo, ES","country":"ES","name":"Yelo","_id":3104425,"coord":{"lon":-2.51667,"lat":41.216671}},{"displayName":"Yelovaya Gora, RU","country":"RU","name":"Yelovaya Gora","_id":467727,"coord":{"lon":32.366669,"lat":64.183334}},{"displayName":"Yelovaya, RU","country":"RU","name":"Yelovaya","_id":1486093,"coord":{"lon":92.541107,"lat":56.138611}},{"displayName":"Yelovka, RU","country":"RU","name":"Yelovka","_id":467716,"coord":{"lon":42.283333,"lat":58.216667}},{"displayName":"Yelovo, RU","country":"RU","name":"Yelovo","_id":467711,"coord":{"lon":54.9207,"lat":57.05381}},{"displayName":"Yelsk, BY","country":"BY","name":"Yelsk","_id":619598,"coord":{"lon":29.152201,"lat":51.814098}},{"displayName":"Yelverton, GB","country":"GB","name":"Yelverton","_id":2633382,"coord":{"lon":-4.08382,"lat":50.492901}},{"displayName":"Yelwa, NG","country":"NG","name":"Yelwa","_id":2318166,"coord":{"lon":9.63333,"lat":8.83333}},{"displayName":"Yelyaty, RU","country":"RU","name":"Yelyaty","_id":467629,"coord":{"lon":50.799999,"lat":61.666672}},{"displayName":"Yelyzavethradka, UA","country":"UA","name":"Yelyzavethradka","_id":688191,"coord":{"lon":32.404598,"lat":48.80381}},{"displayName":"Yelz, ES","country":"ES","name":"Yelz","_id":3104423,"coord":{"lon":-1.51268,"lat":42.797421}},{"displayName":"Yel’digino, RU","country":"RU","name":"Yel’digino","_id":468011,"coord":{"lon":37.816666,"lat":56.116669}},{"displayName":"Yel’nya, RU","country":"RU","name":"Yel’nya","_id":467749,"coord":{"lon":38.337776,"lat":55.843887}},{"displayName":"Yel’tsovo, RU","country":"RU","name":"Yel’tsovo","_id":2012979,"coord":{"lon":107.849998,"lat":52.299999}},{"displayName":"Yel’zovo, RU","country":"RU","name":"Yel’zovo","_id":857388,"coord":{"lon":35.747025,"lat":56.467823}},{"displayName":"Yemanzhelinka, RU","country":"RU","name":"Yemanzhelinka","_id":1486040,"coord":{"lon":61.298901,"lat":54.800999}},{"displayName":"Yemanzhelinsk, RU","country":"RU","name":"Yemanzhelinsk","_id":1486039,"coord":{"lon":61.320831,"lat":54.754719}},{"displayName":"Yemassee, US","country":"US","name":"Yemassee","_id":4601693,"coord":{"lon":-80.850662,"lat":32.690182}},{"displayName":"Yemeda, ES","country":"ES","name":"Yemeda","_id":2509390,"coord":{"lon":-1.71667,"lat":39.76667}},{"displayName":"Yemelyanovo, RU","country":"RU","name":"Yemelyanovo","_id":1486031,"coord":{"lon":92.676666,"lat":56.16806}},{"displayName":"Yemel’yanov, UA","country":"UA","name":"Yemel’yanov","_id":688157,"coord":{"lon":31.033333,"lat":50.766666}},{"displayName":"Yemel’yanovo, BY","country":"BY","name":"Yemel’yanovo","_id":619596,"coord":{"lon":28.029671,"lat":54.071091}},{"displayName":"Yemel’yanovo, RU","country":"RU","name":"Yemel’yanovo","_id":467565,"coord":{"lon":38.921112,"lat":55.753613}},{"displayName":"Yemeshevo, RU","country":"RU","name":"Yemeshevo","_id":467542,"coord":{"lon":46.349167,"lat":56.228058}},{"displayName":"Yemetsk, RU","country":"RU","name":"Yemetsk","_id":467539,"coord":{"lon":41.794102,"lat":63.472099}},{"displayName":"Yemisli, TR","country":"TR","name":"Yemisli","_id":392066,"coord":{"lon":43.075859,"lat":37.372921}},{"displayName":"Yemtsa, RU","country":"RU","name":"Yemtsa","_id":467527,"coord":{"lon":40.332851,"lat":63.073372}},{"displayName":"Yemva, RU","country":"RU","name":"Yemva","_id":467525,"coord":{"lon":50.85939,"lat":62.589989}},{"displayName":"Yen Bai, VN","country":"VN","name":"Yen Bai","_id":1560349,"coord":{"lon":104.866669,"lat":21.700001}},{"displayName":"Yen Vinh, VN","country":"VN","name":"Yen Vinh","_id":1560037,"coord":{"lon":105.666672,"lat":18.66667}},{"displayName":"Yenagoa, NG","country":"NG","name":"Yenagoa","_id":2318123,"coord":{"lon":6.26417,"lat":4.92472}},{"displayName":"Yenakiyeve, UA","country":"UA","name":"Yenakiyeve","_id":688148,"coord":{"lon":38.211369,"lat":48.233311}},{"displayName":"Yenangyaung, MM","country":"MM","name":"Yenangyaung","_id":1285173,"coord":{"lon":94.883331,"lat":20.466669}},{"displayName":"Yenda, AU","country":"AU","name":"Yenda","_id":2142330,"coord":{"lon":146.183334,"lat":-34.25}},{"displayName":"Yendi, GH","country":"GH","name":"Yendi","_id":2293801,"coord":{"lon":-0.00991,"lat":9.44272}},{"displayName":"Yendon, AU","country":"AU","name":"Yendon","_id":2142329,"coord":{"lon":143.966675,"lat":-37.633331}},{"displayName":"Yengarie, AU","country":"AU","name":"Yengarie","_id":2142328,"coord":{"lon":152.616669,"lat":-25.566669}},{"displayName":"Yengema, SL","country":"SL","name":"Yengema","_id":2402816,"coord":{"lon":-11.16667,"lat":8.71667}},{"displayName":"Yenicaga, TR","country":"TR","name":"Yenicaga","_id":737756,"coord":{"lon":32.033749,"lat":40.771149}},{"displayName":"Yenice, TR","country":"TR","name":"Yenice","_id":297144,"coord":{"lon":27.25806,"lat":39.930828}},{"displayName":"Yenice, TR","country":"TR","name":"Yenice","_id":297148,"coord":{"lon":28.90728,"lat":39.760899}},{"displayName":"Yenice, TR","country":"TR","name":"Yenice","_id":737723,"coord":{"lon":32.331329,"lat":41.199619}},{"displayName":"Yenicekoy, TR","country":"TR","name":"Yenicekoy","_id":737709,"coord":{"lon":29.42194,"lat":40.08778}},{"displayName":"Yenifakili, TR","country":"TR","name":"Yenifakili","_id":297099,"coord":{"lon":35.000359,"lat":39.211418}},{"displayName":"Yenifarsak, TR","country":"TR","name":"Yenifarsak","_id":297098,"coord":{"lon":36.583328,"lat":37.316669}},{"displayName":"Yenikale, UA","country":"UA","name":"Yenikale","_id":688146,"coord":{"lon":36.599998,"lat":45.349998}},{"displayName":"Yenikend, AM","country":"AM","name":"Yenikend","_id":174706,"coord":{"lon":44.731709,"lat":39.906109}},{"displayName":"Yenikoy, TR","country":"TR","name":"Yenikoy","_id":297027,"coord":{"lon":41.049721,"lat":37.881111}},{"displayName":"Yenikoy, TR","country":"TR","name":"Yenikoy","_id":297052,"coord":{"lon":42.426109,"lat":37.271389}},{"displayName":"Yenikoy, TR","country":"TR","name":"Yenikoy","_id":737660,"coord":{"lon":29.35364,"lat":40.535679}},{"displayName":"Yenipazar, TR","country":"TR","name":"Yenipazar","_id":296950,"coord":{"lon":28.19717,"lat":37.824188}},{"displayName":"Yenipazar, TR","country":"TR","name":"Yenipazar","_id":737614,"coord":{"lon":30.52,"lat":40.178329}},{"displayName":"Yenipinar, TR","country":"TR","name":"Yenipinar","_id":296947,"coord":{"lon":41.302471,"lat":37.843449}},{"displayName":"Yenisarbademli, TR","country":"TR","name":"Yenisarbademli","_id":296942,"coord":{"lon":31.386391,"lat":37.707779}},{"displayName":"Yenisehir, TR","country":"TR","name":"Yenisehir","_id":737611,"coord":{"lon":29.653061,"lat":40.264439}},{"displayName":"Yeniseysk, RU","country":"RU","name":"Yeniseysk","_id":1485997,"coord":{"lon":92.17028,"lat":58.449718}},{"displayName":"Yennadon, CA","country":"CA","name":"Yennadon","_id":6185449,"coord":{"lon":-122.585899,"lat":49.232971}},{"displayName":"Yenne, FR","country":"FR","name":"Yenne","_id":6454659,"coord":{"lon":5.76667,"lat":45.700001}},{"displayName":"Yenne, FR","country":"FR","name":"Yenne","_id":2967249,"coord":{"lon":5.75795,"lat":45.704201}},{"displayName":"Yenotayevka, RU","country":"RU","name":"Yenotayevka","_id":467479,"coord":{"lon":47.028141,"lat":47.24559}},{"displayName":"Yens, CH","country":"CH","name":"Yens","_id":7287619,"coord":{"lon":6.40671,"lat":46.527}},{"displayName":"Yens, CH","country":"CH","name":"Yens","_id":2657942,"coord":{"lon":6.4185,"lat":46.519009}},{"displayName":"Yeodene, AU","country":"AU","name":"Yeodene","_id":2142325,"coord":{"lon":143.699997,"lat":-38.416672}},{"displayName":"Yeoju, KR","country":"KR","name":"Yeoju","_id":1832743,"coord":{"lon":127.633888,"lat":37.29583}},{"displayName":"Yeola, IN","country":"IN","name":"Yeola","_id":1252738,"coord":{"lon":74.48333,"lat":20.033331}},{"displayName":"yeoncheongun, KR","country":"KR","name":"yeoncheongun","_id":1832697,"coord":{"lon":127.075768,"lat":38.09404}},{"displayName":"Yeongtongi-dong, KR","country":"KR","name":"Yeongtongi-dong","_id":6575891,"coord":{"lon":127.06472,"lat":37.251389}},{"displayName":"Yeorgoulás, GR","country":"GR","name":"Yeorgoulás","_id":733797,"coord":{"lon":23.566669,"lat":40.916672}},{"displayName":"Yeoval, AU","country":"AU","name":"Yeoval","_id":2142322,"coord":{"lon":148.649994,"lat":-32.75}},{"displayName":"Yeovil, GB","country":"GB","name":"Yeovil","_id":2633373,"coord":{"lon":-2.63211,"lat":50.941589}},{"displayName":"Yeovil, ZW","country":"ZW","name":"Yeovil","_id":7418156,"coord":{"lon":32.668968,"lat":-18.967569}},{"displayName":"Yeovilton, GB","country":"GB","name":"Yeovilton","_id":2633371,"coord":{"lon":-2.64898,"lat":51.00359}},{"displayName":"Yeoward Addition, US","country":"US","name":"Yeoward Addition","_id":4917268,"coord":{"lon":-89.66066,"lat":41.758091}},{"displayName":"Yepes, ES","country":"ES","name":"Yepes","_id":6361861,"coord":{"lon":-3.68159,"lat":39.90678}},{"displayName":"Yepes, ES","country":"ES","name":"Yepes","_id":2509389,"coord":{"lon":-3.62517,"lat":39.901981}},{"displayName":"Yepifan, RU","country":"RU","name":"Yepifan","_id":467464,"coord":{"lon":38.551811,"lat":53.82526}},{"displayName":"Yeping, CN","country":"CN","name":"Yeping","_id":1786803,"coord":{"lon":116.069702,"lat":25.90567}},{"displayName":"Yepocapa, GT","country":"GT","name":"Yepocapa","_id":3587636,"coord":{"lon":-90.95694,"lat":14.50417}},{"displayName":"Yeppoon, AU","country":"AU","name":"Yeppoon","_id":2142316,"coord":{"lon":150.733337,"lat":-23.133329}},{"displayName":"Yerakion, GR","country":"GR","name":"Yerakion","_id":251411,"coord":{"lon":22.700001,"lat":37.0}},{"displayName":"Yerandwane, IN","country":"IN","name":"Yerandwane","_id":1252736,"coord":{"lon":73.833328,"lat":18.5}},{"displayName":"Yeranos, AM","country":"AM","name":"Yeranos","_id":616056,"coord":{"lon":45.192089,"lat":40.204281}},{"displayName":"Yeraskhahun, AM","country":"AM","name":"Yeraskhahun","_id":616055,"coord":{"lon":44.21619,"lat":40.071671}},{"displayName":"Yerazgavors, AM","country":"AM","name":"Yerazgavors","_id":616053,"coord":{"lon":43.75,"lat":40.700001}},{"displayName":"Yerba Buena, AR","country":"AR","name":"Yerba Buena","_id":3832260,"coord":{"lon":-65.316673,"lat":-26.816669}},{"displayName":"Yerbabuena, MX","country":"MX","name":"Yerbabuena","_id":3979923,"coord":{"lon":-101.26667,"lat":20.966669}},{"displayName":"Yerbogachen, RU","country":"RU","name":"Yerbogachen","_id":2012956,"coord":{"lon":108.010834,"lat":61.276669}},{"displayName":"Yeremeyevo, RU","country":"RU","name":"Yeremeyevo","_id":467406,"coord":{"lon":37.023888,"lat":55.94278}},{"displayName":"Yeremeyevshchina, BY","country":"BY","name":"Yeremeyevshchina","_id":619594,"coord":{"lon":30.766666,"lat":54.566666}},{"displayName":"Yeremyata, RU","country":"RU","name":"Yeremyata","_id":6609564,"coord":{"lon":42.779999,"lat":56.677776}},{"displayName":"Yerevan, AM","country":"AM","name":"Yerevan","_id":616051,"coord":{"lon":44.5,"lat":40.183331}},{"displayName":"Yerevan, AM","country":"AM","name":"Yerevan","_id":616052,"coord":{"lon":44.513611,"lat":40.18111}},{"displayName":"Yereymentau, KZ","country":"KZ","name":"Yereymentau","_id":1524302,"coord":{"lon":73.106941,"lat":51.621391}},{"displayName":"Yeri, CY","country":"CY","name":"Yeri","_id":145964,"coord":{"lon":33.416672,"lat":35.099998}},{"displayName":"Yerikovskiy, RU","country":"RU","name":"Yerikovskiy","_id":467323,"coord":{"lon":42.736111,"lat":47.411667}},{"displayName":"Yerington, US","country":"US","name":"Yerington","_id":5515507,"coord":{"lon":-119.162933,"lat":38.985748}},{"displayName":"Yerino, RU","country":"RU","name":"Yerino","_id":467315,"coord":{"lon":38.900002,"lat":54.233334}},{"displayName":"Yerkoy, TR","country":"TR","name":"Yerkoy","_id":296895,"coord":{"lon":34.46722,"lat":39.638062}},{"displayName":"Yerky, UA","country":"UA","name":"Yerky","_id":688127,"coord":{"lon":30.98818,"lat":48.99062}},{"displayName":"Yermakove, UA","country":"UA","name":"Yermakove","_id":688122,"coord":{"lon":34.483334,"lat":45.849998}},{"displayName":"Yermakovskoye, RU","country":"RU","name":"Yermakovskoye","_id":1485904,"coord":{"lon":92.400284,"lat":53.283058}},{"displayName":"Yermekeyevo, RU","country":"RU","name":"Yermekeyevo","_id":467260,"coord":{"lon":53.671249,"lat":54.076141}},{"displayName":"Yermish, RU","country":"RU","name":"Yermish","_id":467252,"coord":{"lon":42.271111,"lat":54.76778}},{"displayName":"Yermolayevo, RU","country":"RU","name":"Yermolayevo","_id":467246,"coord":{"lon":55.799999,"lat":52.716671}},{"displayName":"Yermolino, RU","country":"RU","name":"Yermolino","_id":467238,"coord":{"lon":36.595131,"lat":55.194889}},{"displayName":"Yermolino, RU","country":"RU","name":"Yermolino","_id":467235,"coord":{"lon":37.5,"lat":56.133331}},{"displayName":"Yermolitsa, RU","country":"RU","name":"Yermolitsa","_id":467218,"coord":{"lon":42.783333,"lat":59.400002}},{"displayName":"Yernazar, KZ","country":"KZ","name":"Yernazar","_id":1517185,"coord":{"lon":70.699997,"lat":52.016666}},{"displayName":"Yernitskiy Ostrov, RU","country":"RU","name":"Yernitskiy Ostrov","_id":467175,"coord":{"lon":35.166668,"lat":61.983334}},{"displayName":"Yerofey Pavlovich, RU","country":"RU","name":"Yerofey Pavlovich","_id":2012938,"coord":{"lon":121.966667,"lat":53.966671}},{"displayName":"Yeroham, IL","country":"IL","name":"Yeroham","_id":293203,"coord":{"lon":34.931389,"lat":30.987221}},{"displayName":"Yerolakkos, CY","country":"CY","name":"Yerolakkos","_id":145961,"coord":{"lon":33.25,"lat":35.183331}},{"displayName":"Yerong Creek, AU","country":"AU","name":"Yerong Creek","_id":2142308,"coord":{"lon":147.066666,"lat":-35.383331}},{"displayName":"Yeropkino-Bol’shak, RU","country":"RU","name":"Yeropkino-Bol’shak","_id":467155,"coord":{"lon":36.302502,"lat":52.751671}},{"displayName":"Yerovo, RU","country":"RU","name":"Yerovo","_id":6609038,"coord":{"lon":42.39806,"lat":56.765301}},{"displayName":"Yerra, AU","country":"AU","name":"Yerra","_id":2142304,"coord":{"lon":152.533325,"lat":-25.616671}},{"displayName":"Yerres, FR","country":"FR","name":"Yerres","_id":6454885,"coord":{"lon":2.5,"lat":48.716671}},{"displayName":"Yerres, FR","country":"FR","name":"Yerres","_id":2967245,"coord":{"lon":2.49338,"lat":48.71785}},{"displayName":"Yerri, ES","country":"ES","name":"Yerri","_id":6359807,"coord":{"lon":-1.98989,"lat":42.72718}},{"displayName":"Yerri, ES","country":"ES","name":"Yerri","_id":6269610,"coord":{"lon":-1.93806,"lat":42.701611}},{"displayName":"Yerrinbool, AU","country":"AU","name":"Yerrinbool","_id":2142301,"coord":{"lon":150.550003,"lat":-34.366669}},{"displayName":"Yerseke, NL","country":"NL","name":"Yerseke","_id":2744129,"coord":{"lon":4.05,"lat":51.4925}},{"displayName":"Yershichi, RU","country":"RU","name":"Yershichi","_id":467134,"coord":{"lon":32.754169,"lat":53.672501}},{"displayName":"Yershov, RU","country":"RU","name":"Yershov","_id":467120,"coord":{"lon":48.2766,"lat":51.351299}},{"displayName":"Yershovo, RU","country":"RU","name":"Yershovo","_id":467104,"coord":{"lon":36.858055,"lat":55.771111}},{"displayName":"Yershovo, RU","country":"RU","name":"Yershovo","_id":467103,"coord":{"lon":46.849998,"lat":56.400002}},{"displayName":"Yertarskiy, RU","country":"RU","name":"Yertarskiy","_id":1485873,"coord":{"lon":64.299522,"lat":56.790161}},{"displayName":"Yertsevo, RU","country":"RU","name":"Yertsevo","_id":467084,"coord":{"lon":40.085999,"lat":60.7966}},{"displayName":"Yerville, FR","country":"FR","name":"Yerville","_id":6443591,"coord":{"lon":0.9,"lat":49.666672}},{"displayName":"Yerville, FR","country":"FR","name":"Yerville","_id":2967242,"coord":{"lon":0.89594,"lat":49.667198}},{"displayName":"Yeryeri, GR","country":"GR","name":"Yeryeri","_id":251366,"coord":{"lon":24.950001,"lat":35.133331}},{"displayName":"Yerëmino, RU","country":"RU","name":"Yerëmino","_id":467376,"coord":{"lon":37.540279,"lat":56.008888}},{"displayName":"Yerëmino, RU","country":"RU","name":"Yerëmino","_id":467380,"coord":{"lon":49.666668,"lat":51.766666}},{"displayName":"Yerëmino, RU","country":"RU","name":"Yerëmino","_id":467375,"coord":{"lon":38.5,"lat":56.116669}},{"displayName":"Yesa, ES","country":"ES","name":"Yesa","_id":6359808,"coord":{"lon":-1.18595,"lat":42.625858}},{"displayName":"Yesa, ES","country":"ES","name":"Yesa","_id":3104412,"coord":{"lon":-1.2036,"lat":42.620251}},{"displayName":"Yesan, KR","country":"KR","name":"Yesan","_id":1832771,"coord":{"lon":126.84272,"lat":36.677559}},{"displayName":"Yesero, ES","country":"ES","name":"Yesero","_id":3104408,"coord":{"lon":-0.2502,"lat":42.61911}},{"displayName":"Yeshi, CN","country":"CN","name":"Yeshi","_id":7690192,"coord":{"lon":114.933693,"lat":28.309231}},{"displayName":"Yesilalan, TR","country":"TR","name":"Yesilalan","_id":296885,"coord":{"lon":40.78812,"lat":37.46352}},{"displayName":"Yesildere, TR","country":"TR","name":"Yesildere","_id":436138,"coord":{"lon":37.507221,"lat":36.985279}},{"displayName":"Yesilhisar, TR","country":"TR","name":"Yesilhisar","_id":296860,"coord":{"lon":35.08667,"lat":38.34972}},{"displayName":"Yesilli, TR","country":"TR","name":"Yesilli","_id":296832,"coord":{"lon":40.825581,"lat":37.3405}},{"displayName":"Yesilova, TR","country":"TR","name":"Yesilova","_id":296823,"coord":{"lon":29.754721,"lat":37.50806}},{"displayName":"Yesilyurt, TR","country":"TR","name":"Yesilyurt","_id":296791,"coord":{"lon":38.249722,"lat":38.297218}},{"displayName":"Yesilyurt, TR","country":"TR","name":"Yesilyurt","_id":323751,"coord":{"lon":36.220692,"lat":40.006401}},{"displayName":"Yesilyurt, TR","country":"TR","name":"Yesilyurt","_id":737529,"coord":{"lon":36.35144,"lat":40.327862}},{"displayName":"Yesino, RU","country":"RU","name":"Yesino","_id":467037,"coord":{"lon":38.344723,"lat":55.710278}},{"displayName":"Yesiplevo, RU","country":"RU","name":"Yesiplevo","_id":467030,"coord":{"lon":46.366669,"lat":60.733334}},{"displayName":"Yesipovo, RU","country":"RU","name":"Yesipovo","_id":467023,"coord":{"lon":37.099998,"lat":56.099998}},{"displayName":"Yeskino, RU","country":"RU","name":"Yeskino","_id":6609998,"coord":{"lon":42.469166,"lat":56.080833}},{"displayName":"Yessentuki, RU","country":"RU","name":"Yessentuki","_id":466990,"coord":{"lon":42.860561,"lat":44.044441}},{"displayName":"Yessentukskaya, RU","country":"RU","name":"Yessentukskaya","_id":466989,"coord":{"lon":42.881302,"lat":44.032799}},{"displayName":"Yeste, ES","country":"ES","name":"Yeste","_id":6355376,"coord":{"lon":-2.30886,"lat":38.315208}},{"displayName":"Yeste, ES","country":"ES","name":"Yeste","_id":2509386,"coord":{"lon":-2.31756,"lat":38.368519}},{"displayName":"Yetan, CN","country":"CN","name":"Yetan","_id":1786796,"coord":{"lon":115.173523,"lat":23.9056}},{"displayName":"Yetang, CN","country":"CN","name":"Yetang","_id":1919435,"coord":{"lon":115.661392,"lat":24.19553}},{"displayName":"Yetholme, AU","country":"AU","name":"Yetholme","_id":2142295,"coord":{"lon":149.833328,"lat":-33.450001}},{"displayName":"Yetkul, RU","country":"RU","name":"Yetkul","_id":1485849,"coord":{"lon":61.588001,"lat":54.822102}},{"displayName":"Yetman, AU","country":"AU","name":"Yetman","_id":2142293,"coord":{"lon":150.783325,"lat":-28.9}},{"displayName":"Yevdokimovo, RU","country":"RU","name":"Yevdokimovo","_id":6608783,"coord":{"lon":43.647499,"lat":56.88139}},{"displayName":"Yevlakh City, AZ","country":"AZ","name":"Yevlakh City","_id":828307,"coord":{"lon":47.166672,"lat":40.583328}},{"displayName":"Yevlakh Rayon, AZ","country":"AZ","name":"Yevlakh Rayon","_id":584650,"coord":{"lon":47.0,"lat":40.666672}},{"displayName":"Yevlakh, AZ","country":"AZ","name":"Yevlakh","_id":584649,"coord":{"lon":47.150139,"lat":40.61832}},{"displayName":"Yevpatoriya, UA","country":"UA","name":"Yevpatoriya","_id":688105,"coord":{"lon":33.355831,"lat":45.197224}},{"displayName":"Yevres, FR","country":"FR","name":"Yevres","_id":2967236,"coord":{"lon":1.18717,"lat":48.210781}},{"displayName":"Yevreyskaya Avtonomnaya Oblast’, RU","country":"RU","name":"Yevreyskaya Avtonomnaya Oblast’","_id":2026639,"coord":{"lon":132.0,"lat":48.5}},{"displayName":"Yevstaf’yevo, RU","country":"RU","name":"Yevstaf’yevo","_id":1485824,"coord":{"lon":68.599998,"lat":57.466667}},{"displayName":"Yexie, CN","country":"CN","name":"Yexie","_id":1786789,"coord":{"lon":121.316429,"lat":30.945431}},{"displayName":"Yexu, CN","country":"CN","name":"Yexu","_id":1548728,"coord":{"lon":119.927979,"lat":32.397331}},{"displayName":"Yeyatan, CN","country":"CN","name":"Yeyatan","_id":1886064,"coord":{"lon":120.4944,"lat":32.560799}},{"displayName":"Yeysk, RU","country":"RU","name":"Yeysk","_id":466885,"coord":{"lon":38.279167,"lat":46.698891}},{"displayName":"Yezhi, CN","country":"CN","name":"Yezhi","_id":6643969,"coord":{"lon":99.126328,"lat":27.70223}},{"displayName":"Yezhou, CN","country":"CN","name":"Yezhou","_id":1786778,"coord":{"lon":109.723328,"lat":30.603689}},{"displayName":"Yezhovo, RU","country":"RU","name":"Yezhovo","_id":6418639,"coord":{"lon":44.431667,"lat":56.253613}},{"displayName":"Yeşilköy, TR","country":"TR","name":"Yeşilköy","_id":296847,"coord":{"lon":30.80139,"lat":36.895561}},{"displayName":"Yffiniac, FR","country":"FR","name":"Yffiniac","_id":6429199,"coord":{"lon":-2.67639,"lat":48.486938}},{"displayName":"Yffiniac, FR","country":"FR","name":"Yffiniac","_id":2967234,"coord":{"lon":-2.67647,"lat":48.48428}},{"displayName":"Ygatimi, PY","country":"PY","name":"Ygatimi","_id":3436616,"coord":{"lon":-55.5,"lat":-24.08333}},{"displayName":"Ygos-Saint-Saturnin, FR","country":"FR","name":"Ygos-Saint-Saturnin","_id":6434020,"coord":{"lon":-0.73333,"lat":43.98333}},{"displayName":"Ygos-Saint-Saturnin, FR","country":"FR","name":"Ygos-Saint-Saturnin","_id":2967232,"coord":{"lon":-0.7378,"lat":43.976509}},{"displayName":"Ygrande, FR","country":"FR","name":"Ygrande","_id":6425518,"coord":{"lon":2.95,"lat":46.549999}},{"displayName":"Ygrande, FR","country":"FR","name":"Ygrande","_id":2967231,"coord":{"lon":2.94239,"lat":46.552662}},{"displayName":"Yhu, PY","country":"PY","name":"Yhu","_id":3436595,"coord":{"lon":-55.916672,"lat":-25.049999}},{"displayName":"Yi-ngo, TH","country":"TH","name":"Yi-ngo","_id":1604761,"coord":{"lon":101.706261,"lat":6.40296}},{"displayName":"Yiannouli, GR","country":"GR","name":"Yiannouli","_id":251332,"coord":{"lon":22.383329,"lat":39.666672}},{"displayName":"Yiba, GQ","country":"GQ","name":"Yiba","_id":2306492,"coord":{"lon":9.80431,"lat":1.88625}},{"displayName":"Yibin, CN","country":"CN","name":"Yibin","_id":1786770,"coord":{"lon":104.623833,"lat":28.76667}},{"displayName":"Yichang, CN","country":"CN","name":"Yichang","_id":1786764,"coord":{"lon":111.284721,"lat":30.714439}},{"displayName":"Yicheng, CN","country":"CN","name":"Yicheng","_id":1786759,"coord":{"lon":112.256111,"lat":31.70472}},{"displayName":"Yicheng, CN","country":"CN","name":"Yicheng","_id":1786760,"coord":{"lon":119.87027,"lat":31.370529}},{"displayName":"Yicheng, CN","country":"CN","name":"Yicheng","_id":7685360,"coord":{"lon":115.174393,"lat":27.98543}},{"displayName":"Yichongqiao, CN","country":"CN","name":"Yichongqiao","_id":1786751,"coord":{"lon":110.86113,"lat":29.33136}},{"displayName":"Yichun, CN","country":"CN","name":"Yichun","_id":2033413,"coord":{"lon":128.899994,"lat":47.700001}},{"displayName":"Yichun, CN","country":"CN","name":"Yichun","_id":1786746,"coord":{"lon":114.400002,"lat":27.83333}},{"displayName":"Yidian, CN","country":"CN","name":"Yidian","_id":1786738,"coord":{"lon":107.75309,"lat":34.403759}},{"displayName":"Yidu, CN","country":"CN","name":"Yidu","_id":1919445,"coord":{"lon":115.132751,"lat":24.161449}},{"displayName":"Yielima, AU","country":"AU","name":"Yielima","_id":2142288,"coord":{"lon":145.216675,"lat":-35.933331}},{"displayName":"Yigilca, TR","country":"TR","name":"Yigilca","_id":737521,"coord":{"lon":31.44356,"lat":40.959831}},{"displayName":"Yigo Mayors Office, GU","country":"GU","name":"Yigo Mayors Office","_id":7871342,"coord":{"lon":144.893097,"lat":13.53565}},{"displayName":"Yigo Municipality, GU","country":"GU","name":"Yigo Municipality","_id":4038796,"coord":{"lon":144.88913,"lat":13.53603}},{"displayName":"Yigo Village, GU","country":"GU","name":"Yigo Village","_id":4038794,"coord":{"lon":144.88855,"lat":13.53605}},{"displayName":"Yigou, CN","country":"CN","name":"Yigou","_id":1786720,"coord":{"lon":114.316673,"lat":35.81139}},{"displayName":"Yihe Ayl, MN","country":"MN","name":"Yihe Ayl","_id":2028219,"coord":{"lon":116.783333,"lat":46.283329}},{"displayName":"Yihe, CN","country":"CN","name":"Yihe","_id":1917081,"coord":{"lon":114.863167,"lat":23.845051}},{"displayName":"Yihe, CN","country":"CN","name":"Yihe","_id":7679698,"coord":{"lon":119.352966,"lat":29.960609}},{"displayName":"Yijiang, CN","country":"CN","name":"Yijiang","_id":1786706,"coord":{"lon":118.486061,"lat":30.90745}},{"displayName":"Yijiang, CN","country":"CN","name":"Yijiang","_id":7060474,"coord":{"lon":118.360527,"lat":31.31546}},{"displayName":"Yijiang, CN","country":"CN","name":"Yijiang","_id":7685353,"coord":{"lon":115.353912,"lat":27.70178}},{"displayName":"Yijing, CN","country":"CN","name":"Yijing","_id":1786696,"coord":{"lon":113.214027,"lat":39.639301}},{"displayName":"Yijing, CN","country":"CN","name":"Yijing","_id":1786697,"coord":{"lon":111.99984,"lat":39.064491}},{"displayName":"Yijing, CN","country":"CN","name":"Yijing","_id":1786699,"coord":{"lon":113.601936,"lat":37.83556}},{"displayName":"Yijing, CN","country":"CN","name":"Yijing","_id":1786702,"coord":{"lon":108.105003,"lat":34.57222}},{"displayName":"Yilan, CN","country":"CN","name":"Yilan","_id":2033403,"coord":{"lon":129.566666,"lat":46.316669}},{"displayName":"Yilan, TW","country":"TW","name":"Yilan","_id":1674197,"coord":{"lon":121.633614,"lat":24.5425}},{"displayName":"Yilan, TW","country":"TW","name":"Yilan","_id":1674199,"coord":{"lon":121.752998,"lat":24.757}},{"displayName":"Yildizeli, TR","country":"TR","name":"Yildizeli","_id":296708,"coord":{"lon":36.598888,"lat":39.86639}},{"displayName":"Yilgarn, AU","country":"AU","name":"Yilgarn","_id":7839859,"coord":{"lon":119.258812,"lat":-30.90938}},{"displayName":"Yiliu, CN","country":"CN","name":"Yiliu","_id":1917362,"coord":{"lon":113.38382,"lat":24.83066}},{"displayName":"Yiliu, CN","country":"CN","name":"Yiliu","_id":6988066,"coord":{"lon":102.788269,"lat":24.94521}},{"displayName":"Yilkiqi, CN","country":"CN","name":"Yilkiqi","_id":1346620,"coord":{"lon":77.249168,"lat":37.961109}},{"displayName":"Yilliminning, AU","country":"AU","name":"Yilliminning","_id":2057308,"coord":{"lon":117.366669,"lat":-32.900002}},{"displayName":"Yilong, CN","country":"CN","name":"Yilong","_id":1795074,"coord":{"lon":102.487007,"lat":23.69137}},{"displayName":"Yima, CN","country":"CN","name":"Yima","_id":1786676,"coord":{"lon":111.883888,"lat":34.73806}},{"displayName":"Yimbun, AU","country":"AU","name":"Yimbun","_id":2142286,"coord":{"lon":152.366669,"lat":-27.033331}},