[{"displayName":"Bijar, IR","country":"IR","name":"Bijar","_id":140521,"coord":{"lon":47.605061,"lat":35.866798}},{"displayName":"Bijawar, IN","country":"IN","name":"Bijawar","_id":1275694,"coord":{"lon":79.5,"lat":24.633329}},{"displayName":"Bijbiara, IN","country":"IN","name":"Bijbiara","_id":1275692,"coord":{"lon":75.099998,"lat":33.799999}},{"displayName":"Bijela, BA","country":"BA","name":"Bijela","_id":3344788,"coord":{"lon":17.951941,"lat":43.608608}},{"displayName":"Bijela, ME","country":"ME","name":"Bijela","_id":3204214,"coord":{"lon":18.65556,"lat":42.453331}},{"displayName":"Bijeljina, BA","country":"BA","name":"Bijeljina","_id":3204186,"coord":{"lon":19.21611,"lat":44.756939}},{"displayName":"Bijia, CN","country":"CN","name":"Bijia","_id":7048330,"coord":{"lon":109.838448,"lat":34.582439}},{"displayName":"Bijie, CN","country":"CN","name":"Bijie","_id":1816373,"coord":{"lon":105.294167,"lat":27.3125}},{"displayName":"Bijnaur, IN","country":"IN","name":"Bijnaur","_id":1275683,"coord":{"lon":80.916664,"lat":26.75}},{"displayName":"Bijni, IN","country":"IN","name":"Bijni","_id":1275682,"coord":{"lon":90.70298,"lat":26.49588}},{"displayName":"Bijnor, IN","country":"IN","name":"Bijnor","_id":1275679,"coord":{"lon":78.133331,"lat":29.366671}},{"displayName":"Bijroni, IN","country":"IN","name":"Bijroni","_id":1275674,"coord":{"lon":77.633331,"lat":24.91667}},{"displayName":"Bijuesca, ES","country":"ES","name":"Bijuesca","_id":6362743,"coord":{"lon":-1.91016,"lat":41.539501}},{"displayName":"Bijuesca, ES","country":"ES","name":"Bijuesca","_id":3128027,"coord":{"lon":-1.92039,"lat":41.540829}},{"displayName":"Bikaner, IN","country":"IN","name":"Bikaner","_id":1275665,"coord":{"lon":73.300003,"lat":28.01667}},{"displayName":"Bikapur, IN","country":"IN","name":"Bikapur","_id":1275661,"coord":{"lon":82.133331,"lat":26.6}},{"displayName":"Bikenibeu Village, KI","country":"KI","name":"Bikenibeu Village","_id":7601774,"coord":{"lon":173.124146,"lat":1.3673}},{"displayName":"Bikin, RU","country":"RU","name":"Bikin","_id":2026696,"coord":{"lon":134.259995,"lat":46.816109}},{"displayName":"Biking, PH","country":"PH","name":"Biking","_id":1725319,"coord":{"lon":123.843033,"lat":9.59382}},{"displayName":"Bikramganj, IN","country":"IN","name":"Bikramganj","_id":1275655,"coord":{"lon":84.25,"lat":25.200001}},{"displayName":"Bil-Loca, PH","country":"PH","name":"Bil-Loca","_id":1725250,"coord":{"lon":120.568703,"lat":18.0875}},{"displayName":"Bila Krynytsya, UA","country":"UA","name":"Bila Krynytsya","_id":712656,"coord":{"lon":29.470409,"lat":50.63982}},{"displayName":"Bila Lhota, CZ","country":"CZ","name":"Bila Lhota","_id":3079374,"coord":{"lon":16.975071,"lat":49.70953}},{"displayName":"Bila Skelya, UA","country":"UA","name":"Bila Skelya","_id":712654,"coord":{"lon":34.616669,"lat":45.099998}},{"displayName":"Bila Tremesna, CZ","country":"CZ","name":"Bila Tremesna","_id":3079368,"coord":{"lon":15.74101,"lat":50.444649}},{"displayName":"Bila Tserkva, UA","country":"UA","name":"Bila Tserkva","_id":712165,"coord":{"lon":30.112089,"lat":49.809391}},{"displayName":"Bila, BA","country":"BA","name":"Bila","_id":3204168,"coord":{"lon":16.92528,"lat":43.782501}},{"displayName":"Bilac, BR","country":"BR","name":"Bilac","_id":3469998,"coord":{"lon":-50.470558,"lat":-21.40333}},{"displayName":"Bilad, PH","country":"PH","name":"Bilad","_id":1725308,"coord":{"lon":120.4356,"lat":15.7334}},{"displayName":"Bilajari, AZ","country":"AZ","name":"Bilajari","_id":587078,"coord":{"lon":49.80566,"lat":40.444401}},{"displayName":"Bilajer, AZ","country":"AZ","name":"Bilajer","_id":586971,"coord":{"lon":50.037781,"lat":40.568062}},{"displayName":"Bilambil, AU","country":"AU","name":"Bilambil","_id":2175872,"coord":{"lon":153.466675,"lat":-28.23333}},{"displayName":"Bilao, PH","country":"PH","name":"Bilao","_id":1725297,"coord":{"lon":122.559898,"lat":11.488}},{"displayName":"Bilar, PH","country":"PH","name":"Bilar","_id":1725294,"coord":{"lon":124.10717,"lat":9.70825}},{"displayName":"Bilara, IN","country":"IN","name":"Bilara","_id":1275647,"coord":{"lon":73.705559,"lat":26.179171}},{"displayName":"Bilaran, PH","country":"PH","name":"Bilaran","_id":1725292,"coord":{"lon":120.710281,"lat":14.03528}},{"displayName":"Bilari, IN","country":"IN","name":"Bilari","_id":1275646,"coord":{"lon":78.800003,"lat":28.633329}},{"displayName":"Bilariaganj, IN","country":"IN","name":"Bilariaganj","_id":1275645,"coord":{"lon":83.23333,"lat":26.19861}},{"displayName":"Bilasipara, IN","country":"IN","name":"Bilasipara","_id":1275641,"coord":{"lon":90.234749,"lat":26.231951}},{"displayName":"Bilaspur, IN","country":"IN","name":"Bilaspur","_id":1275637,"coord":{"lon":82.150002,"lat":22.08333}},{"displayName":"Bilaspur, IN","country":"IN","name":"Bilaspur","_id":1275634,"coord":{"lon":79.26667,"lat":28.883329}},{"displayName":"Bilaspur, IN","country":"IN","name":"Bilaspur","_id":1275631,"coord":{"lon":76.75,"lat":31.33333}},{"displayName":"Bilaspur, IN","country":"IN","name":"Bilaspur","_id":1275633,"coord":{"lon":77.316673,"lat":30.316669}},{"displayName":"Bilaspur, IN","country":"IN","name":"Bilaspur","_id":1275635,"coord":{"lon":77.616669,"lat":28.4}},{"displayName":"Bilasuvar Rayon, AZ","country":"AZ","name":"Bilasuvar Rayon","_id":147310,"coord":{"lon":48.416672,"lat":39.5}},{"displayName":"Bilbao Airport, ES","country":"ES","name":"Bilbao Airport","_id":6615397,"coord":{"lon":-2.90657,"lat":43.30513}},{"displayName":"Bilbao, ES","country":"ES","name":"Bilbao","_id":6362368,"coord":{"lon":-2.93341,"lat":43.260349}},{"displayName":"Bilbao, ES","country":"ES","name":"Bilbao","_id":6545095,"coord":{"lon":-3.70114,"lat":40.429131}},{"displayName":"Bilbao, ES","country":"ES","name":"Bilbao","_id":3128026,"coord":{"lon":-2.92528,"lat":43.262711}},{"displayName":"Bilbays, EG","country":"EG","name":"Bilbays","_id":358840,"coord":{"lon":31.562229,"lat":30.420389}},{"displayName":"Bilbor, RO","country":"RO","name":"Bilbor","_id":684870,"coord":{"lon":25.51667,"lat":47.049999}},{"displayName":"Bilby, CA","country":"CA","name":"Bilby","_id":5901079,"coord":{"lon":-114.102058,"lat":53.700142}},{"displayName":"Bilca, RO","country":"RO","name":"Bilca","_id":684866,"coord":{"lon":25.75,"lat":47.916672}},{"displayName":"Bilciuresti, RO","country":"RO","name":"Bilciuresti","_id":684860,"coord":{"lon":25.799999,"lat":44.73333}},{"displayName":"Bildosola, ES","country":"ES","name":"Bildosola","_id":3105790,"coord":{"lon":-2.78333,"lat":43.133331}},{"displayName":"Bildstein, AT","country":"AT","name":"Bildstein","_id":7872654,"coord":{"lon":9.79324,"lat":47.460499}},{"displayName":"Bildstein, AT","country":"AT","name":"Bildstein","_id":2781764,"coord":{"lon":9.76667,"lat":47.450001}},{"displayName":"Bileca, BA","country":"BA","name":"Bileca","_id":3204161,"coord":{"lon":18.42972,"lat":42.871941}},{"displayName":"Bilecik, TR","country":"TR","name":"Bilecik","_id":321122,"coord":{"lon":30.16667,"lat":40.0}},{"displayName":"Bilecik, TR","country":"TR","name":"Bilecik","_id":750598,"coord":{"lon":29.979321,"lat":40.141918}},{"displayName":"Biled, RO","country":"RO","name":"Biled","_id":684855,"coord":{"lon":20.958891,"lat":45.886391}},{"displayName":"Bilfingen, DE","country":"DE","name":"Bilfingen","_id":2948968,"coord":{"lon":8.61667,"lat":48.950001}},{"displayName":"Bilgaard, NL","country":"NL","name":"Bilgaard","_id":2758930,"coord":{"lon":5.79574,"lat":53.2155}},{"displayName":"Bilgi, IN","country":"IN","name":"Bilgi","_id":1275619,"coord":{"lon":75.616669,"lat":16.35}},{"displayName":"Bilgoraj, PL","country":"PL","name":"Bilgoraj","_id":775922,"coord":{"lon":22.72204,"lat":50.541142}},{"displayName":"Bilgram, IN","country":"IN","name":"Bilgram","_id":1275618,"coord":{"lon":80.033333,"lat":27.183331}},{"displayName":"Bilhaur, IN","country":"IN","name":"Bilhaur","_id":1275614,"coord":{"lon":80.083328,"lat":26.85}},{"displayName":"Bilhorod-Dnistrovskyy, UA","country":"UA","name":"Bilhorod-Dnistrovskyy","_id":712160,"coord":{"lon":30.35,"lat":46.200001}},{"displayName":"Bilhères, FR","country":"FR","name":"Bilhères","_id":6440305,"coord":{"lon":-0.45,"lat":43.066669}},{"displayName":"Bilhères, FR","country":"FR","name":"Bilhères","_id":3032653,"coord":{"lon":-0.45,"lat":43.066669}},{"displayName":"Bili Oslavy, UA","country":"UA","name":"Bili Oslavy","_id":712477,"coord":{"lon":24.700781,"lat":48.487221}},{"displayName":"Biliau Mission, PG","country":"PG","name":"Biliau Mission","_id":2099488,"coord":{"lon":146.333328,"lat":-5.58333}},{"displayName":"Bilibino, RU","country":"RU","name":"Bilibino","_id":2126682,"coord":{"lon":166.43721,"lat":68.054642}},{"displayName":"Bilice, HR","country":"HR","name":"Bilice","_id":3204156,"coord":{"lon":17.84111,"lat":45.236671}},{"displayName":"Bilicenii Vechi, MD","country":"MD","name":"Bilicenii Vechi","_id":617345,"coord":{"lon":28.04722,"lat":47.656391}},{"displayName":"Bilieu, FR","country":"FR","name":"Bilieu","_id":3032648,"coord":{"lon":5.54624,"lat":45.444519}},{"displayName":"Biliktuy, RU","country":"RU","name":"Biliktuy","_id":2026678,"coord":{"lon":103.826111,"lat":52.598888}},{"displayName":"Bilimbay, RU","country":"RU","name":"Bilimbay","_id":576351,"coord":{"lon":59.814899,"lat":56.968891}},{"displayName":"Bilin, PS","country":"PS","name":"Bilin","_id":284269,"coord":{"lon":35.072041,"lat":31.92835}},{"displayName":"Bilina Kyselka, CZ","country":"CZ","name":"Bilina Kyselka","_id":3079346,"coord":{"lon":13.76667,"lat":50.549999}},{"displayName":"Bilina, CZ","country":"CZ","name":"Bilina","_id":3079348,"coord":{"lon":13.77535,"lat":50.548538}},{"displayName":"Bilinga, AU","country":"AU","name":"Bilinga","_id":2175860,"coord":{"lon":153.516663,"lat":-28.16667}},{"displayName":"Biliran, PH","country":"PH","name":"Biliran","_id":1725258,"coord":{"lon":124.475281,"lat":11.46667}},{"displayName":"Biliri, NG","country":"NG","name":"Biliri","_id":2347155,"coord":{"lon":11.22528,"lat":9.86472}},{"displayName":"Bilisht, AL","country":"AL","name":"Bilisht","_id":783606,"coord":{"lon":20.99,"lat":40.627499}},{"displayName":"Biljaca, RS","country":"RS","name":"Biljaca","_id":792623,"coord":{"lon":21.749439,"lat":42.355831}},{"displayName":"Bilje, HR","country":"HR","name":"Bilje","_id":3204145,"coord":{"lon":18.743891,"lat":45.606941}},{"displayName":"Bilje, SI","country":"SI","name":"Bilje","_id":3204144,"coord":{"lon":13.63222,"lat":45.89444}},{"displayName":"Bilkha, IN","country":"IN","name":"Bilkha","_id":1275609,"coord":{"lon":70.599998,"lat":21.433331}},{"displayName":"Bilkheim, DE","country":"DE","name":"Bilkheim","_id":6554195,"coord":{"lon":7.95,"lat":50.5}},{"displayName":"Bilkheim, DE","country":"DE","name":"Bilkheim","_id":2948963,"coord":{"lon":7.95,"lat":50.5}},{"displayName":"Bilky, UA","country":"UA","name":"Bilky","_id":712602,"coord":{"lon":23.132481,"lat":48.315029}},{"displayName":"Billa, ID","country":"ID","name":"Billa","_id":7389509,"coord":{"lon":120.077599,"lat":-9.9469}},{"displayName":"Billas, FR","country":"FR","name":"Billas","_id":3032644,"coord":{"lon":0.48018,"lat":44.60437}},{"displayName":"Billberge, DE","country":"DE","name":"Billberge","_id":2948957,"coord":{"lon":12.00359,"lat":52.630562}},{"displayName":"Billdal, SE","country":"SE","name":"Billdal","_id":2722570,"coord":{"lon":11.93333,"lat":57.566669}},{"displayName":"Billenhagen, DE","country":"DE","name":"Billenhagen","_id":2948950,"coord":{"lon":12.35816,"lat":54.12352}},{"displayName":"Billens-Hennens, CH","country":"CH","name":"Billens-Hennens","_id":7285245,"coord":{"lon":6.88669,"lat":46.685322}},{"displayName":"Billerbeck, DE","country":"DE","name":"Billerbeck","_id":2948944,"coord":{"lon":7.3,"lat":51.966671}},{"displayName":"Billere, FR","country":"FR","name":"Billere","_id":3032639,"coord":{"lon":-0.4,"lat":43.299999}},{"displayName":"Billerica, US","country":"US","name":"Billerica","_id":4930577,"coord":{"lon":-71.268951,"lat":42.55843}},{"displayName":"Billericay, GB","country":"GB","name":"Billericay","_id":2655672,"coord":{"lon":0.41963,"lat":51.62867}},{"displayName":"Billesholm, SE","country":"SE","name":"Billesholm","_id":2722563,"coord":{"lon":13.0,"lat":56.049999}},{"displayName":"Billezois, FR","country":"FR","name":"Billezois","_id":6446520,"coord":{"lon":3.56667,"lat":46.216671}},{"displayName":"Billezois, FR","country":"FR","name":"Billezois","_id":3032637,"coord":{"lon":3.57278,"lat":46.210041}},{"displayName":"Billigheim, DE","country":"DE","name":"Billigheim","_id":6555640,"coord":{"lon":9.25389,"lat":49.348598}},{"displayName":"Billigheim, DE","country":"DE","name":"Billigheim","_id":2948934,"coord":{"lon":9.25389,"lat":49.34861}},{"displayName":"Billigheim-Ingenheim, DE","country":"DE","name":"Billigheim-Ingenheim","_id":6555166,"coord":{"lon":8.09056,"lat":49.1367}},{"displayName":"Billigheim-Ingenheim, DE","country":"DE","name":"Billigheim-Ingenheim","_id":3272462,"coord":{"lon":8.09056,"lat":49.136669}},{"displayName":"Billimari, AU","country":"AU","name":"Billimari","_id":2175843,"coord":{"lon":148.616669,"lat":-33.683331}},{"displayName":"Billinge, GB","country":"GB","name":"Billinge","_id":2655666,"coord":{"lon":-2.7081,"lat":53.497952}},{"displayName":"Billingham, GB","country":"GB","name":"Billingham","_id":7299561,"coord":{"lon":-1.23676,"lat":54.601879}},{"displayName":"Billingham, GB","country":"GB","name":"Billingham","_id":2655664,"coord":{"lon":-1.29214,"lat":54.60828}},{"displayName":"Billinghay, GB","country":"GB","name":"Billinghay","_id":2655663,"coord":{"lon":-0.27689,"lat":53.07959}},{"displayName":"Billinghurst, AR","country":"AR","name":"Billinghurst","_id":3436022,"coord":{"lon":-58.58559,"lat":-34.579762}},{"displayName":"Billings, US","country":"US","name":"Billings","_id":5640350,"coord":{"lon":-108.500687,"lat":45.783291}},{"displayName":"Billings, US","country":"US","name":"Billings","_id":4377158,"coord":{"lon":-93.552139,"lat":37.067551}},{"displayName":"Billingsfors, SE","country":"SE","name":"Billingsfors","_id":2722545,"coord":{"lon":12.25,"lat":58.98333}},{"displayName":"Billingshausen, DE","country":"DE","name":"Billingshausen","_id":2948925,"coord":{"lon":9.72111,"lat":49.871941}},{"displayName":"Billingshurst, GB","country":"GB","name":"Billingshurst","_id":2655662,"coord":{"lon":-0.45413,"lat":51.019211}},{"displayName":"Billington Heights, US","country":"US","name":"Billington Heights","_id":5109168,"coord":{"lon":-78.626419,"lat":42.784229}},{"displayName":"Billington, GB","country":"GB","name":"Billington","_id":6692336,"coord":{"lon":-2.4236,"lat":53.815701}},{"displayName":"Billinudgel, AU","country":"AU","name":"Billinudgel","_id":2175841,"coord":{"lon":153.533325,"lat":-28.5}},{"displayName":"Billom, FR","country":"FR","name":"Billom","_id":6455210,"coord":{"lon":3.35,"lat":45.716671}},{"displayName":"Billom, FR","country":"FR","name":"Billom","_id":3032629,"coord":{"lon":3.34243,"lat":45.72303}},{"displayName":"Billroda, DE","country":"DE","name":"Billroda","_id":2948920,"coord":{"lon":11.45,"lat":51.200001}},{"displayName":"Billund Kommune, DK","country":"DK","name":"Billund Kommune","_id":2624143,"coord":{"lon":9.0,"lat":55.666672}},{"displayName":"Billund, DK","country":"DK","name":"Billund","_id":2624144,"coord":{"lon":9.10785,"lat":55.73349}},{"displayName":"Billups, US","country":"US","name":"Billups","_id":4418462,"coord":{"lon":-88.585052,"lat":33.430679}},{"displayName":"Billwerder, DE","country":"DE","name":"Billwerder","_id":2948913,"coord":{"lon":10.11667,"lat":53.51667}},{"displayName":"Billy-Berclau, FR","country":"FR","name":"Billy-Berclau","_id":3032622,"coord":{"lon":2.86613,"lat":50.51783}},{"displayName":"Billy-Montigny, FR","country":"FR","name":"Billy-Montigny","_id":3032618,"coord":{"lon":2.90286,"lat":50.41711}},{"displayName":"Billy-sur-Aisne, FR","country":"FR","name":"Billy-sur-Aisne","_id":3032615,"coord":{"lon":3.38357,"lat":49.356319}},{"displayName":"Billère, FR","country":"FR","name":"Billère","_id":6440306,"coord":{"lon":-0.4,"lat":43.299999}},{"displayName":"Bilm, DE","country":"DE","name":"Bilm","_id":2948911,"coord":{"lon":9.91667,"lat":52.333328}},{"displayName":"Bilma, NE","country":"NE","name":"Bilma","_id":2446796,"coord":{"lon":12.91643,"lat":18.68532}},{"displayName":"Bilmece, TR","country":"TR","name":"Bilmece","_id":750594,"coord":{"lon":36.150002,"lat":41.150002}},{"displayName":"Bilo, ID","country":"ID","name":"Bilo","_id":7036669,"coord":{"lon":112.378197,"lat":-7.1114}},{"displayName":"Biloela, AU","country":"AU","name":"Biloela","_id":2175819,"coord":{"lon":150.5,"lat":-24.41667}},{"displayName":"Bilog-Bilog, PH","country":"PH","name":"Bilog-Bilog","_id":1725245,"coord":{"lon":121.088608,"lat":14.11361}},{"displayName":"Bilohirsk, UA","country":"UA","name":"Bilohirsk","_id":712587,"coord":{"lon":34.599998,"lat":45.049999}},{"displayName":"Bilokurakyne, UA","country":"UA","name":"Bilokurakyne","_id":712569,"coord":{"lon":38.730671,"lat":49.5341}},{"displayName":"Biloli, IN","country":"IN","name":"Biloli","_id":1275601,"coord":{"lon":77.73333,"lat":18.76667}},{"displayName":"Bilopillya, UA","country":"UA","name":"Bilopillya","_id":712559,"coord":{"lon":34.31287,"lat":51.150162}},{"displayName":"Bilovec, CZ","country":"CZ","name":"Bilovec","_id":3079336,"coord":{"lon":18.01581,"lat":49.75639}},{"displayName":"Bilovice nad Svitavou, CZ","country":"CZ","name":"Bilovice nad Svitavou","_id":3079332,"coord":{"lon":16.67247,"lat":49.247082}},{"displayName":"Bilovice, CZ","country":"CZ","name":"Bilovice","_id":3079334,"coord":{"lon":17.54961,"lat":49.099651}},{"displayName":"Bilovodsk, UA","country":"UA","name":"Bilovodsk","_id":712521,"coord":{"lon":39.589748,"lat":49.208462}},{"displayName":"Biloxi, US","country":"US","name":"Biloxi","_id":4418478,"coord":{"lon":-88.885307,"lat":30.39603}},{"displayName":"Bilozerka, UA","country":"UA","name":"Bilozerka","_id":712508,"coord":{"lon":32.442509,"lat":46.624802}},{"displayName":"Bilpin, AU","country":"AU","name":"Bilpin","_id":2175818,"coord":{"lon":150.533325,"lat":-33.5}},{"displayName":"Bilqas Qism Awwal, EG","country":"EG","name":"Bilqas Qism Awwal","_id":358821,"coord":{"lon":31.357981,"lat":31.21452}},{"displayName":"Bilsanda, IN","country":"IN","name":"Bilsanda","_id":1275593,"coord":{"lon":79.949997,"lat":28.25}},{"displayName":"Bilsdale, GB","country":"GB","name":"Bilsdale","_id":6947729,"coord":{"lon":-1.11923,"lat":54.373562}},{"displayName":"Bilsdorf, LU","country":"LU","name":"Bilsdorf","_id":2960766,"coord":{"lon":5.825,"lat":49.857498}},{"displayName":"Bilsen, DE","country":"DE","name":"Bilsen","_id":6551671,"coord":{"lon":9.88333,"lat":53.766701}},{"displayName":"Bilsen, DE","country":"DE","name":"Bilsen","_id":2948902,"coord":{"lon":9.88333,"lat":53.76667}},{"displayName":"Bilshausen, DE","country":"DE","name":"Bilshausen","_id":2948895,"coord":{"lon":10.16667,"lat":51.616669}},{"displayName":"Bilshausen, DE","country":"DE","name":"Bilshausen","_id":6552334,"coord":{"lon":10.1667,"lat":51.616699}},{"displayName":"Bilshivtsi, UA","country":"UA","name":"Bilshivtsi","_id":711752,"coord":{"lon":24.75,"lat":49.183331}},{"displayName":"Bilsi, IN","country":"IN","name":"Bilsi","_id":1275590,"coord":{"lon":78.916672,"lat":28.133329}},{"displayName":"Bilsthorpe, GB","country":"GB","name":"Bilsthorpe","_id":2655655,"coord":{"lon":-1.03392,"lat":53.14024}},{"displayName":"Bilston, GB","country":"GB","name":"Bilston","_id":2655654,"coord":{"lon":-2.06667,"lat":52.566669}},{"displayName":"Bilten, CH","country":"CH","name":"Bilten","_id":7285246,"coord":{"lon":9.00777,"lat":47.147839}},{"displayName":"Bilten, CH","country":"CH","name":"Bilten","_id":2661503,"coord":{"lon":9.02821,"lat":47.15099}},{"displayName":"Biltine, TD","country":"TD","name":"Biltine","_id":244878,"coord":{"lon":20.91667,"lat":14.53333}},{"displayName":"Biltmore Forest, US","country":"US","name":"Biltmore Forest","_id":4455999,"coord":{"lon":-82.528458,"lat":35.533718}},{"displayName":"Bilungala, ID","country":"ID","name":"Bilungala","_id":1648761,"coord":{"lon":123.213501,"lat":0.3815}},{"displayName":"Biluu, MN","country":"MN","name":"Biluu","_id":1516240,"coord":{"lon":89.437981,"lat":49.04372}},{"displayName":"Bilwang, PH","country":"PH","name":"Bilwang","_id":1725232,"coord":{"lon":124.466698,"lat":10.8834}},{"displayName":"Bilyana, AU","country":"AU","name":"Bilyana","_id":2175815,"coord":{"lon":145.916672,"lat":-18.133329}},{"displayName":"Bilyarsk, RU","country":"RU","name":"Bilyarsk","_id":576342,"coord":{"lon":50.386711,"lat":54.983582}},{"displayName":"Bilyayivka, UA","country":"UA","name":"Bilyayivka","_id":712488,"coord":{"lon":30.21678,"lat":46.483189}},{"displayName":"Bilzen, BE","country":"BE","name":"Bilzen","_id":2801925,"coord":{"lon":5.51625,"lat":50.872978}},{"displayName":"Bilzen, BE","country":"BE","name":"Bilzen","_id":2801924,"coord":{"lon":5.5184,"lat":50.873249}},{"displayName":"Bilzingsleben, DE","country":"DE","name":"Bilzingsleben","_id":6550118,"coord":{"lon":11.0667,"lat":51.283298}},{"displayName":"Bilzingsleben, DE","country":"DE","name":"Bilzingsleben","_id":2948874,"coord":{"lon":11.06667,"lat":51.283329}},{"displayName":"Bilād aş Şūr, OM","country":"OM","name":"Bilād aş Şūr","_id":288712,"coord":{"lon":59.484871,"lat":22.55283}},{"displayName":"Bim Son, VN","country":"VN","name":"Bim Son","_id":1587919,"coord":{"lon":105.860283,"lat":20.07806}},{"displayName":"Bima, ID","country":"ID","name":"Bima","_id":1648759,"coord":{"lon":118.716667,"lat":-8.46667}},{"displayName":"Bimbi, AU","country":"AU","name":"Bimbi","_id":2175800,"coord":{"lon":147.949997,"lat":-34.049999}},{"displayName":"Bimbini, KM","country":"KM","name":"Bimbini","_id":921967,"coord":{"lon":44.235561,"lat":-12.18833}},{"displayName":"Bimbo, CF","country":"CF","name":"Bimbo","_id":2388873,"coord":{"lon":18.415831,"lat":4.25671}},{"displayName":"Bimenes, ES","country":"ES","name":"Bimenes","_id":3128019,"coord":{"lon":-5.55,"lat":43.316669}},{"displayName":"Bimini District, BS","country":"BS","name":"Bimini District","_id":3572807,"coord":{"lon":-79.288887,"lat":25.704439}},{"displayName":"Bimohlen, DE","country":"DE","name":"Bimohlen","_id":2948866,"coord":{"lon":9.95,"lat":53.933331}},{"displayName":"Bimu, CN","country":"CN","name":"Bimu","_id":7066223,"coord":{"lon":118.098961,"lat":28.67662}},{"displayName":"Bimöhlen, DE","country":"DE","name":"Bimöhlen","_id":6552074,"coord":{"lon":9.95,"lat":53.9333}},{"displayName":"Bin Ghashīr, LY","country":"LY","name":"Bin Ghashīr","_id":2218587,"coord":{"lon":13.17389,"lat":32.687778}},{"displayName":"Bin Qirdan, TN","country":"TN","name":"Bin Qirdan","_id":2472431,"coord":{"lon":11.21965,"lat":33.137829}},{"displayName":"Bin Yauri, NG","country":"NG","name":"Bin Yauri","_id":2347109,"coord":{"lon":4.81135,"lat":10.7823}},{"displayName":"Binabaan, PH","country":"PH","name":"Binabaan","_id":1725217,"coord":{"lon":122.522102,"lat":11.0191}},{"displayName":"Binabalian Ricor, PH","country":"PH","name":"Binabalian Ricor","_id":1725210,"coord":{"lon":119.927902,"lat":16.4202}},{"displayName":"Binaced, ES","country":"ES","name":"Binaced","_id":6358306,"coord":{"lon":0.21552,"lat":41.81179}},{"displayName":"Binaced, ES","country":"ES","name":"Binaced","_id":3128017,"coord":{"lon":0.20084,"lat":41.825642}},{"displayName":"Binagadi, AZ","country":"AZ","name":"Binagadi","_id":586967,"coord":{"lon":49.827831,"lat":40.466019}},{"displayName":"Binago, IT","country":"IT","name":"Binago","_id":6535747,"coord":{"lon":8.92234,"lat":45.782181}},{"displayName":"Binahaan, PH","country":"PH","name":"Binahaan","_id":1725173,"coord":{"lon":121.758057,"lat":13.99056}},{"displayName":"Binalan, PH","country":"PH","name":"Binalan","_id":1725166,"coord":{"lon":121.545097,"lat":18.327499}},{"displayName":"Binalbagan, PH","country":"PH","name":"Binalbagan","_id":1725157,"coord":{"lon":122.858101,"lat":10.1948}},{"displayName":"Binalonan, PH","country":"PH","name":"Binalonan","_id":1725127,"coord":{"lon":120.592598,"lat":16.050301}},{"displayName":"Binalong Bay, AU","country":"AU","name":"Binalong Bay","_id":7910024,"coord":{"lon":148.311646,"lat":-41.251141}},{"displayName":"Binalong, AU","country":"AU","name":"Binalong","_id":2175793,"coord":{"lon":148.649994,"lat":-34.666672}},{"displayName":"Binan, CN","country":"CN","name":"Binan","_id":2038288,"coord":{"lon":127.760818,"lat":45.84156}},{"displayName":"Binan, PH","country":"PH","name":"Binan","_id":1725115,"coord":{"lon":121.080711,"lat":14.34267}},{"displayName":"Binan, PH","country":"PH","name":"Binan","_id":1725116,"coord":{"lon":121.052643,"lat":14.26373}},{"displayName":"Binangonan, PH","country":"PH","name":"Binangonan","_id":1725095,"coord":{"lon":121.183327,"lat":14.46667}},{"displayName":"Binangonan, PH","country":"PH","name":"Binangonan","_id":1725094,"coord":{"lon":121.192902,"lat":14.4646}},{"displayName":"Binangun, ID","country":"ID","name":"Binangun","_id":1648744,"coord":{"lon":112.335999,"lat":-8.2343}},{"displayName":"Binangun, ID","country":"ID","name":"Binangun","_id":6373859,"coord":{"lon":109.246941,"lat":-7.5375}},{"displayName":"Binangun, ID","country":"ID","name":"Binangun","_id":8052637,"coord":{"lon":108.474701,"lat":-7.7191}},{"displayName":"Binantocan, PH","country":"PH","name":"Binantocan","_id":1724833,"coord":{"lon":122.860199,"lat":11.4073}},{"displayName":"Binanwanaan, PH","country":"PH","name":"Binanwanaan","_id":1725076,"coord":{"lon":123.300003,"lat":13.7}},{"displayName":"Binarowa, PL","country":"PL","name":"Binarowa","_id":775917,"coord":{"lon":21.228161,"lat":49.75621}},{"displayName":"Binasco, IT","country":"IT","name":"Binasco","_id":3182027,"coord":{"lon":9.09905,"lat":45.331871}},{"displayName":"Binatli, TR","country":"TR","name":"Binatli","_id":321088,"coord":{"lon":41.216358,"lat":37.84798}},{"displayName":"Binau, DE","country":"DE","name":"Binau","_id":6555641,"coord":{"lon":9.05806,"lat":49.368301}},{"displayName":"Binau, DE","country":"DE","name":"Binau","_id":2948861,"coord":{"lon":9.05806,"lat":49.368328}},{"displayName":"Binay, PH","country":"PH","name":"Binay","_id":1725048,"coord":{"lon":122.597504,"lat":13.50278}},{"displayName":"Binche, BE","country":"BE","name":"Binche","_id":2801923,"coord":{"lon":4.16587,"lat":50.416229}},{"displayName":"Binche, BE","country":"BE","name":"Binche","_id":2801922,"coord":{"lon":4.16469,"lat":50.411549}},{"displayName":"Bincongan, PH","country":"PH","name":"Bincongan","_id":1725033,"coord":{"lon":125.75,"lat":7.36667}},{"displayName":"Binda, AU","country":"AU","name":"Binda","_id":2175783,"coord":{"lon":149.366669,"lat":-34.333328}},{"displayName":"Binday, PH","country":"PH","name":"Binday","_id":1725032,"coord":{"lon":120.452499,"lat":16.1271}},{"displayName":"Binde, DE","country":"DE","name":"Binde","_id":2948858,"coord":{"lon":11.38333,"lat":52.849998}},{"displayName":"Binder, DE","country":"DE","name":"Binder","_id":2948856,"coord":{"lon":10.18333,"lat":52.099998}},{"displayName":"Bindersleben, DE","country":"DE","name":"Bindersleben","_id":2948843,"coord":{"lon":10.95,"lat":50.966671}},{"displayName":"Bindi, AU","country":"AU","name":"Bindi","_id":2175771,"coord":{"lon":147.833328,"lat":-37.116669}},{"displayName":"Bindi, SL","country":"SL","name":"Bindi","_id":2410093,"coord":{"lon":-11.45,"lat":9.91667}},{"displayName":"Bindki, IN","country":"IN","name":"Bindki","_id":1275572,"coord":{"lon":80.599998,"lat":26.033331}},{"displayName":"Bindlach, DE","country":"DE","name":"Bindlach","_id":6556753,"coord":{"lon":11.5924,"lat":50.007}},{"displayName":"Bindlach, DE","country":"DE","name":"Bindlach","_id":2948840,"coord":{"lon":11.61389,"lat":49.98167}},{"displayName":"Bindloss, CA","country":"CA","name":"Bindloss","_id":5901280,"coord":{"lon":-110.268341,"lat":50.866829}},{"displayName":"Bindor, PK","country":"PK","name":"Bindor","_id":7634835,"coord":{"lon":70.272301,"lat":28.378599}},{"displayName":"Bindsachsen, DE","country":"DE","name":"Bindsachsen","_id":2948834,"coord":{"lon":9.16667,"lat":50.349998}},{"displayName":"Bindura, ZW","country":"ZW","name":"Bindura","_id":895061,"coord":{"lon":31.330561,"lat":-17.30192}},{"displayName":"Binefar, ES","country":"ES","name":"Binefar","_id":3128015,"coord":{"lon":0.29433,"lat":41.85141}},{"displayName":"Binenwalde, DE","country":"DE","name":"Binenwalde","_id":2948831,"coord":{"lon":12.8,"lat":53.049999}},{"displayName":"Binetto, IT","country":"IT","name":"Binetto","_id":6535309,"coord":{"lon":16.709881,"lat":41.02343}},{"displayName":"Binfield, GB","country":"GB","name":"Binfield","_id":2655644,"coord":{"lon":-0.7881,"lat":51.431591}},{"displayName":"Binga, ZW","country":"ZW","name":"Binga","_id":895057,"coord":{"lon":27.341391,"lat":-17.620279}},{"displayName":"Bingara, AU","country":"AU","name":"Bingara","_id":2175760,"coord":{"lon":150.566666,"lat":-29.866671}},{"displayName":"Bingawan, PH","country":"PH","name":"Bingawan","_id":1725011,"coord":{"lon":122.5672,"lat":11.233}},{"displayName":"Bingcha, CN","country":"CN","name":"Bingcha","_id":1816445,"coord":{"lon":120.896667,"lat":32.538891}},{"displayName":"Bingen am Rhein, DE","country":"DE","name":"Bingen am Rhein","_id":2948825,"coord":{"lon":7.9,"lat":49.966671}},{"displayName":"Bingen, DE","country":"DE","name":"Bingen","_id":6556081,"coord":{"lon":9.26667,"lat":48.116699}},{"displayName":"Bingen, DE","country":"DE","name":"Bingen","_id":2948826,"coord":{"lon":9.27238,"lat":48.111271}},{"displayName":"Bingera Plantation, AU","country":"AU","name":"Bingera Plantation","_id":2175751,"coord":{"lon":152.199997,"lat":-24.933331}},{"displayName":"Bingerville, CI","country":"CI","name":"Bingerville","_id":2291580,"coord":{"lon":-3.88687,"lat":5.35838}},{"displayName":"Bingfang, CN","country":"CN","name":"Bingfang","_id":1816358,"coord":{"lon":121.29493,"lat":32.272671}},{"displayName":"Bingham County, US","country":"US","name":"Bingham County","_id":5585826,"coord":{"lon":-112.311638,"lat":43.17408}},{"displayName":"Bingham Farms, US","country":"US","name":"Bingham Farms","_id":4986099,"coord":{"lon":-83.273262,"lat":42.515869}},{"displayName":"Bingham Lake, US","country":"US","name":"Bingham Lake","_id":5018431,"coord":{"lon":-95.046379,"lat":43.90662}},{"displayName":"Bingham, GB","country":"GB","name":"Bingham","_id":2655643,"coord":{"lon":-0.95907,"lat":52.94978}},{"displayName":"Binghamton, US","country":"US","name":"Binghamton","_id":5109177,"coord":{"lon":-75.917969,"lat":42.09869}},{"displayName":"Binginwarrie, AU","country":"AU","name":"Binginwarrie","_id":2175742,"coord":{"lon":146.449997,"lat":-38.583328}},{"displayName":"Bingley, GB","country":"GB","name":"Bingley","_id":2655642,"coord":{"lon":-1.83857,"lat":53.84861}},{"displayName":"Binglincha, CN","country":"CN","name":"Binglincha","_id":7517879,"coord":{"lon":107.372643,"lat":36.040428}},{"displayName":"Bingol, TR","country":"TR","name":"Bingol","_id":321082,"coord":{"lon":40.493889,"lat":38.88472}},{"displayName":"Bingtan, CN","country":"CN","name":"Bingtan","_id":1553431,"coord":{"lon":117.91658,"lat":29.72258}},{"displayName":"Binguang, PH","country":"PH","name":"Binguang","_id":1725001,"coord":{"lon":121.782784,"lat":17.461941}},{"displayName":"Bingville, US","country":"US","name":"Bingville","_id":5787312,"coord":{"lon":-117.629959,"lat":48.384899}},{"displayName":"Bingöl, TR","country":"TR","name":"Bingöl","_id":321079,"coord":{"lon":40.833328,"lat":39.083328}},{"displayName":"Biniali, ES","country":"ES","name":"Biniali","_id":2520953,"coord":{"lon":2.85949,"lat":39.641022}},{"displayName":"Binic, FR","country":"FR","name":"Binic","_id":3032600,"coord":{"lon":-2.82692,"lat":48.60416}},{"displayName":"Binidayan, PH","country":"PH","name":"Binidayan","_id":1724983,"coord":{"lon":124.168457,"lat":7.80668}},{"displayName":"Binika, IN","country":"IN","name":"Binika","_id":1275558,"coord":{"lon":83.800003,"lat":21.033331}},{"displayName":"Bining, FR","country":"FR","name":"Bining","_id":3032598,"coord":{"lon":7.2522,"lat":49.036469}},{"displayName":"Biniparrell, ES","country":"ES","name":"Biniparrell","_id":2520944,"coord":{"lon":4.25,"lat":39.849998}},{"displayName":"Binissalem, ES","country":"ES","name":"Binissalem","_id":6533933,"coord":{"lon":2.84168,"lat":39.687111}},{"displayName":"Binissalem, ES","country":"ES","name":"Binissalem","_id":2520943,"coord":{"lon":2.84396,"lat":39.687439}},{"displayName":"Binitayan, PH","country":"PH","name":"Binitayan","_id":1724968,"coord":{"lon":123.757896,"lat":13.2945}},{"displayName":"Binitinan, PH","country":"PH","name":"Binitinan","_id":1724964,"coord":{"lon":124.775558,"lat":8.71}},{"displayName":"Biniville, FR","country":"FR","name":"Biniville","_id":6449477,"coord":{"lon":-1.48333,"lat":49.433331}},{"displayName":"Biniville, FR","country":"FR","name":"Biniville","_id":3032596,"coord":{"lon":-1.47834,"lat":49.42762}},{"displayName":"Binjai, ID","country":"ID","name":"Binjai","_id":1215355,"coord":{"lon":98.485397,"lat":3.6001}},{"displayName":"Binji, NG","country":"NG","name":"Binji","_id":2347116,"coord":{"lon":4.90955,"lat":13.22277}},{"displayName":"Binjiang, CN","country":"CN","name":"Binjiang","_id":1816346,"coord":{"lon":114.552116,"lat":27.78396}},{"displayName":"Binjiang, CN","country":"CN","name":"Binjiang","_id":7065643,"coord":{"lon":117.184441,"lat":28.295259}},{"displayName":"Binjour, AU","country":"AU","name":"Binjour","_id":2175740,"coord":{"lon":151.449997,"lat":-25.51667}},{"displayName":"Binków, PL","country":"PL","name":"Binków","_id":3103313,"coord":{"lon":19.374479,"lat":51.366501}},{"displayName":"Binlod, PH","country":"PH","name":"Binlod","_id":1724959,"coord":{"lon":123.60743,"lat":9.91845}},{"displayName":"Binmaley, PH","country":"PH","name":"Binmaley","_id":1724956,"coord":{"lon":120.271202,"lat":16.030701}},{"displayName":"Binn, CH","country":"CH","name":"Binn","_id":7285247,"coord":{"lon":8.23558,"lat":46.368252}},{"displayName":"Binn, CH","country":"CH","name":"Binn","_id":2661502,"coord":{"lon":8.18421,"lat":46.36393}},{"displayName":"Binna Burra, AU","country":"AU","name":"Binna Burra","_id":2175737,"coord":{"lon":153.5,"lat":-28.700001}},{"displayName":"Binnaway, AU","country":"AU","name":"Binnaway","_id":2175735,"coord":{"lon":149.399994,"lat":-31.549999}},{"displayName":"Binnen, DE","country":"DE","name":"Binnen","_id":6552521,"coord":{"lon":9.13327,"lat":52.619099}},{"displayName":"Binnen, DE","country":"DE","name":"Binnen","_id":2948810,"coord":{"lon":9.13333,"lat":52.616669}},{"displayName":"Binnenbach, DE","country":"DE","name":"Binnenbach","_id":2948807,"coord":{"lon":10.98333,"lat":48.533329}},{"displayName":"Binnenstad, NL","country":"NL","name":"Binnenstad","_id":6621526,"coord":{"lon":5.96712,"lat":52.211971}},{"displayName":"Binnie Lakes, US","country":"US","name":"Binnie Lakes","_id":4884947,"coord":{"lon":-88.359528,"lat":42.116409}},{"displayName":"Binningen, CH","country":"CH","name":"Binningen","_id":7285248,"coord":{"lon":7.56783,"lat":47.536659}},{"displayName":"Binningen, CH","country":"CH","name":"Binningen","_id":2661499,"coord":{"lon":7.56932,"lat":47.540211}},{"displayName":"Binningen, DE","country":"DE","name":"Binningen","_id":6553661,"coord":{"lon":7.25,"lat":50.200001}},{"displayName":"Binningen, DE","country":"DE","name":"Binningen","_id":2948782,"coord":{"lon":7.25,"lat":50.200001}},{"displayName":"Binnish, SY","country":"SY","name":"Binnish","_id":171451,"coord":{"lon":36.713928,"lat":35.95554}},{"displayName":"Binnum, AU","country":"AU","name":"Binnum","_id":2175731,"coord":{"lon":140.933334,"lat":-36.799999}},{"displayName":"Binodegahan, PH","country":"PH","name":"Binodegahan","_id":1724945,"coord":{"lon":123.457901,"lat":13.0614}},{"displayName":"Binon-an, PH","country":"PH","name":"Binon-an","_id":1724937,"coord":{"lon":123.142601,"lat":11.3947}},{"displayName":"Binonga, PH","country":"PH","name":"Binonga","_id":1724933,"coord":{"lon":122.98278,"lat":10.77306}},{"displayName":"Binongsari, ID","country":"ID","name":"Binongsari","_id":7848611,"coord":{"lon":106.9189,"lat":-7.3509}},{"displayName":"Binsbach, DE","country":"DE","name":"Binsbach","_id":2948775,"coord":{"lon":10.0,"lat":49.950001}},{"displayName":"Binscarth, CA","country":"CA","name":"Binscarth","_id":5901331,"coord":{"lon":-101.283707,"lat":50.62669}},{"displayName":"Binsdorf, DE","country":"DE","name":"Binsdorf","_id":2948770,"coord":{"lon":8.76151,"lat":48.30426}},{"displayName":"Binsfeld, DE","country":"DE","name":"Binsfeld","_id":6554299,"coord":{"lon":6.71667,"lat":49.966702}},{"displayName":"Binsfeld, DE","country":"DE","name":"Binsfeld","_id":2948759,"coord":{"lon":6.71667,"lat":49.966671}},{"displayName":"Binsfeld, LU","country":"LU","name":"Binsfeld","_id":2960765,"coord":{"lon":6.03861,"lat":50.118889}},{"displayName":"Binsted, GB","country":"GB","name":"Binsted","_id":2655636,"coord":{"lon":-0.89899,"lat":51.164268}},{"displayName":"Binswangen, DE","country":"DE","name":"Binswangen","_id":6559322,"coord":{"lon":10.67217,"lat":48.543991}},{"displayName":"Binswangen, DE","country":"DE","name":"Binswangen","_id":2948750,"coord":{"lon":10.64249,"lat":48.55798}},{"displayName":"Bintacay, PH","country":"PH","name":"Bintacay","_id":1724902,"coord":{"lon":121.876801,"lat":13.4986}},{"displayName":"Bintawan, PH","country":"PH","name":"Bintawan","_id":1724896,"coord":{"lon":121.187637,"lat":16.57588}},{"displayName":"Bintulu, MY","country":"MY","name":"Bintulu","_id":1737486,"coord":{"lon":113.033333,"lat":3.16667}},{"displayName":"Binuang, PH","country":"PH","name":"Binuang","_id":1957775,"coord":{"lon":121.059998,"lat":5.95694}},{"displayName":"Binuangan, PH","country":"PH","name":"Binuangan","_id":1724872,"coord":{"lon":124.78833,"lat":8.91528}},{"displayName":"Binuangeun, ID","country":"ID","name":"Binuangeun","_id":1634910,"coord":{"lon":105.889503,"lat":-6.8345}},{"displayName":"Binuatan, PH","country":"PH","name":"Binuatan","_id":1958435,"coord":{"lon":123.34417,"lat":7.61222}},{"displayName":"Binubusan, PH","country":"PH","name":"Binubusan","_id":1724862,"coord":{"lon":120.637711,"lat":13.96283}},{"displayName":"Binucayan, PH","country":"PH","name":"Binucayan","_id":1724860,"coord":{"lon":125.716667,"lat":8.25}},{"displayName":"Binulasan, PH","country":"PH","name":"Binulasan","_id":1724850,"coord":{"lon":121.698608,"lat":14.73167}},{"displayName":"Binxi, CN","country":"CN","name":"Binxi","_id":2038285,"coord":{"lon":127.156281,"lat":45.748699}},{"displayName":"Biny Selo, AZ","country":"AZ","name":"Biny Selo","_id":586968,"coord":{"lon":50.08564,"lat":40.451931}},{"displayName":"Binya, AU","country":"AU","name":"Binya","_id":2175728,"coord":{"lon":146.350006,"lat":-34.23333}},{"displayName":"Binyamina, IL","country":"IL","name":"Binyamina","_id":295410,"coord":{"lon":34.944988,"lat":32.523201}},{"displayName":"Binyin, UG","country":"UG","name":"Binyin","_id":234769,"coord":{"lon":34.533329,"lat":1.41667}},{"displayName":"Binz, CH","country":"CH","name":"Binz","_id":6294449,"coord":{"lon":8.62657,"lat":47.35635}},{"displayName":"Binzen, DE","country":"DE","name":"Binzen","_id":6555875,"coord":{"lon":7.62322,"lat":47.6311}},{"displayName":"Binzen, DE","country":"DE","name":"Binzen","_id":2948746,"coord":{"lon":7.61667,"lat":47.633331}},{"displayName":"Binzhou, CN","country":"CN","name":"Binzhou","_id":1816336,"coord":{"lon":118.01667,"lat":37.366669}},{"displayName":"Binzhou, CN","country":"CN","name":"Binzhou","_id":2038283,"coord":{"lon":127.479858,"lat":45.752811}},{"displayName":"Binzikon, CH","country":"CH","name":"Binzikon","_id":6292273,"coord":{"lon":8.75842,"lat":47.279491}},{"displayName":"Binéfar, ES","country":"ES","name":"Binéfar","_id":6358307,"coord":{"lon":0.29683,"lat":41.848808}},{"displayName":"Bioggio, CH","country":"CH","name":"Bioggio","_id":2661498,"coord":{"lon":8.88333,"lat":46.01667}},{"displayName":"Bioglio, IT","country":"IT","name":"Bioglio","_id":3182022,"coord":{"lon":8.13602,"lat":45.615162}},{"displayName":"Biograd na Moru, HR","country":"HR","name":"Biograd na Moru","_id":3204121,"coord":{"lon":15.45194,"lat":43.943329}},{"displayName":"Biola, US","country":"US","name":"Biola","_id":5328724,"coord":{"lon":-120.016273,"lat":36.80217}},{"displayName":"Biollet, FR","country":"FR","name":"Biollet","_id":6450317,"coord":{"lon":2.68333,"lat":46.0}},{"displayName":"Biollet, FR","country":"FR","name":"Biollet","_id":3032591,"coord":{"lon":2.68241,"lat":45.993462}},{"displayName":"Bion, FR","country":"FR","name":"Bion","_id":6449478,"coord":{"lon":-0.91667,"lat":48.616669}},{"displayName":"Bion, FR","country":"FR","name":"Bion","_id":3032589,"coord":{"lon":-0.91984,"lat":48.61948}},{"displayName":"Bionaz, IT","country":"IT","name":"Bionaz","_id":3182019,"coord":{"lon":7.4231,"lat":45.873562}},{"displayName":"Bione, IT","country":"IT","name":"Bione","_id":6534522,"coord":{"lon":10.33887,"lat":45.672791}},{"displayName":"Biosca, ES","country":"ES","name":"Biosca","_id":3128010,"coord":{"lon":1.35889,"lat":41.841862}},{"displayName":"Biot, FR","country":"FR","name":"Biot","_id":3032579,"coord":{"lon":7.09645,"lat":43.627232}},{"displayName":"Biota, ES","country":"ES","name":"Biota","_id":6362744,"coord":{"lon":-1.16726,"lat":42.254398}},{"displayName":"Biota, ES","country":"ES","name":"Biota","_id":3128009,"coord":{"lon":-1.18734,"lat":42.262138}},{"displayName":"Biozat, FR","country":"FR","name":"Biozat","_id":6446522,"coord":{"lon":3.2732,"lat":46.077301}},{"displayName":"Biozat, FR","country":"FR","name":"Biozat","_id":3032574,"coord":{"lon":3.27338,"lat":46.076061}},{"displayName":"Bippen, DE","country":"DE","name":"Bippen","_id":6552981,"coord":{"lon":7.73333,"lat":52.583302}},{"displayName":"Bippen, DE","country":"DE","name":"Bippen","_id":2948733,"coord":{"lon":7.73333,"lat":52.583328}},{"displayName":"Biqiao, CN","country":"CN","name":"Biqiao","_id":1816333,"coord":{"lon":119.021523,"lat":31.015209}},{"displayName":"Biquinhas, BR","country":"BR","name":"Biquinhas","_id":3469994,"coord":{"lon":-45.50222,"lat":-18.78278}},{"displayName":"Bir al Basha, PS","country":"PS","name":"Bir al Basha","_id":7895292,"coord":{"lon":35.230129,"lat":32.420219}},{"displayName":"Bir al Hufayy, TN","country":"TN","name":"Bir al Hufayy","_id":2472380,"coord":{"lon":9.19321,"lat":34.932121}},{"displayName":"Bir Ali Bin Khalifah, TN","country":"TN","name":"Bir Ali Bin Khalifah","_id":2472379,"coord":{"lon":10.0924,"lat":34.73592}},{"displayName":"Bir el Arche, DZ","country":"DZ","name":"Bir el Arche","_id":2503880,"coord":{"lon":5.83904,"lat":36.13084}},{"displayName":"Bir el Ater, DZ","country":"DZ","name":"Bir el Ater","_id":2503878,"coord":{"lon":8.06024,"lat":34.744881}},{"displayName":"Bir el Djir, DZ","country":"DZ","name":"Bir el Djir","_id":2503874,"coord":{"lon":-0.545,"lat":35.720001}},{"displayName":"Bir el Maksur, IL","country":"IL","name":"Bir el Maksur","_id":295404,"coord":{"lon":35.23333,"lat":32.75}},{"displayName":"Bir Hat, YE","country":"YE","name":"Bir Hat","_id":7928383,"coord":{"lon":52.095661,"lat":17.32197}},{"displayName":"Bir Mourad Raïs, DZ","country":"DZ","name":"Bir Mourad Raïs","_id":2497460,"coord":{"lon":3.03916,"lat":36.7458}},{"displayName":"Bir Nabala, PS","country":"PS","name":"Bir Nabala","_id":284238,"coord":{"lon":35.203602,"lat":31.8508}},{"displayName":"Bir Zayt, PS","country":"PS","name":"Bir Zayt","_id":284237,"coord":{"lon":35.19408,"lat":31.969589}},{"displayName":"Bira, RU","country":"RU","name":"Bira","_id":2026659,"coord":{"lon":132.466675,"lat":49.0}},{"displayName":"Birac, FR","country":"FR","name":"Birac","_id":6455055,"coord":{"lon":-0.13333,"lat":44.416672}},{"displayName":"Birac, FR","country":"FR","name":"Birac","_id":3032573,"coord":{"lon":-0.13708,"lat":44.417431}},{"displayName":"Birac-sur-Trec, FR","country":"FR","name":"Birac-sur-Trec","_id":6449271,"coord":{"lon":0.2654,"lat":44.486099}},{"displayName":"Birac-sur-Trec, FR","country":"FR","name":"Birac-sur-Trec","_id":3032571,"coord":{"lon":0.26685,"lat":44.485519}},{"displayName":"Birak, LY","country":"LY","name":"Birak","_id":2218478,"coord":{"lon":14.27138,"lat":27.549561}},{"displayName":"Birakan, RU","country":"RU","name":"Birakan","_id":2026657,"coord":{"lon":131.699997,"lat":49.01667}},{"displayName":"Birao, CF","country":"CF","name":"Birao","_id":240210,"coord":{"lon":22.788179,"lat":10.28488}},{"displayName":"Biras, FR","country":"FR","name":"Biras","_id":6447769,"coord":{"lon":0.63333,"lat":45.283329}},{"displayName":"Biras, FR","country":"FR","name":"Biras","_id":3032568,"coord":{"lon":0.63658,"lat":45.28756}},{"displayName":"Biratnagar, NP","country":"NP","name":"Biratnagar","_id":1283582,"coord":{"lon":87.283371,"lat":26.483101}},{"displayName":"BiratnagarN.P., NP","country":"NP","name":"BiratnagarN.P.","_id":7799185,"coord":{"lon":87.274101,"lat":26.452499}},{"displayName":"Biratori, JP","country":"JP","name":"Biratori","_id":2130518,"coord":{"lon":142.133331,"lat":42.583328}},{"displayName":"Birbesi, IT","country":"IT","name":"Birbesi","_id":3182015,"coord":{"lon":10.56667,"lat":45.283329}},{"displayName":"Birbhaddar, IN","country":"IN","name":"Birbhaddar","_id":1275526,"coord":{"lon":78.283333,"lat":30.066669}},{"displayName":"Birch Bay, US","country":"US","name":"Birch Bay","_id":5787316,"coord":{"lon":-122.744621,"lat":48.917889}},{"displayName":"Birch Grove, GD","country":"GD","name":"Birch Grove","_id":3580422,"coord":{"lon":-61.666672,"lat":12.1}},{"displayName":"Birch Hills, CA","country":"CA","name":"Birch Hills","_id":5901447,"coord":{"lon":-105.417732,"lat":52.98336}},{"displayName":"Birch Hills, US","country":"US","name":"Birch Hills","_id":5095711,"coord":{"lon":-74.431541,"lat":40.80954}},{"displayName":"Birch Island, CA","country":"CA","name":"Birch Island","_id":5901471,"coord":{"lon":-81.783089,"lat":46.050072}},{"displayName":"Birch River, CA","country":"CA","name":"Birch River","_id":5901657,"coord":{"lon":-101.104782,"lat":52.396118}},{"displayName":"Birch Run, US","country":"US","name":"Birch Run","_id":4986141,"coord":{"lon":-83.794128,"lat":43.250858}},{"displayName":"Birchington-on-Sea, GB","country":"GB","name":"Birchington-on-Sea","_id":2655627,"coord":{"lon":1.3048,"lat":51.375751}},{"displayName":"Birchip, AU","country":"AU","name":"Birchip","_id":2175721,"coord":{"lon":142.933334,"lat":-35.98333}},{"displayName":"Birchis, RO","country":"RO","name":"Birchis","_id":684822,"coord":{"lon":22.16667,"lat":45.966671}},{"displayName":"Birchwil, CH","country":"CH","name":"Birchwil","_id":6291286,"coord":{"lon":8.63477,"lat":47.454311}},{"displayName":"Birchwood Estates, US","country":"US","name":"Birchwood Estates","_id":4848660,"coord":{"lon":-95.143333,"lat":43.160519}},{"displayName":"Birchwood Lakes, US","country":"US","name":"Birchwood Lakes","_id":5180607,"coord":{"lon":-74.918503,"lat":41.254539}},{"displayName":"Birchwood, US","country":"US","name":"Birchwood","_id":4884951,"coord":{"lon":-87.665337,"lat":42.016701}},{"displayName":"Birchwood, US","country":"US","name":"Birchwood","_id":5018508,"coord":{"lon":-92.976051,"lat":45.061081}},{"displayName":"Birchy Bay, CA","country":"CA","name":"Birchy Bay","_id":5901684,"coord":{"lon":-54.73143,"lat":49.34993}},{"displayName":"Bircotes, GB","country":"GB","name":"Bircotes","_id":2655624,"coord":{"lon":-1.04905,"lat":53.419331}},{"displayName":"Bircza, PL","country":"PL","name":"Bircza","_id":775908,"coord":{"lon":22.47854,"lat":49.69173}},{"displayName":"Bird Cove, CA","country":"CA","name":"Bird Cove","_id":5901740,"coord":{"lon":-56.931412,"lat":51.050079}},{"displayName":"Bird Island, US","country":"US","name":"Bird Island","_id":5018516,"coord":{"lon":-94.895554,"lat":44.76746}},{"displayName":"Birdham, GB","country":"GB","name":"Birdham","_id":2655622,"coord":{"lon":-0.83067,"lat":50.796059}},{"displayName":"Birdpur, IN","country":"IN","name":"Birdpur","_id":1275522,"coord":{"lon":83.116669,"lat":27.383333}},{"displayName":"Birdsboro, US","country":"US","name":"Birdsboro","_id":5180620,"coord":{"lon":-75.804092,"lat":40.264542}},{"displayName":"Birdseye, US","country":"US","name":"Birdseye","_id":4254612,"coord":{"lon":-86.695824,"lat":38.316719}},{"displayName":"Birdsville, AU","country":"AU","name":"Birdsville","_id":2076533,"coord":{"lon":139.366669,"lat":-25.9}},{"displayName":"Birdwell, GB","country":"GB","name":"Birdwell","_id":2655618,"coord":{"lon":-1.47929,"lat":53.513981}},{"displayName":"Birdwood, AU","country":"AU","name":"Birdwood","_id":2076528,"coord":{"lon":138.966675,"lat":-34.816669}},{"displayName":"Birecik, TR","country":"TR","name":"Birecik","_id":321062,"coord":{"lon":37.99028,"lat":37.029442}},{"displayName":"Birenbach, DE","country":"DE","name":"Birenbach","_id":6555451,"coord":{"lon":9.66123,"lat":48.74749}},{"displayName":"Birenbach, DE","country":"DE","name":"Birenbach","_id":2948727,"coord":{"lon":9.66115,"lat":48.747318}},{"displayName":"Birendranagar, NP","country":"NP","name":"Birendranagar","_id":6254843,"coord":{"lon":81.633888,"lat":28.60194}},{"displayName":"BirendranagarN.P., NP","country":"NP","name":"BirendranagarN.P.","_id":7801451,"coord":{"lon":81.619041,"lat":28.61198}},{"displayName":"Bireun, ID","country":"ID","name":"Bireun","_id":1215350,"coord":{"lon":96.700897,"lat":5.203}},{"displayName":"Birganj, NP","country":"NP","name":"Birganj","_id":1283581,"coord":{"lon":84.87735,"lat":27.010429}},{"displayName":"Birgden, DE","country":"DE","name":"Birgden","_id":2948726,"coord":{"lon":6.04969,"lat":51.005981}},{"displayName":"Birgel, DE","country":"DE","name":"Birgel","_id":6554622,"coord":{"lon":6.61667,"lat":50.3167}},{"displayName":"Birgel, DE","country":"DE","name":"Birgel","_id":2948725,"coord":{"lon":6.61667,"lat":50.316669}},{"displayName":"Birgitz, AT","country":"AT","name":"Birgitz","_id":7873602,"coord":{"lon":11.30263,"lat":47.223782}},{"displayName":"Birgitz, AT","country":"AT","name":"Birgitz","_id":2781753,"coord":{"lon":11.29922,"lat":47.235359}},{"displayName":"Birgte, DE","country":"DE","name":"Birgte","_id":2948717,"coord":{"lon":7.64833,"lat":52.247898}},{"displayName":"Biri, PH","country":"PH","name":"Biri","_id":1724803,"coord":{"lon":124.363609,"lat":12.68333}},{"displayName":"Biria Mādhogarh, IN","country":"IN","name":"Biria Mādhogarh","_id":6996360,"coord":{"lon":79.191002,"lat":26.260201}},{"displayName":"Biriatou, FR","country":"FR","name":"Biriatou","_id":6440307,"coord":{"lon":-1.73333,"lat":43.333328}},{"displayName":"Biriatou, FR","country":"FR","name":"Biriatou","_id":3032567,"coord":{"lon":-1.74497,"lat":43.331581}},{"displayName":"Birigui, BR","country":"BR","name":"Birigui","_id":3469989,"coord":{"lon":-50.34,"lat":-21.28861}},{"displayName":"Birikchul’, RU","country":"RU","name":"Birikchul’","_id":1510063,"coord":{"lon":89.881111,"lat":53.327221}},{"displayName":"Birim, NG","country":"NG","name":"Birim","_id":2347078,"coord":{"lon":9.997027,"lat":10.062094}},{"displayName":"Birine, DZ","country":"DZ","name":"Birine","_id":2503852,"coord":{"lon":3.225,"lat":35.634998}},{"displayName":"Biritiba Mirim, BR","country":"BR","name":"Biritiba Mirim","_id":3469984,"coord":{"lon":-46.038609,"lat":-23.5725}},{"displayName":"Biritinga, BR","country":"BR","name":"Biritinga","_id":3469983,"coord":{"lon":-38.799999,"lat":-11.61667}},{"displayName":"Birjand, IR","country":"IR","name":"Birjand","_id":140463,"coord":{"lon":59.221142,"lat":32.86628}},{"displayName":"Birjukowo, UA","country":"UA","name":"Birjukowo","_id":712142,"coord":{"lon":39.733334,"lat":47.950001}},{"displayName":"Birk, DK","country":"DK","name":"Birk","_id":2624130,"coord":{"lon":9.03036,"lat":56.128761}},{"displayName":"Birkach, DE","country":"DE","name":"Birkach","_id":2948696,"coord":{"lon":10.55,"lat":49.150002}},{"displayName":"Birkaland, FI","country":"FI","name":"Birkaland","_id":830704,"coord":{"lon":23.716669,"lat":61.700001}},{"displayName":"Birkeland, NO","country":"NO","name":"Birkeland","_id":3161532,"coord":{"lon":8.23229,"lat":58.33091}},{"displayName":"Birkelbach, DE","country":"DE","name":"Birkelbach","_id":2948671,"coord":{"lon":8.26667,"lat":51.01667}},{"displayName":"Birken, DE","country":"DE","name":"Birken","_id":2948658,"coord":{"lon":7.24626,"lat":50.901901}},{"displayName":"Birken, DE","country":"DE","name":"Birken","_id":2948660,"coord":{"lon":7.73333,"lat":50.816669}},{"displayName":"Birken-Honigsessen, DE","country":"DE","name":"Birken-Honigsessen","_id":6553364,"coord":{"lon":7.73333,"lat":50.8167}},{"displayName":"Birken-Honigsessen, DE","country":"DE","name":"Birken-Honigsessen","_id":3207685,"coord":{"lon":7.73333,"lat":50.816669}},{"displayName":"Birkenau, DE","country":"DE","name":"Birkenau","_id":2948652,"coord":{"lon":8.70694,"lat":49.5625}},{"displayName":"Birkenau, DE","country":"DE","name":"Birkenau","_id":6553155,"coord":{"lon":8.7054,"lat":49.5602}},{"displayName":"Birkenbeul, DE","country":"DE","name":"Birkenbeul","_id":6553363,"coord":{"lon":7.61667,"lat":50.733299}},{"displayName":"Birkenbeul, DE","country":"DE","name":"Birkenbeul","_id":2948616,"coord":{"lon":7.61667,"lat":50.73333}},{"displayName":"Birkendorf, DE","country":"DE","name":"Birkendorf","_id":2948601,"coord":{"lon":9.8,"lat":48.099998}},{"displayName":"Birkenfeld, DE","country":"DE","name":"Birkenfeld","_id":2948592,"coord":{"lon":10.74523,"lat":50.414261}},{"displayName":"Birkenfeld, DE","country":"DE","name":"Birkenfeld","_id":2948595,"coord":{"lon":7.18333,"lat":49.650002}},{"displayName":"Birkenfeld, DE","country":"DE","name":"Birkenfeld","_id":6557031,"coord":{"lon":9.69556,"lat":49.858601}},{"displayName":"Birkenfeld, DE","country":"DE","name":"Birkenfeld","_id":2948594,"coord":{"lon":9.69556,"lat":49.858608}},{"displayName":"Birkenfeld, DE","country":"DE","name":"Birkenfeld","_id":6555699,"coord":{"lon":8.6081,"lat":48.854099}},{"displayName":"Birkenfeld, DE","country":"DE","name":"Birkenfeld","_id":2948598,"coord":{"lon":8.63333,"lat":48.866669}},{"displayName":"Birkenfelde, DE","country":"DE","name":"Birkenfelde","_id":6549754,"coord":{"lon":10.0167,"lat":51.349998}},{"displayName":"Birkenfelde, DE","country":"DE","name":"Birkenfelde","_id":2948588,"coord":{"lon":10.01667,"lat":51.349998}},{"displayName":"Birkenhain, DE","country":"DE","name":"Birkenhain","_id":2948579,"coord":{"lon":13.3,"lat":52.383331}},{"displayName":"Birkenhead, AU","country":"AU","name":"Birkenhead","_id":2076526,"coord":{"lon":138.5,"lat":-34.833328}},{"displayName":"Birkenhead, GB","country":"GB","name":"Birkenhead","_id":2655613,"coord":{"lon":-3.01479,"lat":53.393372}},{"displayName":"Birkenheide, DE","country":"DE","name":"Birkenheide","_id":6555234,"coord":{"lon":8.26194,"lat":49.4814}},{"displayName":"Birkenheide, DE","country":"DE","name":"Birkenheide","_id":2948570,"coord":{"lon":8.26194,"lat":49.481392}},{"displayName":"Birkenhordt, DE","country":"DE","name":"Birkenhordt","_id":2948552,"coord":{"lon":7.93333,"lat":49.116669}},{"displayName":"Birkenhugel, DE","country":"DE","name":"Birkenhugel","_id":2948551,"coord":{"lon":11.75,"lat":50.433331}},{"displayName":"Birkenhördt, DE","country":"DE","name":"Birkenhördt","_id":6555167,"coord":{"lon":7.93333,"lat":49.116699}},{"displayName":"Birkenhügel, DE","country":"DE","name":"Birkenhügel","_id":6550427,"coord":{"lon":11.75,"lat":50.4333}},{"displayName":"Birkenreuth, DE","country":"DE","name":"Birkenreuth","_id":2948526,"coord":{"lon":11.23464,"lat":49.790241}},{"displayName":"Birkenstein, DE","country":"DE","name":"Birkenstein","_id":2948518,"coord":{"lon":13.65,"lat":52.51667}},{"displayName":"Birkenwerder, DE","country":"DE","name":"Birkenwerder","_id":6547617,"coord":{"lon":13.2833,"lat":52.6833}},{"displayName":"Birkenwerder, DE","country":"DE","name":"Birkenwerder","_id":2948503,"coord":{"lon":13.28333,"lat":52.683331}},{"displayName":"Birkerod, DK","country":"DK","name":"Birkerod","_id":2624112,"coord":{"lon":12.42791,"lat":55.847591}},{"displayName":"Birkert, DE","country":"DE","name":"Birkert","_id":2948497,"coord":{"lon":8.94389,"lat":49.75222}},{"displayName":"Birketveit, NO","country":"NO","name":"Birketveit","_id":7626351,"coord":{"lon":7.91692,"lat":58.459091}},{"displayName":"Birkfeld, AT","country":"AT","name":"Birkfeld","_id":7873556,"coord":{"lon":15.69093,"lat":47.349201}},{"displayName":"Birkfeld, AT","country":"AT","name":"Birkfeld","_id":2781748,"coord":{"lon":15.68333,"lat":47.349998}},{"displayName":"Birkhadem, DZ","country":"DZ","name":"Birkhadem","_id":2503847,"coord":{"lon":3.05002,"lat":36.714989}},{"displayName":"Birkheim, DE","country":"DE","name":"Birkheim","_id":6553879,"coord":{"lon":7.61667,"lat":50.116699}},{"displayName":"Birkheim, DE","country":"DE","name":"Birkheim","_id":2948477,"coord":{"lon":7.61667,"lat":50.116669}},{"displayName":"Birkholz, DE","country":"DE","name":"Birkholz","_id":2948441,"coord":{"lon":13.36667,"lat":52.383331}},{"displayName":"Birkigt, DE","country":"DE","name":"Birkigt","_id":2948422,"coord":{"lon":11.48333,"lat":50.666672}},{"displayName":"Birkirkara, MT","country":"MT","name":"Birkirkara","_id":2563191,"coord":{"lon":14.46111,"lat":35.897221}},{"displayName":"Birkungen, DE","country":"DE","name":"Birkungen","_id":2948404,"coord":{"lon":10.33333,"lat":51.366669}},{"displayName":"Birkweiler, DE","country":"DE","name":"Birkweiler","_id":6555168,"coord":{"lon":8.03833,"lat":49.2033}},{"displayName":"Birkweiler, DE","country":"DE","name":"Birkweiler","_id":2948399,"coord":{"lon":8.03833,"lat":49.203331}},{"displayName":"Birlenbach, DE","country":"DE","name":"Birlenbach","_id":6554001,"coord":{"lon":8.0,"lat":50.366699}},{"displayName":"Birlenbach, DE","country":"DE","name":"Birlenbach","_id":2948396,"coord":{"lon":8.0,"lat":50.366669}},{"displayName":"Birlestik, KZ","country":"KZ","name":"Birlestik","_id":1532249,"coord":{"lon":68.354172,"lat":53.582779}},{"displayName":"Birlinghoven, DE","country":"DE","name":"Birlinghoven","_id":2948393,"coord":{"lon":7.21667,"lat":50.75}},{"displayName":"Birmensdorf (ZH), CH","country":"CH","name":"Birmensdorf (ZH)","_id":7285253,"coord":{"lon":8.43463,"lat":47.353901}},{"displayName":"Birmensdorf, CH","country":"CH","name":"Birmensdorf","_id":2661496,"coord":{"lon":8.44256,"lat":47.355148}},{"displayName":"Birmenstorf (AG), CH","country":"CH","name":"Birmenstorf (AG)","_id":7285254,"coord":{"lon":8.25648,"lat":47.454769}},{"displayName":"Birmenstorf, CH","country":"CH","name":"Birmenstorf","_id":2661495,"coord":{"lon":8.24816,"lat":47.461521}},{"displayName":"Birmingham, GB","country":"GB","name":"Birmingham","_id":2655603,"coord":{"lon":-1.89983,"lat":52.481419}},{"displayName":"Birmingham, US","country":"US","name":"Birmingham","_id":4049979,"coord":{"lon":-86.80249,"lat":33.52066}},{"displayName":"Birmingham, US","country":"US","name":"Birmingham","_id":4986172,"coord":{"lon":-83.211319,"lat":42.5467}},{"displayName":"Birmitrapur, IN","country":"IN","name":"Birmitrapur","_id":1275506,"coord":{"lon":84.76667,"lat":22.4}},{"displayName":"Birnbach, DE","country":"DE","name":"Birnbach","_id":6553365,"coord":{"lon":7.58333,"lat":50.700001}},{"displayName":"Birnbach, DE","country":"DE","name":"Birnbach","_id":2948383,"coord":{"lon":7.58333,"lat":50.700001}},{"displayName":"Birnbaum, DE","country":"DE","name":"Birnbaum","_id":2948373,"coord":{"lon":10.73333,"lat":50.849998}},{"displayName":"Birney Day School, US","country":"US","name":"Birney Day School","_id":5640480,"coord":{"lon":-106.465309,"lat":45.4161}},{"displayName":"Birni N Konni, NE","country":"NE","name":"Birni N Konni","_id":2437732,"coord":{"lon":5.2553,"lat":13.79562}},{"displayName":"Birnin Kebbi, NG","country":"NG","name":"Birnin Kebbi","_id":2347059,"coord":{"lon":4.1975,"lat":12.45389}},{"displayName":"Birnin Kudu, NG","country":"NG","name":"Birnin Kudu","_id":2347057,"coord":{"lon":9.4984,"lat":11.44588}},{"displayName":"Birniwa, NG","country":"NG","name":"Birniwa","_id":2347041,"coord":{"lon":10.2348,"lat":12.7903}},{"displayName":"Birobidzhan, RU","country":"RU","name":"Birobidzhan","_id":2026643,"coord":{"lon":132.949997,"lat":48.799999}},{"displayName":"Birori, IT","country":"IT","name":"Birori","_id":3182013,"coord":{"lon":8.81762,"lat":40.264759}},{"displayName":"Birowo, ID","country":"ID","name":"Birowo","_id":7375263,"coord":{"lon":112.366096,"lat":-8.2226}},{"displayName":"Birpara, IN","country":"IN","name":"Birpara","_id":7284803,"coord":{"lon":89.14547,"lat":26.70421}},{"displayName":"Birpur, IN","country":"IN","name":"Birpur","_id":1275499,"coord":{"lon":87.01667,"lat":26.51667}},{"displayName":"Birqin, PS","country":"PS","name":"Birqin","_id":284194,"coord":{"lon":35.260761,"lat":32.454609}},{"displayName":"Birr, CH","country":"CH","name":"Birr","_id":7285256,"coord":{"lon":8.2121,"lat":47.432129}},{"displayName":"Birr, CH","country":"CH","name":"Birr","_id":2661493,"coord":{"lon":8.2,"lat":47.433331}},{"displayName":"Birr, IE","country":"IE","name":"Birr","_id":2966154,"coord":{"lon":-7.91333,"lat":53.091389}},{"displayName":"Birralee, AU","country":"AU","name":"Birralee","_id":2175685,"coord":{"lon":146.850006,"lat":-41.450001}},{"displayName":"Birregurra, AU","country":"AU","name":"Birregurra","_id":2175681,"coord":{"lon":143.783325,"lat":-38.333328}},{"displayName":"Birresborn, DE","country":"DE","name":"Birresborn","_id":6554681,"coord":{"lon":6.63333,"lat":50.1833}},{"displayName":"Birresborn, DE","country":"DE","name":"Birresborn","_id":2948355,"coord":{"lon":6.63333,"lat":50.183331}},{"displayName":"Birri, CH","country":"CH","name":"Birri","_id":7669461,"coord":{"lon":8.36832,"lat":47.280861}},{"displayName":"Birriwa, AU","country":"AU","name":"Birriwa","_id":2175677,"coord":{"lon":149.466675,"lat":-32.116669}},{"displayName":"Birrwil, CH","country":"CH","name":"Birrwil","_id":7285258,"coord":{"lon":8.19251,"lat":47.291168}},{"displayName":"Birrwil, CH","country":"CH","name":"Birrwil","_id":2661492,"coord":{"lon":8.20004,"lat":47.288601}},{"displayName":"Birsay, CA","country":"CA","name":"Birsay","_id":5901886,"coord":{"lon":-106.984581,"lat":51.100071}},{"displayName":"Birsfelden, CH","country":"CH","name":"Birsfelden","_id":7285259,"coord":{"lon":7.62973,"lat":47.553478}},{"displayName":"Birsfelden, CH","country":"CH","name":"Birsfelden","_id":2661490,"coord":{"lon":7.62322,"lat":47.552898}},{"displayName":"Birsk, RU","country":"RU","name":"Birsk","_id":576317,"coord":{"lon":55.542782,"lat":55.421108}},{"displayName":"Birstein, DE","country":"DE","name":"Birstein","_id":6553184,"coord":{"lon":9.311,"lat":50.3508}},{"displayName":"Birstein, DE","country":"DE","name":"Birstein","_id":2948351,"coord":{"lon":9.3,"lat":50.349998}},{"displayName":"Birstonas, LT","country":"LT","name":"Birstonas","_id":600443,"coord":{"lon":24.033331,"lat":54.616669}},{"displayName":"Birtle, CA","country":"CA","name":"Birtle","_id":5901898,"coord":{"lon":-101.048401,"lat":50.422501}},{"displayName":"Birtley, GB","country":"GB","name":"Birtley","_id":2655588,"coord":{"lon":-2.18333,"lat":55.083328}},{"displayName":"Birtlingen, DE","country":"DE","name":"Birtlingen","_id":6554408,"coord":{"lon":6.48333,"lat":49.950001}},{"displayName":"Birtlingen, DE","country":"DE","name":"Birtlingen","_id":2948346,"coord":{"lon":6.48333,"lat":49.950001}},{"displayName":"Birtouta, DZ","country":"DZ","name":"Birtouta","_id":2503829,"coord":{"lon":3.0,"lat":36.645149}},{"displayName":"Biruaca, VE","country":"VE","name":"Biruaca","_id":3648279,"coord":{"lon":-67.516792,"lat":7.84483}},{"displayName":"Biruinta, MD","country":"MD","name":"Biruinta","_id":830975,"coord":{"lon":28.068609,"lat":47.816109}},{"displayName":"Birur, IN","country":"IN","name":"Birur","_id":1275488,"coord":{"lon":75.966667,"lat":13.61667}},{"displayName":"Biruxong, CN","country":"CN","name":"Biruxong","_id":7894308,"coord":{"lon":93.600998,"lat":31.400999}},{"displayName":"Birwinken, CH","country":"CH","name":"Birwinken","_id":7285260,"coord":{"lon":9.21467,"lat":47.576481}},{"displayName":"Birx, DE","country":"DE","name":"Birx","_id":6550003,"coord":{"lon":10.05,"lat":50.533298}},{"displayName":"Birx, DE","country":"DE","name":"Birx","_id":2948345,"coord":{"lon":10.05,"lat":50.533329}},{"displayName":"Biryukove, UA","country":"UA","name":"Biryukove","_id":712131,"coord":{"lon":39.73843,"lat":47.95631}},{"displayName":"Biryulëvo Zapadnoye, RU","country":"RU","name":"Biryulëvo Zapadnoye","_id":507348,"coord":{"lon":37.633331,"lat":55.599998}},{"displayName":"Biryulëvo Zapadnoye, RU","country":"RU","name":"Biryulëvo Zapadnoye","_id":541406,"coord":{"lon":37.642818,"lat":55.587662}},{"displayName":"Biryulëvo, RU","country":"RU","name":"Biryulëvo","_id":576279,"coord":{"lon":37.6675,"lat":55.58889}},{"displayName":"Biryusinsk, RU","country":"RU","name":"Biryusinsk","_id":1510041,"coord":{"lon":97.823502,"lat":55.963402}},{"displayName":"Birzai, LT","country":"LT","name":"Birzai","_id":600438,"coord":{"lon":24.75,"lat":56.200001}},{"displayName":"Birzayn, SA","country":"SA","name":"Birzayn","_id":107392,"coord":{"lon":42.783329,"lat":18.25}},{"displayName":"Birzebbuga, MT","country":"MT","name":"Birzebbuga","_id":2563189,"coord":{"lon":14.52694,"lat":35.825829}},{"displayName":"Bisaccia, IT","country":"IT","name":"Bisaccia","_id":3182012,"coord":{"lon":15.37475,"lat":41.012119}},{"displayName":"Bisacquino, IT","country":"IT","name":"Bisacquino","_id":2525552,"coord":{"lon":13.25975,"lat":37.702438}},{"displayName":"Bisalpur, IN","country":"IN","name":"Bisalpur","_id":1275481,"coord":{"lon":79.800003,"lat":28.299999}},{"displayName":"Bisamberg, AT","country":"AT","name":"Bisamberg","_id":2781742,"coord":{"lon":16.35,"lat":48.333328}},{"displayName":"Bisamberg, AT","country":"AT","name":"Bisamberg","_id":7871785,"coord":{"lon":16.367889,"lat":48.334518}},{"displayName":"Bisauli, IN","country":"IN","name":"Bisauli","_id":1275476,"coord":{"lon":78.933327,"lat":28.316669}},{"displayName":"Bisaurri, ES","country":"ES","name":"Bisaurri","_id":6358308,"coord":{"lon":0.53869,"lat":42.49213}},{"displayName":"Bisaurri, ES","country":"ES","name":"Bisaurri","_id":3128008,"coord":{"lon":0.50647,"lat":42.496769}},{"displayName":"Bisbee, US","country":"US","name":"Bisbee","_id":5284905,"coord":{"lon":-109.928413,"lat":31.448151}},{"displayName":"Bisbin, TR","country":"TR","name":"Bisbin","_id":313922,"coord":{"lon":42.570278,"lat":37.338612}},{"displayName":"Biscainho, PT","country":"PT","name":"Biscainho","_id":8013004,"coord":{"lon":-8.62863,"lat":38.91198}},{"displayName":"Biscainho, PT","country":"PT","name":"Biscainho","_id":2270852,"coord":{"lon":-8.65662,"lat":38.938519}},{"displayName":"Biscarri, ES","country":"ES","name":"Biscarri","_id":3128004,"coord":{"lon":1.09924,"lat":42.105961}},{"displayName":"Biscarrosse, FR","country":"FR","name":"Biscarrosse","_id":6455089,"coord":{"lon":-1.16667,"lat":44.400002}},{"displayName":"Biscarrosse, FR","country":"FR","name":"Biscarrosse","_id":3032556,"coord":{"lon":-1.16721,"lat":44.394539}},{"displayName":"Biscarrosse-Plage, FR","country":"FR","name":"Biscarrosse-Plage","_id":3032553,"coord":{"lon":-1.24714,"lat":44.448479}},{"displayName":"Biscarrues, ES","country":"ES","name":"Biscarrues","_id":3128003,"coord":{"lon":-0.74968,"lat":42.228668}},{"displayName":"Biscarrués, ES","country":"ES","name":"Biscarrués","_id":6358309,"coord":{"lon":-0.73186,"lat":42.212448}},{"displayName":"Biscayne Park, US","country":"US","name":"Biscayne Park","_id":4147988,"coord":{"lon":-80.180603,"lat":25.882601}},{"displayName":"Bisceglie, IT","country":"IT","name":"Bisceglie","_id":6540748,"coord":{"lon":16.504379,"lat":41.242031}},{"displayName":"Bisceglie, IT","country":"IT","name":"Bisceglie","_id":3182007,"coord":{"lon":16.504379,"lat":41.242031}},{"displayName":"Bischberg, DE","country":"DE","name":"Bischberg","_id":2948340,"coord":{"lon":11.47144,"lat":49.370361}},{"displayName":"Bischberg, DE","country":"DE","name":"Bischberg","_id":6556730,"coord":{"lon":10.823,"lat":49.914501}},{"displayName":"Bischberg, DE","country":"DE","name":"Bischberg","_id":2948339,"coord":{"lon":10.83212,"lat":49.91087}},{"displayName":"Bischbrunn, DE","country":"DE","name":"Bischbrunn","_id":6557032,"coord":{"lon":9.48917,"lat":49.8703}},{"displayName":"Bischbrunn, DE","country":"DE","name":"Bischbrunn","_id":2948337,"coord":{"lon":9.48917,"lat":49.870281}},{"displayName":"Bischhausen, DE","country":"DE","name":"Bischhausen","_id":2948329,"coord":{"lon":9.93333,"lat":51.133331}},{"displayName":"Bischheim, DE","country":"DE","name":"Bischheim","_id":6554932,"coord":{"lon":8.0325,"lat":49.669998}},{"displayName":"Bischheim, DE","country":"DE","name":"Bischheim","_id":2948326,"coord":{"lon":8.0325,"lat":49.669998}},{"displayName":"Bischheim, FR","country":"FR","name":"Bischheim","_id":6450593,"coord":{"lon":7.75515,"lat":48.616341}},{"displayName":"Bischheim, FR","country":"FR","name":"Bischheim","_id":3032551,"coord":{"lon":7.75343,"lat":48.616119}},{"displayName":"Bischmisheim, DE","country":"DE","name":"Bischmisheim","_id":2948314,"coord":{"lon":7.06667,"lat":49.216671}},{"displayName":"Bischoffen, DE","country":"DE","name":"Bischoffen","_id":6553218,"coord":{"lon":8.45,"lat":50.700001}},{"displayName":"Bischoffen, DE","country":"DE","name":"Bischoffen","_id":2948307,"coord":{"lon":8.45,"lat":50.700001}},{"displayName":"Bischofferode, DE","country":"DE","name":"Bischofferode","_id":2948306,"coord":{"lon":9.76667,"lat":51.133331}},{"displayName":"Bischofferode, DE","country":"DE","name":"Bischofferode","_id":2948304,"coord":{"lon":10.71667,"lat":51.566669}},{"displayName":"Bischofferode, DE","country":"DE","name":"Bischofferode","_id":6549755,"coord":{"lon":10.45,"lat":51.5}},{"displayName":"Bischofferode, DE","country":"DE","name":"Bischofferode","_id":2948305,"coord":{"lon":10.44396,"lat":51.496559}},{"displayName":"Bischoffsheim, FR","country":"FR","name":"Bischoffsheim","_id":3032549,"coord":{"lon":7.48967,"lat":48.48703}},{"displayName":"Bischofrod, DE","country":"DE","name":"Bischofrod","_id":6550165,"coord":{"lon":10.65,"lat":50.549999}},{"displayName":"Bischofrod, DE","country":"DE","name":"Bischofrod","_id":2948301,"coord":{"lon":10.65,"lat":50.549999}},{"displayName":"Bischofroda, DE","country":"DE","name":"Bischofroda","_id":6549864,"coord":{"lon":10.3667,"lat":51.049999}},{"displayName":"Bischofroda, DE","country":"DE","name":"Bischofroda","_id":2948300,"coord":{"lon":10.36667,"lat":51.049999}},{"displayName":"Bischofrode, DE","country":"DE","name":"Bischofrode","_id":2948299,"coord":{"lon":11.53333,"lat":51.48333}},{"displayName":"Bischofsgrun, DE","country":"DE","name":"Bischofsgrun","_id":2948292,"coord":{"lon":11.78333,"lat":50.049999}},{"displayName":"Bischofsgrün, DE","country":"DE","name":"Bischofsgrün","_id":6556754,"coord":{"lon":11.7933,"lat":50.049301}},{"displayName":"Bischofsheim an der Rhon, DE","country":"DE","name":"Bischofsheim an der Rhon","_id":2948287,"coord":{"lon":10.00751,"lat":50.40239}},{"displayName":"Bischofsheim, DE","country":"DE","name":"Bischofsheim","_id":2948290,"coord":{"lon":8.36722,"lat":49.993889}},{"displayName":"Bischofsheim, DE","country":"DE","name":"Bischofsheim","_id":6547427,"coord":{"lon":8.3617,"lat":49.981998}},{"displayName":"Bischofsheim, DE","country":"DE","name":"Bischofsheim","_id":2948288,"coord":{"lon":8.8,"lat":50.150002}},{"displayName":"Bischofsheim, DE","country":"DE","name":"Bischofsheim","_id":2948289,"coord":{"lon":10.63333,"lat":50.033329}},{"displayName":"Bischofshofen, AT","country":"AT","name":"Bischofshofen","_id":7872220,"coord":{"lon":13.21713,"lat":47.410019}},{"displayName":"Bischofshofen, AT","country":"AT","name":"Bischofshofen","_id":2781735,"coord":{"lon":13.21667,"lat":47.416672}},{"displayName":"Bischofsmais, DE","country":"DE","name":"Bischofsmais","_id":6556541,"coord":{"lon":13.0833,"lat":48.916698}},{"displayName":"Bischofsmais, DE","country":"DE","name":"Bischofsmais","_id":2948282,"coord":{"lon":13.08184,"lat":48.917961}},{"displayName":"Bischofstetten, AT","country":"AT","name":"Bischofstetten","_id":7872939,"coord":{"lon":15.46927,"lat":48.125679}},{"displayName":"Bischofstetten, AT","country":"AT","name":"Bischofstetten","_id":2781734,"coord":{"lon":15.46909,"lat":48.122219}},{"displayName":"Bischofswerda, DE","country":"DE","name":"Bischofswerda","_id":2948267,"coord":{"lon":14.17974,"lat":51.127708}},{"displayName":"Bischofswiesen, DE","country":"DE","name":"Bischofswiesen","_id":2948265,"coord":{"lon":12.95,"lat":47.650002}},{"displayName":"Bischofswiesen, DE","country":"DE","name":"Bischofswiesen","_id":6556112,"coord":{"lon":12.95,"lat":47.650002}},{"displayName":"Bischweier, DE","country":"DE","name":"Bischweier","_id":6555624,"coord":{"lon":8.28333,"lat":48.833302}},{"displayName":"Bischweier, DE","country":"DE","name":"Bischweier","_id":2948261,"coord":{"lon":8.28412,"lat":48.837662}},{"displayName":"Bischwiller, FR","country":"FR","name":"Bischwiller","_id":3032544,"coord":{"lon":7.85831,"lat":48.765881}},{"displayName":"Biscoe, US","country":"US","name":"Biscoe","_id":4456054,"coord":{"lon":-79.779762,"lat":35.359859}},{"displayName":"Biscoitos, PT","country":"PT","name":"Biscoitos","_id":3373300,"coord":{"lon":-27.25,"lat":38.783329}},{"displayName":"Biscotasing, CA","country":"CA","name":"Biscotasing","_id":5901919,"coord":{"lon":-82.0998,"lat":47.28339}},{"displayName":"Biscucuy, VE","country":"VE","name":"Biscucuy","_id":3648274,"coord":{"lon":-69.983902,"lat":9.35944}},{"displayName":"Bisdorf, DE","country":"DE","name":"Bisdorf","_id":2948254,"coord":{"lon":11.55,"lat":51.950001}},{"displayName":"Bisee, LC","country":"LC","name":"Bisee","_id":3576854,"coord":{"lon":-60.966671,"lat":14.01667}},{"displayName":"Bisegna, IT","country":"IT","name":"Bisegna","_id":3182005,"coord":{"lon":13.7576,"lat":41.921131}},{"displayName":"Bisel, FR","country":"FR","name":"Bisel","_id":6450662,"coord":{"lon":7.21667,"lat":47.533329}},{"displayName":"Bisel, FR","country":"FR","name":"Bisel","_id":3032543,"coord":{"lon":7.21743,"lat":47.535259}},{"displayName":"Bisenda Buzurg, IN","country":"IN","name":"Bisenda Buzurg","_id":1275474,"coord":{"lon":80.616669,"lat":25.41667}},{"displayName":"Bisenti, IT","country":"IT","name":"Bisenti","_id":3182003,"coord":{"lon":13.8005,"lat":42.52874}},{"displayName":"Biser, BG","country":"BG","name":"Biser","_id":6459518,"coord":{"lon":25.98333,"lat":41.866669}},{"displayName":"Biser, BG","country":"BG","name":"Biser","_id":733221,"coord":{"lon":25.98333,"lat":41.866669}},{"displayName":"Biserovo, RU","country":"RU","name":"Biserovo","_id":576263,"coord":{"lon":38.115833,"lat":55.783054}},{"displayName":"Biserovo, RU","country":"RU","name":"Biserovo","_id":576265,"coord":{"lon":38.28278,"lat":55.395832}},{"displayName":"Biserovo, RU","country":"RU","name":"Biserovo","_id":576264,"coord":{"lon":38.430557,"lat":55.514168}},{"displayName":"Bisert, RU","country":"RU","name":"Bisert","_id":576260,"coord":{"lon":59.052311,"lat":56.86174}},{"displayName":"Bishagou, CN","country":"CN","name":"Bishagou","_id":1941112,"coord":{"lon":109.591393,"lat":29.34264}},{"displayName":"Bisham, GB","country":"GB","name":"Bisham","_id":2655585,"coord":{"lon":-0.77557,"lat":51.557041}},{"displayName":"Bishan, CN","country":"CN","name":"Bishan","_id":1553484,"coord":{"lon":117.909019,"lat":29.954229}},{"displayName":"Bishkek, KG","country":"KG","name":"Bishkek","_id":1528334,"coord":{"lon":74.600258,"lat":42.895859}},{"displayName":"Bishkek, KG","country":"KG","name":"Bishkek","_id":1528675,"coord":{"lon":74.589996,"lat":42.869999}},{"displayName":"Bishkul, KZ","country":"KZ","name":"Bishkul","_id":1525295,"coord":{"lon":69.103333,"lat":54.780281}},{"displayName":"Bishnah, IN","country":"IN","name":"Bishnah","_id":1275466,"coord":{"lon":74.866669,"lat":32.616669}},{"displayName":"Bishnupur, IN","country":"IN","name":"Bishnupur","_id":1275462,"coord":{"lon":87.316673,"lat":23.08333}},{"displayName":"Bishnupur, IN","country":"IN","name":"Bishnupur","_id":1275463,"coord":{"lon":88.26667,"lat":22.383329}},{"displayName":"Bishop Auckland, GB","country":"GB","name":"Bishop Auckland","_id":7300070,"coord":{"lon":-1.68571,"lat":54.65535}},{"displayName":"Bishop Auckland, GB","country":"GB","name":"Bishop Auckland","_id":2655583,"coord":{"lon":-1.67706,"lat":54.65554}},{"displayName":"Bishop Middleham, GB","country":"GB","name":"Bishop Middleham","_id":2655578,"coord":{"lon":-1.48826,"lat":54.67778}},{"displayName":"Bishop Sutton, GB","country":"GB","name":"Bishop Sutton","_id":3345404,"coord":{"lon":-2.59472,"lat":51.334438}},{"displayName":"Bishop\u0027s Falls, CA","country":"CA","name":"Bishop\u0027s Falls","_id":5901989,"coord":{"lon":-55.481499,"lat":49.01664}},{"displayName":"Bishop\u0027s Harbour, CA","country":"CA","name":"Bishop\u0027s Harbour","_id":5901993,"coord":{"lon":-53.63139,"lat":48.683201}},{"displayName":"Bishop, US","country":"US","name":"Bishop","_id":4674593,"coord":{"lon":-97.799156,"lat":27.58614}},{"displayName":"Bishop, US","country":"US","name":"Bishop","_id":5328808,"coord":{"lon":-118.395111,"lat":37.363541}},{"displayName":"Bishopbriggs, GB","country":"GB","name":"Bishopbriggs","_id":2655582,"coord":{"lon":-4.21869,"lat":55.906689}},{"displayName":"Bishops Lydeard, GB","country":"GB","name":"Bishops Lydeard","_id":2655564,"coord":{"lon":-3.18778,"lat":51.05917}},{"displayName":"Bishops Stortford, GB","country":"GB","name":"Bishops Stortford","_id":2655562,"coord":{"lon":0.15868,"lat":51.871132}},{"displayName":"Bishops Waltham, GB","country":"GB","name":"Bishops Waltham","_id":2655551,"coord":{"lon":-1.21667,"lat":50.950001}},{"displayName":"Bishopsbourne, AU","country":"AU","name":"Bishopsbourne","_id":2175664,"coord":{"lon":147.016663,"lat":-41.583328}},{"displayName":"Bishopshall, IE","country":"IE","name":"Bishopshall","_id":2966150,"coord":{"lon":-7.12083,"lat":52.314999}},{"displayName":"Bishopsteignton, GB","country":"GB","name":"Bishopsteignton","_id":2655558,"coord":{"lon":-3.53852,"lat":50.551929}},{"displayName":"Bishopstoke, GB","country":"GB","name":"Bishopstoke","_id":2655557,"coord":{"lon":-1.32832,"lat":50.966431}},{"displayName":"Bishopston, GB","country":"GB","name":"Bishopston","_id":2655556,"coord":{"lon":-4.04806,"lat":51.577499}},{"displayName":"Bishopstone, GB","country":"GB","name":"Bishopstone","_id":2655553,"coord":{"lon":-1.64701,"lat":51.5513}},{"displayName":"Bishopstone, GB","country":"GB","name":"Bishopstone","_id":2655554,"coord":{"lon":-1.9,"lat":51.01667}},{"displayName":"Bishopstrow, GB","country":"GB","name":"Bishopstrow","_id":2655552,"coord":{"lon":-2.15528,"lat":51.193062}},{"displayName":"Bishopthorpe, GB","country":"GB","name":"Bishopthorpe","_id":2655550,"coord":{"lon":-1.09915,"lat":53.919102}},{"displayName":"Bishopton, GB","country":"GB","name":"Bishopton","_id":2655548,"coord":{"lon":-4.5056,"lat":55.909691}},{"displayName":"Bishopton, GB","country":"GB","name":"Bishopton","_id":2655549,"coord":{"lon":-1.43333,"lat":54.583328}},{"displayName":"Bishopville, US","country":"US","name":"Bishopville","_id":4571470,"coord":{"lon":-80.248413,"lat":34.218208}},{"displayName":"Bishton, GB","country":"GB","name":"Bishton","_id":2655546,"coord":{"lon":-2.87833,"lat":51.58194}},{"displayName":"Bishui, CN","country":"CN","name":"Bishui","_id":1816315,"coord":{"lon":113.311668,"lat":32.717861}},{"displayName":"Bisignano, IT","country":"IT","name":"Bisignano","_id":6540783,"coord":{"lon":16.277189,"lat":39.505901}},{"displayName":"Bisignano, IT","country":"IT","name":"Bisignano","_id":2525550,"coord":{"lon":16.277189,"lat":39.505901}},{"displayName":"Bisimbre, ES","country":"ES","name":"Bisimbre","_id":6362745,"coord":{"lon":-1.42306,"lat":41.85817}},{"displayName":"Bisimbre, ES","country":"ES","name":"Bisimbre","_id":3128001,"coord":{"lon":-1.44268,"lat":41.856071}},{"displayName":"Bisingen, DE","country":"DE","name":"Bisingen","_id":6555945,"coord":{"lon":8.91704,"lat":48.310001}},{"displayName":"Bisingen, DE","country":"DE","name":"Bisingen","_id":2948246,"coord":{"lon":8.91738,"lat":48.31012}},{"displayName":"Biskamzha, RU","country":"RU","name":"Biskamzha","_id":1510030,"coord":{"lon":89.527222,"lat":53.449718}},{"displayName":"Biskirchen, DE","country":"DE","name":"Biskirchen","_id":2948245,"coord":{"lon":8.31064,"lat":50.533829}},{"displayName":"Biskra, DZ","country":"DZ","name":"Biskra","_id":2503826,"coord":{"lon":5.72805,"lat":34.85038}},{"displayName":"Biskupice Radlowskie, PL","country":"PL","name":"Biskupice Radlowskie","_id":775894,"coord":{"lon":20.85943,"lat":50.120689}},{"displayName":"Biskupiec, PL","country":"PL","name":"Biskupiec","_id":775890,"coord":{"lon":20.956921,"lat":53.86467}},{"displayName":"Biskupiec, PL","country":"PL","name":"Biskupiec","_id":7534548,"coord":{"lon":19.350559,"lat":53.500561}},{"displayName":"Bislich, DE","country":"DE","name":"Bislich","_id":2948244,"coord":{"lon":6.48333,"lat":51.683331}},{"displayName":"Bislig, PH","country":"PH","name":"Bislig","_id":1724769,"coord":{"lon":126.283333,"lat":8.21667}},{"displayName":"Bislig, PH","country":"PH","name":"Bislig","_id":1724767,"coord":{"lon":126.316391,"lat":8.21528}},{"displayName":"Bislig, PH","country":"PH","name":"Bislig","_id":1724766,"coord":{"lon":125.033607,"lat":11.0725}},{"displayName":"Bislohe, DE","country":"DE","name":"Bislohe","_id":2948239,"coord":{"lon":11.0,"lat":49.5}},{"displayName":"Bismarck, US","country":"US","name":"Bismarck","_id":5688025,"coord":{"lon":-100.783737,"lat":46.808331}},{"displayName":"Bismarck, US","country":"US","name":"Bismarck","_id":4377247,"coord":{"lon":-90.624847,"lat":37.769218}},{"displayName":"Bismark, DE","country":"DE","name":"Bismark","_id":2948229,"coord":{"lon":11.56667,"lat":52.666672}},{"displayName":"Bismil, TR","country":"TR","name":"Bismil","_id":321031,"coord":{"lon":40.665829,"lat":37.84861}},{"displayName":"Bismo, NO","country":"NO","name":"Bismo","_id":7626332,"coord":{"lon":8.26914,"lat":61.883869}},{"displayName":"Bismula, PT","country":"PT","name":"Bismula","_id":8012218,"coord":{"lon":-6.95625,"lat":40.443901}},{"displayName":"Bismula, PT","country":"PT","name":"Bismula","_id":2742217,"coord":{"lon":-6.9653,"lat":40.44627}},{"displayName":"Bisoca, RO","country":"RO","name":"Bisoca","_id":684683,"coord":{"lon":26.700001,"lat":45.533329}},{"displayName":"Bison, US","country":"US","name":"Bison","_id":5762836,"coord":{"lon":-102.461273,"lat":45.52026}},{"displayName":"Bispeira, PT","country":"PT","name":"Bispeira","_id":2742215,"coord":{"lon":-8.43333,"lat":41.933331}},{"displayName":"Bisperode, DE","country":"DE","name":"Bisperode","_id":2948224,"coord":{"lon":9.5,"lat":52.083328}},{"displayName":"Bispingen, DE","country":"DE","name":"Bispingen","_id":2948222,"coord":{"lon":9.99772,"lat":53.083118}},{"displayName":"Bispingen, DE","country":"DE","name":"Bispingen","_id":6552764,"coord":{"lon":9.99772,"lat":53.083118}},{"displayName":"Bissau, GW","country":"GW","name":"Bissau","_id":2374776,"coord":{"lon":-15.59097,"lat":11.85391}},{"displayName":"Bissau, GW","country":"GW","name":"Bissau","_id":2374775,"coord":{"lon":-15.59767,"lat":11.86357}},{"displayName":"Bissau, IN","country":"IN","name":"Bissau","_id":1275441,"coord":{"lon":75.083328,"lat":28.25}},{"displayName":"Bissee, DE","country":"DE","name":"Bissee","_id":6551804,"coord":{"lon":10.1167,"lat":54.1833}},{"displayName":"Bissee, DE","country":"DE","name":"Bissee","_id":2948219,"coord":{"lon":10.11667,"lat":54.183331}},{"displayName":"Bissegg, CH","country":"CH","name":"Bissegg","_id":2661487,"coord":{"lon":9.04784,"lat":47.562569}},{"displayName":"Bissen, LU","country":"LU","name":"Bissen","_id":6693286,"coord":{"lon":6.06944,"lat":49.787498}},{"displayName":"Bissen, LU","country":"LU","name":"Bissen","_id":2960759,"coord":{"lon":6.06944,"lat":49.787498}},{"displayName":"Bissendorf, DE","country":"DE","name":"Bissendorf","_id":6552982,"coord":{"lon":8.16667,"lat":52.233299}},{"displayName":"Bissendorf, DE","country":"DE","name":"Bissendorf","_id":2948212,"coord":{"lon":8.16667,"lat":52.23333}},{"displayName":"Bissersheim, DE","country":"DE","name":"Bissersheim","_id":6554889,"coord":{"lon":8.20417,"lat":49.535801}},{"displayName":"Bissersheim, DE","country":"DE","name":"Bissersheim","_id":2948206,"coord":{"lon":8.20417,"lat":49.535831}},{"displayName":"Bisses, DE","country":"DE","name":"Bisses","_id":2948205,"coord":{"lon":8.9,"lat":50.400002}},{"displayName":"Bissett, CA","country":"CA","name":"Bissett","_id":5902030,"coord":{"lon":-95.681633,"lat":51.025021}},{"displayName":"Bissingen an der Teck, DE","country":"DE","name":"Bissingen an der Teck","_id":6555414,"coord":{"lon":9.49146,"lat":48.599232}},{"displayName":"Bissingen an der Teck, DE","country":"DE","name":"Bissingen an der Teck","_id":2948202,"coord":{"lon":9.49146,"lat":48.599152}},{"displayName":"Bissingen ob Lontal, DE","country":"DE","name":"Bissingen ob Lontal","_id":2948201,"coord":{"lon":10.17235,"lat":48.567379}},{"displayName":"Bissingen, DE","country":"DE","name":"Bissingen","_id":2948204,"coord":{"lon":10.61667,"lat":48.716671}},{"displayName":"Bissora, GW","country":"GW","name":"Bissora","_id":2374759,"coord":{"lon":-15.4475,"lat":12.22306}},{"displayName":"Bistagno, IT","country":"IT","name":"Bistagno","_id":3181997,"coord":{"lon":8.37034,"lat":44.660141}},{"displayName":"Bisten, DE","country":"DE","name":"Bisten","_id":2948194,"coord":{"lon":6.7,"lat":49.25}},{"displayName":"Bistensee, DE","country":"DE","name":"Bistensee","_id":2948192,"coord":{"lon":9.7,"lat":54.400002}},{"displayName":"Bisterschied, DE","country":"DE","name":"Bisterschied","_id":6554933,"coord":{"lon":7.75,"lat":49.650002}},{"displayName":"Bisterschied, DE","country":"DE","name":"Bisterschied","_id":2948190,"coord":{"lon":7.75,"lat":49.650002}},{"displayName":"Bistoftholz, DE","country":"DE","name":"Bistoftholz","_id":2948188,"coord":{"lon":9.53333,"lat":54.700001}},{"displayName":"Bistra, RO","country":"RO","name":"Bistra","_id":684677,"coord":{"lon":24.200001,"lat":47.866669}},{"displayName":"Bistra, RO","country":"RO","name":"Bistra","_id":684680,"coord":{"lon":23.1,"lat":46.383331}},{"displayName":"Bistretu, RO","country":"RO","name":"Bistretu","_id":684666,"coord":{"lon":23.5,"lat":43.900002}},{"displayName":"Bistrica ob Sotli, SI","country":"SI","name":"Bistrica ob Sotli","_id":3204044,"coord":{"lon":15.66417,"lat":46.058891}},{"displayName":"Bistrica, BG","country":"BG","name":"Bistrica","_id":6461719,"coord":{"lon":23.366671,"lat":42.583328}},{"displayName":"Bistrica, MK","country":"MK","name":"Bistrica","_id":792592,"coord":{"lon":21.366671,"lat":40.98333}},{"displayName":"Bistrinci, HR","country":"HR","name":"Bistrinci","_id":3204035,"coord":{"lon":18.398609,"lat":45.691669}},{"displayName":"Bistrita, RO","country":"RO","name":"Bistrita","_id":684657,"coord":{"lon":24.500111,"lat":47.13316}},{"displayName":"Bistritsa, BG","country":"BG","name":"Bistritsa","_id":733208,"coord":{"lon":23.366671,"lat":42.583328}},{"displayName":"Bisuschio, IT","country":"IT","name":"Bisuschio","_id":6535091,"coord":{"lon":8.86843,"lat":45.871479}},{"displayName":"Biswan, IN","country":"IN","name":"Biswan","_id":1275435,"coord":{"lon":81.0,"lat":27.5}},{"displayName":"Biszcza, PL","country":"PL","name":"Biszcza","_id":775888,"coord":{"lon":22.650631,"lat":50.401459}},{"displayName":"Bisztynek, PL","country":"PL","name":"Bisztynek","_id":775886,"coord":{"lon":20.90192,"lat":54.08633}},{"displayName":"Bitadton, PH","country":"PH","name":"Bitadton","_id":1724747,"coord":{"lon":122.085114,"lat":11.4969}},{"displayName":"Bitag, PH","country":"PH","name":"Bitag","_id":1724743,"coord":{"lon":121.850647,"lat":17.900789}},{"displayName":"Bitam, GA","country":"GA","name":"Bitam","_id":2401578,"coord":{"lon":11.50065,"lat":2.07597}},{"displayName":"Bitangan, PH","country":"PH","name":"Bitangan","_id":1724735,"coord":{"lon":120.878326,"lat":14.25389}},{"displayName":"Bitanjuan, PH","country":"PH","name":"Bitanjuan","_id":1724734,"coord":{"lon":124.766296,"lat":10.5955}},{"displayName":"Bitaogan, PH","country":"PH","name":"Bitaogan","_id":1724728,"coord":{"lon":126.077377,"lat":6.76842}},{"displayName":"Bitarães, PT","country":"PT","name":"Bitarães","_id":8012801,"coord":{"lon":-8.31321,"lat":41.2267}},{"displayName":"Bitarães, PT","country":"PT","name":"Bitarães","_id":2742214,"coord":{"lon":-8.32344,"lat":41.226452}},{"displayName":"Bitburg, DE","country":"DE","name":"Bitburg","_id":2948184,"coord":{"lon":6.53333,"lat":49.966671}},{"displayName":"Bitche, FR","country":"FR","name":"Bitche","_id":3032518,"coord":{"lon":7.42672,"lat":49.050091}},{"displayName":"Bitchfield, GB","country":"GB","name":"Bitchfield","_id":2655541,"coord":{"lon":-0.53232,"lat":52.846741}},{"displayName":"Bitem, ES","country":"ES","name":"Bitem","_id":3127998,"coord":{"lon":0.53224,"lat":40.85096}},{"displayName":"Bitetto, IT","country":"IT","name":"Bitetto","_id":3181996,"coord":{"lon":16.74688,"lat":41.038631}},{"displayName":"Bithlo, US","country":"US","name":"Bithlo","_id":4148012,"coord":{"lon":-81.106453,"lat":28.55472}},{"displayName":"Bithur, IN","country":"IN","name":"Bithur","_id":1275426,"coord":{"lon":80.283333,"lat":26.633329}},{"displayName":"Bitica, GQ","country":"GQ","name":"Bitica","_id":2309744,"coord":{"lon":9.62316,"lat":1.4261}},{"displayName":"Bitin, PH","country":"PH","name":"Bitin","_id":1724691,"coord":{"lon":121.212784,"lat":14.09389}},{"displayName":"Biting, ID","country":"ID","name":"Biting","_id":7089140,"coord":{"lon":120.634102,"lat":-8.5966}},{"displayName":"Biting, ID","country":"ID","name":"Biting","_id":7406584,"coord":{"lon":113.857498,"lat":-8.073}},{"displayName":"Biting, ID","country":"ID","name":"Biting","_id":7406691,"coord":{"lon":113.761703,"lat":-8.1184}},{"displayName":"Bitkine, TD","country":"TD","name":"Bitkine","_id":2435124,"coord":{"lon":18.2138,"lat":11.9801}},{"displayName":"Bitlis, TR","country":"TR","name":"Bitlis","_id":321025,"coord":{"lon":42.107841,"lat":38.40115}},{"displayName":"Bitlis, TR","country":"TR","name":"Bitlis","_id":321022,"coord":{"lon":42.25,"lat":38.5}},{"displayName":"Bito-on, PH","country":"PH","name":"Bito-on","_id":1724656,"coord":{"lon":123.994003,"lat":11.2332}},{"displayName":"Bitola, MK","country":"MK","name":"Bitola","_id":792578,"coord":{"lon":21.340281,"lat":41.031109}},{"displayName":"Bitonto, IT","country":"IT","name":"Bitonto","_id":3181995,"coord":{"lon":16.689381,"lat":41.110828}},{"displayName":"Bitonto, IT","country":"IT","name":"Bitonto","_id":6541255,"coord":{"lon":16.689381,"lat":41.110828}},{"displayName":"Bitoon, PH","country":"PH","name":"Bitoon","_id":1724660,"coord":{"lon":123.458702,"lat":10.0804}},{"displayName":"Bitritto, IT","country":"IT","name":"Bitritto","_id":3181994,"coord":{"lon":16.82518,"lat":41.044529}},{"displayName":"Bitsch, CH","country":"CH","name":"Bitsch","_id":2661485,"coord":{"lon":7.96667,"lat":46.349998}},{"displayName":"Bitschwiller-les-Thann, FR","country":"FR","name":"Bitschwiller-les-Thann","_id":3032509,"coord":{"lon":7.08066,"lat":47.828629}},{"displayName":"Bitter, DE","country":"DE","name":"Bitter","_id":2948166,"coord":{"lon":11.03594,"lat":53.169312}},{"displayName":"Bitterfeld, DE","country":"DE","name":"Bitterfeld","_id":2948164,"coord":{"lon":12.31667,"lat":51.616669}},{"displayName":"Bittern Lake, CA","country":"CA","name":"Bittern Lake","_id":5902088,"coord":{"lon":-113.051971,"lat":53.016842}},{"displayName":"Bittern, AU","country":"AU","name":"Bittern","_id":2175655,"coord":{"lon":145.166672,"lat":-38.333328}},{"displayName":"Bitti, IT","country":"IT","name":"Bitti","_id":3181992,"coord":{"lon":9.38403,"lat":40.479561}},{"displayName":"Bittkau, DE","country":"DE","name":"Bittkau","_id":2948154,"coord":{"lon":11.96667,"lat":52.416672}},{"displayName":"Bitton, GB","country":"GB","name":"Bitton","_id":2655536,"coord":{"lon":-2.45965,"lat":51.424789}},{"displayName":"Bittsa, RU","country":"RU","name":"Bittsa","_id":819742,"coord":{"lon":37.615555,"lat":55.570278}},{"displayName":"Bittsa, RU","country":"RU","name":"Bittsa","_id":576221,"coord":{"lon":37.575001,"lat":55.576389}},{"displayName":"Bittstädt, DE","country":"DE","name":"Bittstädt","_id":2948149,"coord":{"lon":10.88333,"lat":50.833328}},{"displayName":"Bituima, CO","country":"CO","name":"Bituima","_id":3688811,"coord":{"lon":-74.539261,"lat":4.87252}},{"displayName":"Bitung, ID","country":"ID","name":"Bitung","_id":1648636,"coord":{"lon":125.182404,"lat":1.4451}},{"displayName":"Bitungol, PH","country":"PH","name":"Bitungol","_id":1724641,"coord":{"lon":121.033333,"lat":14.88333}},{"displayName":"Bituruna, BR","country":"BR","name":"Bituruna","_id":3469974,"coord":{"lon":-51.552502,"lat":-26.16139}},{"displayName":"Bitz, DE","country":"DE","name":"Bitz","_id":6555946,"coord":{"lon":9.0917,"lat":48.243881}},{"displayName":"Bitz, DE","country":"DE","name":"Bitz","_id":2948147,"coord":{"lon":9.09144,"lat":48.243999}},{"displayName":"Bitzen, DE","country":"DE","name":"Bitzen","_id":6553366,"coord":{"lon":7.68333,"lat":50.799999}},{"displayName":"Bitzen, DE","country":"DE","name":"Bitzen","_id":2948140,"coord":{"lon":7.68333,"lat":50.799999}},{"displayName":"Bitzfeld, DE","country":"DE","name":"Bitzfeld","_id":2948136,"coord":{"lon":9.44444,"lat":49.190559}},{"displayName":"Biu, NG","country":"NG","name":"Biu","_id":2346995,"coord":{"lon":12.19458,"lat":10.61285}},{"displayName":"Biure, ES","country":"ES","name":"Biure","_id":6534038,"coord":{"lon":2.8967,"lat":42.33672}},{"displayName":"Biure, ES","country":"ES","name":"Biure","_id":3104490,"coord":{"lon":2.89513,"lat":42.337341}},{"displayName":"Bivange, LU","country":"LU","name":"Bivange","_id":2960764,"coord":{"lon":6.13778,"lat":49.544441}},{"displayName":"Bivels, LU","country":"LU","name":"Bivels","_id":2960758,"coord":{"lon":6.19222,"lat":49.960281}},{"displayName":"Biviers, FR","country":"FR","name":"Biviers","_id":3032505,"coord":{"lon":5.8,"lat":45.23333}},{"displayName":"Bivio, CH","country":"CH","name":"Bivio","_id":7285265,"coord":{"lon":9.66173,"lat":46.457779}},{"displayName":"Bivio, CH","country":"CH","name":"Bivio","_id":2661484,"coord":{"lon":9.65064,"lat":46.468552}},{"displayName":"Bivolari, RO","country":"RO","name":"Bivolari","_id":684635,"coord":{"lon":27.433331,"lat":47.533329}},{"displayName":"Bivona, IT","country":"IT","name":"Bivona","_id":2525545,"coord":{"lon":13.43835,"lat":37.619339}},{"displayName":"Bivongi, IT","country":"IT","name":"Bivongi","_id":2525543,"coord":{"lon":16.452511,"lat":38.48328}},{"displayName":"Biwang, PH","country":"PH","name":"Biwang","_id":1724632,"coord":{"lon":124.555283,"lat":6.59722}},{"displayName":"Biwisch, LU","country":"LU","name":"Biwisch","_id":2960755,"coord":{"lon":5.97917,"lat":50.118061}},{"displayName":"Bixad, RO","country":"RO","name":"Bixad","_id":684630,"coord":{"lon":23.4,"lat":47.933331}},{"displayName":"Bixby, US","country":"US","name":"Bixby","_id":4530801,"coord":{"lon":-95.883324,"lat":35.942039}},{"displayName":"Bixidong, CN","country":"CN","name":"Bixidong","_id":1927930,"coord":{"lon":109.68811,"lat":29.38414}},{"displayName":"Biyang, CN","country":"CN","name":"Biyang","_id":1816316,"coord":{"lon":117.946381,"lat":29.92885}},{"displayName":"Biyong, CN","country":"CN","name":"Biyong","_id":1816312,"coord":{"lon":109.510002,"lat":27.18722}},{"displayName":"Biysk, RU","country":"RU","name":"Biysk","_id":1510018,"coord":{"lon":85.207222,"lat":52.536388}},{"displayName":"Biyuk-Nayman, UA","country":"UA","name":"Biyuk-Nayman","_id":712105,"coord":{"lon":34.349998,"lat":46.016666}},{"displayName":"Bizanet, FR","country":"FR","name":"Bizanet","_id":3032497,"coord":{"lon":2.87034,"lat":43.164188}},{"displayName":"Bizanos, FR","country":"FR","name":"Bizanos","_id":6440308,"coord":{"lon":-0.35,"lat":43.283329}},{"displayName":"Bizanos, FR","country":"FR","name":"Bizanos","_id":3032496,"coord":{"lon":-0.35,"lat":43.283329}},{"displayName":"Bizau, AT","country":"AT","name":"Bizau","_id":7872655,"coord":{"lon":9.96708,"lat":47.366032}},{"displayName":"Bizau, AT","country":"AT","name":"Bizau","_id":2781730,"coord":{"lon":9.92333,"lat":47.368889}},{"displayName":"Bize-Minervois, FR","country":"FR","name":"Bize-Minervois","_id":3032492,"coord":{"lon":2.87134,"lat":43.316559}},{"displayName":"Bizeneuille, FR","country":"FR","name":"Bizeneuille","_id":6446523,"coord":{"lon":2.73333,"lat":46.400002}},{"displayName":"Bizeneuille, FR","country":"FR","name":"Bizeneuille","_id":3032491,"coord":{"lon":2.73619,"lat":46.407421}},{"displayName":"Bizerte, TN","country":"TN","name":"Bizerte","_id":2472706,"coord":{"lon":9.87391,"lat":37.274422}},{"displayName":"Bizhbulyak, RU","country":"RU","name":"Bizhbulyak","_id":576195,"coord":{"lon":54.264198,"lat":53.696701}},{"displayName":"Bizimovo, RU","country":"RU","name":"Bizimovo","_id":6422384,"coord":{"lon":41.203335,"lat":56.402222}},{"displayName":"Bizou, FR","country":"FR","name":"Bizou","_id":6450191,"coord":{"lon":0.75,"lat":48.5}},{"displayName":"Bizou, FR","country":"FR","name":"Bizou","_id":3032486,"coord":{"lon":0.75058,"lat":48.494869}},{"displayName":"Bizovac, HR","country":"HR","name":"Bizovac","_id":3204022,"coord":{"lon":18.458891,"lat":45.592781}},{"displayName":"Bizzarone, IT","country":"IT","name":"Bizzarone","_id":6534409,"coord":{"lon":8.94274,"lat":45.834278}},{"displayName":"Biáfara, PR","country":"PR","name":"Biáfara","_id":4562868,"coord":{"lon":-66.661842,"lat":18.40856}},{"displayName":"Bière, CH","country":"CH","name":"Bière","_id":7285242,"coord":{"lon":6.31759,"lat":46.547798}},{"displayName":"Bièvre, BE","country":"BE","name":"Bièvre","_id":2801950,"coord":{"lon":5.01646,"lat":49.94001}},{"displayName":"Biéville, FR","country":"FR","name":"Biéville","_id":6455151,"coord":{"lon":-0.88333,"lat":49.083328}},{"displayName":"Biéville, FR","country":"FR","name":"Biéville","_id":3032703,"coord":{"lon":-0.88933,"lat":49.083988}},{"displayName":"Biéville-en-Auge, FR","country":"FR","name":"Biéville-en-Auge","_id":7669102,"coord":{"lon":-0.03897,"lat":49.12624}},{"displayName":"Biéville-Quétiéville, FR","country":"FR","name":"Biéville-Quétiéville","_id":6615912,"coord":{"lon":-0.037,"lat":49.109402}},{"displayName":"Biéville-Quétiéville, FR","country":"FR","name":"Biéville-Quétiéville","_id":3032702,"coord":{"lon":-0.0406,"lat":49.103882}},{"displayName":"Biłgoraj, PL","country":"PL","name":"Biłgoraj","_id":7532583,"coord":{"lon":22.711599,"lat":50.539001}},{"displayName":"Bjaeverskov, DK","country":"DK","name":"Bjaeverskov","_id":2623978,"coord":{"lon":12.03651,"lat":55.457561}},{"displayName":"Bjaga, BG","country":"BG","name":"Bjaga","_id":6461131,"coord":{"lon":24.366671,"lat":42.066669}},{"displayName":"Bjala cherkva, BG","country":"BG","name":"Bjala cherkva","_id":6460854,"coord":{"lon":25.299999,"lat":43.200001}},{"displayName":"Bjarkoy, NO","country":"NO","name":"Bjarkoy","_id":7626401,"coord":{"lon":16.563919,"lat":68.999939}},{"displayName":"Bjarnanes, IS","country":"IS","name":"Bjarnanes","_id":2632811,"coord":{"lon":-15.24182,"lat":64.315399}},{"displayName":"Bjarnum, SE","country":"SE","name":"Bjarnum","_id":2722363,"coord":{"lon":13.7,"lat":56.283329}},{"displayName":"Bjarred, SE","country":"SE","name":"Bjarred","_id":2722362,"coord":{"lon":13.01667,"lat":55.716671}},{"displayName":"Bjasta, SE","country":"SE","name":"Bjasta","_id":2722320,"coord":{"lon":18.5,"lat":63.200001}},{"displayName":"Bjelovar, HR","country":"HR","name":"Bjelovar","_id":3203982,"coord":{"lon":16.84889,"lat":45.898609}},{"displayName":"Bjelovarsko-Bilogorska Županija, HR","country":"HR","name":"Bjelovarsko-Bilogorska Županija","_id":3337511,"coord":{"lon":17.0,"lat":45.666672}},{"displayName":"Bjerringbro, DK","country":"DK","name":"Bjerringbro","_id":2624019,"coord":{"lon":9.66065,"lat":56.377972}},{"displayName":"Bjni, AM","country":"AM","name":"Bjni","_id":616789,"coord":{"lon":44.648121,"lat":40.455898}},{"displayName":"Bjorkdale, CA","country":"CA","name":"Bjorkdale","_id":5902121,"coord":{"lon":-103.65097,"lat":52.716709}},{"displayName":"Bjorkelangen, NO","country":"NO","name":"Bjorkelangen","_id":3161346,"coord":{"lon":11.56942,"lat":59.884781}},