[{"displayName":"Brewarrina, AU","country":"AU","name":"Brewarrina","_id":7839702,"coord":{"lon":147.147598,"lat":-29.95055}},{"displayName":"Brewarrina, AU","country":"AU","name":"Brewarrina","_id":2174123,"coord":{"lon":146.866669,"lat":-29.950001}},{"displayName":"Brewer Estates, US","country":"US","name":"Brewer Estates","_id":4051680,"coord":{"lon":-86.390251,"lat":32.311249}},{"displayName":"Brewer, US","country":"US","name":"Brewer","_id":4959233,"coord":{"lon":-68.761421,"lat":44.796741}},{"displayName":"Brewerton, US","country":"US","name":"Brewerton","_id":5110090,"coord":{"lon":-76.140762,"lat":43.238121}},{"displayName":"Brewongle, AU","country":"AU","name":"Brewongle","_id":2174119,"coord":{"lon":149.716675,"lat":-33.48333}},{"displayName":"Brewood, GB","country":"GB","name":"Brewood","_id":2654767,"coord":{"lon":-2.17414,"lat":52.67712}},{"displayName":"Brewster County, US","country":"US","name":"Brewster County","_id":5517580,"coord":{"lon":-103.251007,"lat":29.833521}},{"displayName":"Brewster Hill, US","country":"US","name":"Brewster Hill","_id":5110096,"coord":{"lon":-73.604286,"lat":41.423981}},{"displayName":"Brewster, AU","country":"AU","name":"Brewster","_id":2174117,"coord":{"lon":143.516663,"lat":-37.48333}},{"displayName":"Brewster, US","country":"US","name":"Brewster","_id":4931273,"coord":{"lon":-70.082802,"lat":41.760109}},{"displayName":"Brewster, US","country":"US","name":"Brewster","_id":5064587,"coord":{"lon":-99.864853,"lat":41.938889}},{"displayName":"Brewster, US","country":"US","name":"Brewster","_id":5110092,"coord":{"lon":-73.617073,"lat":41.39732}},{"displayName":"Brewster, US","country":"US","name":"Brewster","_id":5148164,"coord":{"lon":-81.598183,"lat":40.707001}},{"displayName":"Brewster, US","country":"US","name":"Brewster","_id":5788077,"coord":{"lon":-119.780617,"lat":48.095982}},{"displayName":"Brewton, US","country":"US","name":"Brewton","_id":4051714,"coord":{"lon":-87.072189,"lat":31.105181}},{"displayName":"Brey, DE","country":"DE","name":"Brey","_id":6553794,"coord":{"lon":7.62833,"lat":50.273331}},{"displayName":"Brey, DE","country":"DE","name":"Brey","_id":2944155,"coord":{"lon":7.63333,"lat":50.26667}},{"displayName":"Breynat, CA","country":"CA","name":"Breynat","_id":5908579,"coord":{"lon":-112.468658,"lat":55.133511}},{"displayName":"Breyten, ZA","country":"ZA","name":"Breyten","_id":1015694,"coord":{"lon":29.986959,"lat":-26.30176}},{"displayName":"Breytovo, RU","country":"RU","name":"Breytovo","_id":571634,"coord":{"lon":37.861721,"lat":58.299252}},{"displayName":"Brez, IT","country":"IT","name":"Brez","_id":3181543,"coord":{"lon":11.10657,"lat":46.430908}},{"displayName":"Breze, FR","country":"FR","name":"Breze","_id":3030155,"coord":{"lon":-0.06059,"lat":47.173569}},{"displayName":"Brezi, CZ","country":"CZ","name":"Brezi","_id":3078732,"coord":{"lon":16.56748,"lat":48.819279}},{"displayName":"Brezice, SI","country":"SI","name":"Brezice","_id":3203412,"coord":{"lon":15.59111,"lat":45.903332}},{"displayName":"Brezina, DZ","country":"DZ","name":"Brezina","_id":2502034,"coord":{"lon":1.26082,"lat":33.098919}},{"displayName":"Brezins, FR","country":"FR","name":"Brezins","_id":3030148,"coord":{"lon":5.30692,"lat":45.35202}},{"displayName":"Brezje v Podbočju, SI","country":"SI","name":"Brezje v Podbočju","_id":3203381,"coord":{"lon":15.5,"lat":45.833328}},{"displayName":"Brezje, HR","country":"HR","name":"Brezje","_id":3203394,"coord":{"lon":16.388889,"lat":46.41861}},{"displayName":"Breznica, BG","country":"BG","name":"Breznica","_id":6459581,"coord":{"lon":23.66667,"lat":41.666672}},{"displayName":"Breznice, CZ","country":"CZ","name":"Breznice","_id":3078683,"coord":{"lon":13.95063,"lat":49.557629}},{"displayName":"Breznice, CZ","country":"CZ","name":"Breznice","_id":3078685,"coord":{"lon":17.662769,"lat":49.186432}},{"displayName":"Breznik, BG","country":"BG","name":"Breznik","_id":732883,"coord":{"lon":22.89806,"lat":42.74139}},{"displayName":"Breznita Ocol, RO","country":"RO","name":"Breznita Ocol","_id":683701,"coord":{"lon":22.61833,"lat":44.666672}},{"displayName":"Breznita-Motru, RO","country":"RO","name":"Breznita-Motru","_id":683703,"coord":{"lon":23.216669,"lat":44.566669}},{"displayName":"Breznitsa, BG","country":"BG","name":"Breznitsa","_id":732878,"coord":{"lon":23.66667,"lat":41.666672}},{"displayName":"Brezno, CZ","country":"CZ","name":"Brezno","_id":3078675,"coord":{"lon":13.42118,"lat":50.401852}},{"displayName":"Brezno, SK","country":"SK","name":"Brezno","_id":3060950,"coord":{"lon":19.636311,"lat":48.80431}},{"displayName":"Brezoaiele, RO","country":"RO","name":"Brezoaiele","_id":683697,"coord":{"lon":25.73333,"lat":44.583328}},{"displayName":"Brezoi, RO","country":"RO","name":"Brezoi","_id":683695,"coord":{"lon":24.248631,"lat":45.337971}},{"displayName":"Brezolles, FR","country":"FR","name":"Brezolles","_id":3030147,"coord":{"lon":1.07404,"lat":48.690331}},{"displayName":"Brezolupy, CZ","country":"CZ","name":"Brezolupy","_id":3078672,"coord":{"lon":17.580339,"lat":49.12138}},{"displayName":"Brezons, FR","country":"FR","name":"Brezons","_id":6447248,"coord":{"lon":2.81667,"lat":44.966671}},{"displayName":"Brezons, FR","country":"FR","name":"Brezons","_id":3030146,"coord":{"lon":2.8069,"lat":44.968849}},{"displayName":"Brezova nad Svitavou, CZ","country":"CZ","name":"Brezova nad Svitavou","_id":3078659,"coord":{"lon":16.51799,"lat":49.64418}},{"displayName":"Brezova pod Bradlom, SK","country":"SK","name":"Brezova pod Bradlom","_id":3060942,"coord":{"lon":17.53904,"lat":48.663502}},{"displayName":"Brezova, CZ","country":"CZ","name":"Brezova","_id":3078664,"coord":{"lon":12.64996,"lat":50.145569}},{"displayName":"Brezova, CZ","country":"CZ","name":"Brezova","_id":3078669,"coord":{"lon":17.865561,"lat":49.79158}},{"displayName":"Brezova, CZ","country":"CZ","name":"Brezova","_id":3078671,"coord":{"lon":17.739861,"lat":48.92543}},{"displayName":"Brezovac, HR","country":"HR","name":"Brezovac","_id":3203360,"coord":{"lon":16.84083,"lat":45.8675}},{"displayName":"Brezovica, SI","country":"SI","name":"Brezovica","_id":3203338,"coord":{"lon":14.4,"lat":46.033329}},{"displayName":"Brezovo, BG","country":"BG","name":"Brezovo","_id":732874,"coord":{"lon":25.08333,"lat":42.349998}},{"displayName":"Brezzo di Bedero, IT","country":"IT","name":"Brezzo di Bedero","_id":6534440,"coord":{"lon":8.71743,"lat":45.978378}},{"displayName":"Breña Alta, ES","country":"ES","name":"Breña Alta","_id":6534183,"coord":{"lon":-17.803261,"lat":28.652161}},{"displayName":"Breña Baja, ES","country":"ES","name":"Breña Baja","_id":6534184,"coord":{"lon":-17.77993,"lat":28.633801}},{"displayName":"Brežane, RS","country":"RS","name":"Brežane","_id":792297,"coord":{"lon":21.076389,"lat":44.649441}},{"displayName":"Brgy. Bachaw Norte, Kalibo, PH","country":"PH","name":"Brgy. Bachaw Norte, Kalibo","_id":1728735,"coord":{"lon":122.378059,"lat":11.71806}},{"displayName":"Brgy. Bulwang, Numancia, PH","country":"PH","name":"Brgy. Bulwang, Numancia","_id":1722760,"coord":{"lon":122.361107,"lat":11.72194}},{"displayName":"Brgy. Mabilo, New Washington, PH","country":"PH","name":"Brgy. Mabilo, New Washington","_id":1704615,"coord":{"lon":122.407501,"lat":11.67778}},{"displayName":"Brgy. Nalook, kalibo, PH","country":"PH","name":"Brgy. Nalook, kalibo","_id":1698461,"coord":{"lon":122.369164,"lat":11.68586}},{"displayName":"Brgy. New Buswang, Kalibo, PH","country":"PH","name":"Brgy. New Buswang, Kalibo","_id":1722265,"coord":{"lon":122.38472,"lat":11.71222}},{"displayName":"Brgy. Tinigao, Kalibo, PH","country":"PH","name":"Brgy. Tinigao, Kalibo","_id":1681830,"coord":{"lon":122.366669,"lat":11.7}},{"displayName":"Bria, CF","country":"CF","name":"Bria","_id":239899,"coord":{"lon":21.98633,"lat":6.54233}},{"displayName":"Briaglia, IT","country":"IT","name":"Briaglia","_id":6534351,"coord":{"lon":7.87574,"lat":44.395828}},{"displayName":"Briagolong, AU","country":"AU","name":"Briagolong","_id":2174114,"coord":{"lon":147.066666,"lat":-37.849998}},{"displayName":"Briancon, FR","country":"FR","name":"Briancon","_id":3030142,"coord":{"lon":6.65,"lat":44.900002}},{"displayName":"Briar, US","country":"US","name":"Briar","_id":4676266,"coord":{"lon":-97.542801,"lat":32.995121}},{"displayName":"Briarcliff Manor, US","country":"US","name":"Briarcliff Manor","_id":5110108,"coord":{"lon":-73.823753,"lat":41.145649}},{"displayName":"Briarcliff, US","country":"US","name":"Briarcliff","_id":4676287,"coord":{"lon":-98.044456,"lat":30.407419}},{"displayName":"Briare, FR","country":"FR","name":"Briare","_id":3030132,"coord":{"lon":2.7438,"lat":47.63343}},{"displayName":"Briatexte, FR","country":"FR","name":"Briatexte","_id":3030127,"coord":{"lon":1.90879,"lat":43.752369}},{"displayName":"Briatico, IT","country":"IT","name":"Briatico","_id":2525501,"coord":{"lon":16.0329,"lat":38.725979}},{"displayName":"Bribir, HR","country":"HR","name":"Bribir","_id":3203315,"coord":{"lon":14.76472,"lat":45.16111}},{"displayName":"Brice Lane Colonia, US","country":"US","name":"Brice Lane Colonia","_id":4676302,"coord":{"lon":-99.781448,"lat":29.202181}},{"displayName":"Brice Prairie, US","country":"US","name":"Brice Prairie","_id":5246709,"coord":{"lon":-91.299858,"lat":43.938568}},{"displayName":"Briceni, MD","country":"MD","name":"Briceni","_id":618512,"coord":{"lon":27.703609,"lat":48.35722}},{"displayName":"Briceni, MD","country":"MD","name":"Briceni","_id":618510,"coord":{"lon":27.084999,"lat":48.362782}},{"displayName":"Briceno, CO","country":"CO","name":"Briceno","_id":3688499,"coord":{"lon":-75.551521,"lat":7.11096}},{"displayName":"Brices Creek, US","country":"US","name":"Brices Creek","_id":4457089,"coord":{"lon":-77.08773,"lat":35.055988}},{"displayName":"Bricherasio, IT","country":"IT","name":"Bricherasio","_id":3181539,"coord":{"lon":7.30542,"lat":44.82354}},{"displayName":"Bricia, ES","country":"ES","name":"Bricia","_id":3127636,"coord":{"lon":-3.81939,"lat":42.915051}},{"displayName":"Brickdale Estates, US","country":"US","name":"Brickdale Estates","_id":4051742,"coord":{"lon":-86.362747,"lat":32.361809}},{"displayName":"Brickeln, DE","country":"DE","name":"Brickeln","_id":6551304,"coord":{"lon":9.23333,"lat":54.016701}},{"displayName":"Brickeln, DE","country":"DE","name":"Brickeln","_id":2944149,"coord":{"lon":9.23333,"lat":54.01667}},{"displayName":"Brickerville, US","country":"US","name":"Brickerville","_id":5181605,"coord":{"lon":-76.30246,"lat":40.225929}},{"displayName":"Brickfield, TT","country":"TT","name":"Brickfield","_id":3574928,"coord":{"lon":-61.466671,"lat":10.48333}},{"displayName":"Brickhaven, US","country":"US","name":"Brickhaven","_id":4457102,"coord":{"lon":-79.028908,"lat":35.574879}},{"displayName":"Bricquebec, FR","country":"FR","name":"Bricquebec","_id":6449496,"coord":{"lon":-1.63333,"lat":49.466671}},{"displayName":"Bricquebec, FR","country":"FR","name":"Bricquebec","_id":3030120,"coord":{"lon":-1.63254,"lat":49.470081}},{"displayName":"Bricqueville-la-Blouette, FR","country":"FR","name":"Bricqueville-la-Blouette","_id":6449498,"coord":{"lon":-1.48333,"lat":49.033329}},{"displayName":"Bricqueville-la-Blouette, FR","country":"FR","name":"Bricqueville-la-Blouette","_id":3030117,"coord":{"lon":-1.47903,"lat":49.033932}},{"displayName":"Bricqueville-sur-Mer, FR","country":"FR","name":"Bricqueville-sur-Mer","_id":6449499,"coord":{"lon":-1.51667,"lat":48.916672}},{"displayName":"Bricqueville-sur-Mer, FR","country":"FR","name":"Bricqueville-sur-Mer","_id":3030116,"coord":{"lon":-1.52101,"lat":48.913311}},{"displayName":"Bricy, FR","country":"FR","name":"Bricy","_id":3030114,"coord":{"lon":1.77937,"lat":47.998459}},{"displayName":"Bride, IM","country":"IM","name":"Bride","_id":3042259,"coord":{"lon":-4.38921,"lat":54.382561}},{"displayName":"Bridegman Downs, AU","country":"AU","name":"Bridegman Downs","_id":6945028,"coord":{"lon":152.994324,"lat":-27.355379}},{"displayName":"Bridel, LU","country":"LU","name":"Bridel","_id":2960720,"coord":{"lon":6.08222,"lat":49.658329}},{"displayName":"Bridge City, US","country":"US","name":"Bridge City","_id":4317864,"coord":{"lon":-90.170067,"lat":29.93326}},{"displayName":"Bridge City, US","country":"US","name":"Bridge City","_id":4676316,"coord":{"lon":-93.845734,"lat":30.020769}},{"displayName":"Bridge Lake, CA","country":"CA","name":"Bridge Lake","_id":5908672,"coord":{"lon":-120.719276,"lat":51.483131}},{"displayName":"Bridge of Allan, GB","country":"GB","name":"Bridge of Allan","_id":2654747,"coord":{"lon":-3.94631,"lat":56.154018}},{"displayName":"Bridge of Earn, GB","country":"GB","name":"Bridge of Earn","_id":2654742,"coord":{"lon":-3.4065,"lat":56.348419}},{"displayName":"Bridge of Lossie, GB","country":"GB","name":"Bridge of Lossie","_id":2654739,"coord":{"lon":-3.46667,"lat":57.549999}},{"displayName":"Bridge of Weir, GB","country":"GB","name":"Bridge of Weir","_id":2654736,"coord":{"lon":-4.58333,"lat":55.849998}},{"displayName":"Bridgehampton, US","country":"US","name":"Bridgehampton","_id":5110130,"coord":{"lon":-72.300919,"lat":40.937881}},{"displayName":"Bridgeland, IE","country":"IE","name":"Bridgeland","_id":2966000,"coord":{"lon":-6.49194,"lat":52.811668}},{"displayName":"Bridgend county borough, GB","country":"GB","name":"Bridgend county borough","_id":3333239,"coord":{"lon":-3.58333,"lat":51.549999}},{"displayName":"Bridgend, GB","country":"GB","name":"Bridgend","_id":2654755,"coord":{"lon":-3.57722,"lat":51.505829}},{"displayName":"Bridgenorth, AU","country":"AU","name":"Bridgenorth","_id":2174084,"coord":{"lon":146.983337,"lat":-41.383331}},{"displayName":"Bridgeport, CA","country":"CA","name":"Bridgeport","_id":5908691,"coord":{"lon":-80.482986,"lat":43.483398}},{"displayName":"Bridgeport, US","country":"US","name":"Bridgeport","_id":4254942,"coord":{"lon":-86.317207,"lat":39.732269}},{"displayName":"Bridgeport, US","country":"US","name":"Bridgeport","_id":5282804,"coord":{"lon":-73.204826,"lat":41.167042}},{"displayName":"Bridgeport, US","country":"US","name":"Bridgeport","_id":4051774,"coord":{"lon":-85.714417,"lat":34.947578}},{"displayName":"Bridgeport, US","country":"US","name":"Bridgeport","_id":4234416,"coord":{"lon":-87.760033,"lat":38.705879}},{"displayName":"Bridgeport, US","country":"US","name":"Bridgeport","_id":4676327,"coord":{"lon":-97.754761,"lat":33.210121}},{"displayName":"Bridgeport, US","country":"US","name":"Bridgeport","_id":4800081,"coord":{"lon":-80.256203,"lat":39.28648}},{"displayName":"Bridgeport, US","country":"US","name":"Bridgeport","_id":4986963,"coord":{"lon":-83.881638,"lat":43.35947}},{"displayName":"Bridgeport, US","country":"US","name":"Bridgeport","_id":5110132,"coord":{"lon":-75.96936,"lat":43.15535}},{"displayName":"Bridgeport, US","country":"US","name":"Bridgeport","_id":5110133,"coord":{"lon":-76.752449,"lat":42.915901}},{"displayName":"Bridgeport, US","country":"US","name":"Bridgeport","_id":5148192,"coord":{"lon":-80.740082,"lat":40.06979}},{"displayName":"Bridgeport, US","country":"US","name":"Bridgeport","_id":5181624,"coord":{"lon":-75.345177,"lat":40.10511}},{"displayName":"Bridgeport, US","country":"US","name":"Bridgeport","_id":5330736,"coord":{"lon":-119.23127,"lat":38.255749}},{"displayName":"Bridgeport, US","country":"US","name":"Bridgeport","_id":5693833,"coord":{"lon":-103.099098,"lat":41.665249}},{"displayName":"Bridgeport, US","country":"US","name":"Bridgeport","_id":5788111,"coord":{"lon":-119.671158,"lat":48.008202}},{"displayName":"Bridgeton Terrace, US","country":"US","name":"Bridgeton Terrace","_id":4378392,"coord":{"lon":-90.386513,"lat":38.746441}},{"displayName":"Bridgeton, US","country":"US","name":"Bridgeton","_id":4500942,"coord":{"lon":-75.234077,"lat":39.427341}},{"displayName":"Bridgeton, US","country":"US","name":"Bridgeton","_id":4378391,"coord":{"lon":-90.411507,"lat":38.766998}},{"displayName":"Bridgetown, AU","country":"AU","name":"Bridgetown","_id":2075807,"coord":{"lon":116.133331,"lat":-33.950001}},{"displayName":"Bridgetown, BB","country":"BB","name":"Bridgetown","_id":3374036,"coord":{"lon":-59.616669,"lat":13.1}},{"displayName":"Bridgetown, US","country":"US","name":"Bridgetown","_id":4507067,"coord":{"lon":-84.637169,"lat":39.153111}},{"displayName":"Bridgetown-Greenbushes, AU","country":"AU","name":"Bridgetown-Greenbushes","_id":7839474,"coord":{"lon":116.225021,"lat":-33.99234}},{"displayName":"Bridgeview, US","country":"US","name":"Bridgeview","_id":4885573,"coord":{"lon":-87.804222,"lat":41.750031}},{"displayName":"Bridgeville, US","country":"US","name":"Bridgeville","_id":4141632,"coord":{"lon":-75.60437,"lat":38.742611}},{"displayName":"Bridgeville, US","country":"US","name":"Bridgeville","_id":5181636,"coord":{"lon":-80.110062,"lat":40.356178}},{"displayName":"Bridgewater Corners, US","country":"US","name":"Bridgewater Corners","_id":5234158,"coord":{"lon":-72.65593,"lat":43.588402}},{"displayName":"Bridgewater, AU","country":"AU","name":"Bridgewater","_id":2075806,"coord":{"lon":138.75,"lat":-35.0}},{"displayName":"Bridgewater, AU","country":"AU","name":"Bridgewater","_id":2174079,"coord":{"lon":147.233337,"lat":-42.73333}},{"displayName":"Bridgewater, CA","country":"CA","name":"Bridgewater","_id":5908723,"coord":{"lon":-64.515457,"lat":44.38345}},{"displayName":"Bridgewater, US","country":"US","name":"Bridgewater","_id":4748925,"coord":{"lon":-78.9767,"lat":38.382069}},{"displayName":"Bridgewater, US","country":"US","name":"Bridgewater","_id":4931303,"coord":{"lon":-70.975037,"lat":41.990379}},{"displayName":"Bridgewater, US","country":"US","name":"Bridgewater","_id":5083803,"coord":{"lon":-71.736473,"lat":43.638409}},{"displayName":"Bridgewater-on-Loddon, AU","country":"AU","name":"Bridgewater-on-Loddon","_id":2174074,"coord":{"lon":143.949997,"lat":-36.599998}},{"displayName":"Bridgman, AU","country":"AU","name":"Bridgman","_id":2174073,"coord":{"lon":151.166672,"lat":-32.450001}},{"displayName":"Bridgman, US","country":"US","name":"Bridgman","_id":4986977,"coord":{"lon":-86.556969,"lat":41.9431}},{"displayName":"Bridgnorth, GB","country":"GB","name":"Bridgnorth","_id":2654731,"coord":{"lon":-2.42033,"lat":52.53661}},{"displayName":"Bridgton, US","country":"US","name":"Bridgton","_id":4959279,"coord":{"lon":-70.712837,"lat":44.05479}},{"displayName":"Bridgwater, GB","country":"GB","name":"Bridgwater","_id":2654730,"coord":{"lon":-3.00356,"lat":51.128368}},{"displayName":"Bridlicna, CZ","country":"CZ","name":"Bridlicna","_id":3078648,"coord":{"lon":17.371071,"lat":49.911671}},{"displayName":"Bridlington, GB","country":"GB","name":"Bridlington","_id":7300469,"coord":{"lon":-0.19542,"lat":54.094711}},{"displayName":"Bridlington, GB","country":"GB","name":"Bridlington","_id":2654728,"coord":{"lon":-0.19192,"lat":54.083061}},{"displayName":"Bridport, AU","country":"AU","name":"Bridport","_id":2174066,"coord":{"lon":147.399994,"lat":-41.0}},{"displayName":"Bridport, GB","country":"GB","name":"Bridport","_id":2654726,"coord":{"lon":-2.75831,"lat":50.733799}},{"displayName":"Brie, FR","country":"FR","name":"Brie","_id":6615967,"coord":{"lon":0.242,"lat":45.737999}},{"displayName":"Brie, FR","country":"FR","name":"Brie","_id":3030108,"coord":{"lon":0.24106,"lat":45.738041}},{"displayName":"Brie, IT","country":"IT","name":"Brie","_id":3181538,"coord":{"lon":11.48333,"lat":46.48333}},{"displayName":"Brie-Comte-Robert, FR","country":"FR","name":"Brie-Comte-Robert","_id":6613907,"coord":{"lon":2.61667,"lat":48.683331}},{"displayName":"Brie-Comte-Robert, FR","country":"FR","name":"Brie-Comte-Robert","_id":3030101,"coord":{"lon":2.61667,"lat":48.683331}},{"displayName":"Brie-et-Angonnes, FR","country":"FR","name":"Brie-et-Angonnes","_id":3030100,"coord":{"lon":5.78374,"lat":45.12418}},{"displayName":"Briec, FR","country":"FR","name":"Briec","_id":3030102,"coord":{"lon":-3.99833,"lat":48.101669}},{"displayName":"Briedel, DE","country":"DE","name":"Briedel","_id":6553665,"coord":{"lon":7.15,"lat":50.016701}},{"displayName":"Briedel, DE","country":"DE","name":"Briedel","_id":2944146,"coord":{"lon":7.15,"lat":50.01667}},{"displayName":"Brieden, DE","country":"DE","name":"Brieden","_id":6553666,"coord":{"lon":7.26667,"lat":50.1833}},{"displayName":"Brieden, DE","country":"DE","name":"Brieden","_id":2944143,"coord":{"lon":7.26667,"lat":50.183331}},{"displayName":"Briedern, DE","country":"DE","name":"Briedern","_id":6553667,"coord":{"lon":7.2,"lat":50.099998}},{"displayName":"Briedern, DE","country":"DE","name":"Briedern","_id":2944142,"coord":{"lon":7.2,"lat":50.099998}},{"displayName":"Brielle, NL","country":"NL","name":"Brielle","_id":2758326,"coord":{"lon":4.1625,"lat":51.901669}},{"displayName":"Brielle, US","country":"US","name":"Brielle","_id":5095960,"coord":{"lon":-74.056534,"lat":40.107891}},{"displayName":"Brielow, DE","country":"DE","name":"Brielow","_id":2944135,"coord":{"lon":12.55,"lat":52.466671}},{"displayName":"Brienne-la-Vieille, FR","country":"FR","name":"Brienne-la-Vieille","_id":6446945,"coord":{"lon":4.53333,"lat":48.366669}},{"displayName":"Brienne-la-Vieille, FR","country":"FR","name":"Brienne-la-Vieille","_id":3030094,"coord":{"lon":4.52911,"lat":48.374149}},{"displayName":"Brienne-le-Chateau, FR","country":"FR","name":"Brienne-le-Chateau","_id":3030093,"coord":{"lon":4.52637,"lat":48.393188}},{"displayName":"Brienno, IT","country":"IT","name":"Brienno","_id":3181536,"coord":{"lon":9.13024,"lat":45.90918}},{"displayName":"Briennon, FR","country":"FR","name":"Briennon","_id":3030091,"coord":{"lon":4.0872,"lat":46.150242}},{"displayName":"Brienon-sur-Armancon, FR","country":"FR","name":"Brienon-sur-Armancon","_id":3030090,"coord":{"lon":3.61628,"lat":47.990101}},{"displayName":"Brienz, CH","country":"CH","name":"Brienz","_id":2661398,"coord":{"lon":8.03847,"lat":46.754501}},{"displayName":"Brienza, IT","country":"IT","name":"Brienza","_id":6535311,"coord":{"lon":15.62926,"lat":40.477509}},{"displayName":"Brienzwiler, CH","country":"CH","name":"Brienzwiler","_id":7285334,"coord":{"lon":8.09466,"lat":46.730339}},{"displayName":"Brienzwiler, CH","country":"CH","name":"Brienzwiler","_id":2661395,"coord":{"lon":8.10139,"lat":46.750839}},{"displayName":"Brier, US","country":"US","name":"Brier","_id":5788125,"coord":{"lon":-122.274292,"lat":47.784538}},{"displayName":"Briercrest, CA","country":"CA","name":"Briercrest","_id":5908749,"coord":{"lon":-105.26783,"lat":50.166771}},{"displayName":"Brierfield, AU","country":"AU","name":"Brierfield","_id":2174064,"coord":{"lon":152.899994,"lat":-30.5}},{"displayName":"Brierfield, GB","country":"GB","name":"Brierfield","_id":2654725,"coord":{"lon":-2.23415,"lat":53.82468}},{"displayName":"Brierley Hill, GB","country":"GB","name":"Brierley Hill","_id":2654724,"coord":{"lon":-2.12139,"lat":52.481731}},{"displayName":"Brierwood, US","country":"US","name":"Brierwood","_id":4800099,"coord":{"lon":-81.43679,"lat":39.336739}},{"displayName":"Brieselang, DE","country":"DE","name":"Brieselang","_id":6547589,"coord":{"lon":13.0,"lat":52.583302}},{"displayName":"Brieselang, DE","country":"DE","name":"Brieselang","_id":2944126,"coord":{"lon":13.0,"lat":52.583328}},{"displayName":"Briesen, DE","country":"DE","name":"Briesen","_id":2944121,"coord":{"lon":14.28333,"lat":52.333328}},{"displayName":"Briesen, DE","country":"DE","name":"Briesen","_id":6547702,"coord":{"lon":14.24429,"lat":51.816521}},{"displayName":"Briesen, DE","country":"DE","name":"Briesen","_id":2944123,"coord":{"lon":14.2442,"lat":51.81554}},{"displayName":"Brieskow-Finkenheerd, DE","country":"DE","name":"Brieskow-Finkenheerd","_id":6547640,"coord":{"lon":14.56993,"lat":52.252289}},{"displayName":"Brieskow-Finkenheerd, DE","country":"DE","name":"Brieskow-Finkenheerd","_id":2944103,"coord":{"lon":14.57285,"lat":52.253868}},{"displayName":"Briest, DE","country":"DE","name":"Briest","_id":2944098,"coord":{"lon":12.43333,"lat":52.450001}},{"displayName":"Brietlingen, DE","country":"DE","name":"Brietlingen","_id":6552673,"coord":{"lon":10.45,"lat":53.333302}},{"displayName":"Brietlingen, DE","country":"DE","name":"Brietlingen","_id":2944093,"coord":{"lon":10.45,"lat":53.333328}},{"displayName":"Brieva de Cameros, ES","country":"ES","name":"Brieva de Cameros","_id":6359022,"coord":{"lon":-2.79262,"lat":42.179401}},{"displayName":"Brieva de Cameros, ES","country":"ES","name":"Brieva de Cameros","_id":3127631,"coord":{"lon":-2.7945,"lat":42.164619}},{"displayName":"Brieva, ES","country":"ES","name":"Brieva","_id":6360776,"coord":{"lon":-4.04403,"lat":41.040562}},{"displayName":"Brieva, ES","country":"ES","name":"Brieva","_id":3127633,"coord":{"lon":-4.05364,"lat":41.034828}},{"displayName":"Briey, FR","country":"FR","name":"Briey","_id":3030071,"coord":{"lon":5.93333,"lat":49.25}},{"displayName":"Brifu, GM","country":"GM","name":"Brifu","_id":2413755,"coord":{"lon":-13.93333,"lat":13.5}},{"displayName":"Brig, CH","country":"CH","name":"Brig","_id":2661394,"coord":{"lon":7.98333,"lat":46.316669}},{"displayName":"Brig-Glis, CH","country":"CH","name":"Brig-Glis","_id":7285336,"coord":{"lon":7.97926,"lat":46.288189}},{"displayName":"Briga Alta, IT","country":"IT","name":"Briga Alta","_id":6534352,"coord":{"lon":7.74944,"lat":44.082722}},{"displayName":"Briga Novarese, IT","country":"IT","name":"Briga Novarese","_id":3181535,"coord":{"lon":8.45673,"lat":45.731869}},{"displayName":"Brigalow, AU","country":"AU","name":"Brigalow","_id":2174062,"coord":{"lon":150.783325,"lat":-26.85}},{"displayName":"Brigantine, US","country":"US","name":"Brigantine","_id":4500920,"coord":{"lon":-74.364594,"lat":39.410118}},{"displayName":"Brigerbad, CH","country":"CH","name":"Brigerbad","_id":2661393,"coord":{"lon":7.91788,"lat":46.299858}},{"displayName":"Brigg, GB","country":"GB","name":"Brigg","_id":2654721,"coord":{"lon":-0.49214,"lat":53.55201}},{"displayName":"Briggow, DE","country":"DE","name":"Briggow","_id":6547817,"coord":{"lon":12.9833,"lat":53.616699}},{"displayName":"Briggow, DE","country":"DE","name":"Briggow","_id":2944087,"coord":{"lon":12.98333,"lat":53.616669}},{"displayName":"Brigham City, US","country":"US","name":"Brigham City","_id":5771960,"coord":{"lon":-112.015503,"lat":41.510208}},{"displayName":"Brighouse, GB","country":"GB","name":"Brighouse","_id":2654715,"coord":{"lon":-1.78428,"lat":53.70322}},{"displayName":"Bright Hill Crescent, SG","country":"SG","name":"Bright Hill Crescent","_id":1880755,"coord":{"lon":103.833328,"lat":1.35}},{"displayName":"Bright, AU","country":"AU","name":"Bright","_id":2174041,"coord":{"lon":146.966675,"lat":-36.75}},{"displayName":"Bright, CA","country":"CA","name":"Bright","_id":6943600,"coord":{"lon":-67.096939,"lat":46.178879}},{"displayName":"Bright, US","country":"US","name":"Bright","_id":4254944,"coord":{"lon":-84.856056,"lat":39.218391}},{"displayName":"Brightlingsea, GB","country":"GB","name":"Brightlingsea","_id":2654711,"coord":{"lon":1.02336,"lat":51.811642}},{"displayName":"Brighton Beach, ZA","country":"ZA","name":"Brighton Beach","_id":1015657,"coord":{"lon":31.0009,"lat":-29.939569}},{"displayName":"Brighton East, AU","country":"AU","name":"Brighton East","_id":7932646,"coord":{"lon":145.018845,"lat":-37.901409}},{"displayName":"Brighton, AU","country":"AU","name":"Brighton","_id":7839351,"coord":{"lon":147.242325,"lat":-42.72673}},{"displayName":"Brighton, AU","country":"AU","name":"Brighton","_id":2075795,"coord":{"lon":138.516663,"lat":-35.01667}},{"displayName":"Brighton, AU","country":"AU","name":"Brighton","_id":2174040,"coord":{"lon":153.057205,"lat":-27.29582}},{"displayName":"Brighton, CA","country":"CA","name":"Brighton","_id":5908835,"coord":{"lon":-77.732788,"lat":44.033421}},{"displayName":"Brighton, GB","country":"GB","name":"Brighton","_id":2654710,"coord":{"lon":-0.13947,"lat":50.828381}},{"displayName":"Brighton, MY","country":"MY","name":"Brighton","_id":1778677,"coord":{"lon":113.966667,"lat":4.38333}},{"displayName":"Brighton, US","country":"US","name":"Brighton","_id":5110159,"coord":{"lon":-77.550552,"lat":43.14756}},{"displayName":"Brighton, US","country":"US","name":"Brighton","_id":5414941,"coord":{"lon":-104.820534,"lat":39.98526}},{"displayName":"Brighton, US","country":"US","name":"Brighton","_id":4047198,"coord":{"lon":-86.947212,"lat":33.43428}},{"displayName":"Brighton, US","country":"US","name":"Brighton","_id":4234436,"coord":{"lon":-90.140663,"lat":39.039768}},{"displayName":"Brighton, US","country":"US","name":"Brighton","_id":4608615,"coord":{"lon":-86.439163,"lat":35.08009}},{"displayName":"Brighton, US","country":"US","name":"Brighton","_id":4608616,"coord":{"lon":-89.725082,"lat":35.483971}},{"displayName":"Brighton, US","country":"US","name":"Brighton","_id":4986994,"coord":{"lon":-83.78022,"lat":42.52948}},{"displayName":"Brighton-Le-Sands, AU","country":"AU","name":"Brighton-Le-Sands","_id":2205999,"coord":{"lon":151.149994,"lat":-33.950001}},{"displayName":"Brightview, AU","country":"AU","name":"Brightview","_id":2174031,"coord":{"lon":152.483337,"lat":-27.5}},{"displayName":"Brightwater, NZ","country":"NZ","name":"Brightwater","_id":2192964,"coord":{"lon":173.116669,"lat":-41.383331}},{"displayName":"Brightwaters, US","country":"US","name":"Brightwaters","_id":5110168,"coord":{"lon":-73.267342,"lat":40.720928}},{"displayName":"Brightwood, US","country":"US","name":"Brightwood","_id":4748980,"coord":{"lon":-78.193611,"lat":38.42152}},{"displayName":"Brignais, FR","country":"FR","name":"Brignais","_id":3030063,"coord":{"lon":4.75484,"lat":45.67358}},{"displayName":"Brignall, GB","country":"GB","name":"Brignall","_id":2654705,"coord":{"lon":-1.88896,"lat":54.505341}},{"displayName":"Brignano Gera dAdda, IT","country":"IT","name":"Brignano Gera dAdda","_id":3181532,"coord":{"lon":9.64766,"lat":45.546581}},{"displayName":"Brignano, IT","country":"IT","name":"Brignano","_id":3181533,"coord":{"lon":9.04026,"lat":44.812851}},{"displayName":"Brignoles, FR","country":"FR","name":"Brignoles","_id":6451464,"coord":{"lon":6.06667,"lat":43.400002}},{"displayName":"Brignoles, FR","country":"FR","name":"Brignoles","_id":3030057,"coord":{"lon":6.06667,"lat":43.400002}},{"displayName":"Brigné, FR","country":"FR","name":"Brigné","_id":6449412,"coord":{"lon":-0.38333,"lat":47.23333}},{"displayName":"Brigueuil, FR","country":"FR","name":"Brigueuil","_id":3030047,"coord":{"lon":0.86065,"lat":45.953369}},{"displayName":"Brigus, CA","country":"CA","name":"Brigus","_id":5908881,"coord":{"lon":-53.210579,"lat":47.524891}},{"displayName":"Brihuega, ES","country":"ES","name":"Brihuega","_id":6357850,"coord":{"lon":-2.8357,"lat":40.744099}},{"displayName":"Brihuega, ES","country":"ES","name":"Brihuega","_id":3127628,"coord":{"lon":-2.86966,"lat":40.76049}},{"displayName":"Briis-sous-Forges, FR","country":"FR","name":"Briis-sous-Forges","_id":3030044,"coord":{"lon":2.12112,"lat":48.623989}},{"displayName":"Brijest, HR","country":"HR","name":"Brijest","_id":3315388,"coord":{"lon":18.67194,"lat":45.520561}},{"displayName":"Brikama Nding, GM","country":"GM","name":"Brikama Nding","_id":2413746,"coord":{"lon":-14.93333,"lat":13.53333}},{"displayName":"Brikama, GM","country":"GM","name":"Brikama","_id":2413753,"coord":{"lon":-16.649441,"lat":13.27136}},{"displayName":"Brikcha, MA","country":"MA","name":"Brikcha","_id":2553694,"coord":{"lon":-5.57295,"lat":34.967319}},{"displayName":"Brili, BY","country":"BY","name":"Brili","_id":629625,"coord":{"lon":30.561111,"lat":54.523056}},{"displayName":"Brilliant, US","country":"US","name":"Brilliant","_id":5148226,"coord":{"lon":-80.62619,"lat":40.26479}},{"displayName":"Brillion, US","country":"US","name":"Brillion","_id":5246766,"coord":{"lon":-88.06427,"lat":44.177212}},{"displayName":"Brilon, DE","country":"DE","name":"Brilon","_id":2944079,"coord":{"lon":8.58333,"lat":51.400002}},{"displayName":"Brilyakovo, RU","country":"RU","name":"Brilyakovo","_id":571613,"coord":{"lon":43.633331,"lat":56.849998}},{"displayName":"Brim, AU","country":"AU","name":"Brim","_id":2174028,"coord":{"lon":142.416672,"lat":-36.083328}},{"displayName":"Brimbank, AU","country":"AU","name":"Brimbank","_id":7839533,"coord":{"lon":144.816437,"lat":-37.74287}},{"displayName":"Brime de Sog, ES","country":"ES","name":"Brime de Sog","_id":6362474,"coord":{"lon":-6.05042,"lat":42.060692}},{"displayName":"Brime de Sog, ES","country":"ES","name":"Brime de Sog","_id":3127626,"coord":{"lon":-6.04791,"lat":42.061619}},{"displayName":"Brime de Urz, ES","country":"ES","name":"Brime de Urz","_id":6362475,"coord":{"lon":-5.8713,"lat":42.04277}},{"displayName":"Brime de Urz, ES","country":"ES","name":"Brime de Urz","_id":3127625,"coord":{"lon":-5.87326,"lat":42.037941}},{"displayName":"Brimfield, US","country":"US","name":"Brimfield","_id":4931363,"coord":{"lon":-72.200912,"lat":42.122871}},{"displayName":"Brimfield, US","country":"US","name":"Brimfield","_id":5148230,"coord":{"lon":-81.346497,"lat":41.10006}},{"displayName":"Brimin, AU","country":"AU","name":"Brimin","_id":2174023,"coord":{"lon":146.233337,"lat":-36.049999}},{"displayName":"Brimingen, DE","country":"DE","name":"Brimingen","_id":6554411,"coord":{"lon":6.36667,"lat":49.966702}},{"displayName":"Brimingen, DE","country":"DE","name":"Brimingen","_id":2944076,"coord":{"lon":6.36366,"lat":49.969719}},{"displayName":"Brimpaen, AU","country":"AU","name":"Brimpaen","_id":2174022,"coord":{"lon":142.199997,"lat":-37.033329}},{"displayName":"Brimscombe, GB","country":"GB","name":"Brimscombe","_id":2654695,"coord":{"lon":-2.18553,"lat":51.71973}},{"displayName":"Brinas, ES","country":"ES","name":"Brinas","_id":3127623,"coord":{"lon":-2.83192,"lat":42.601059}},{"displayName":"Brinckerhoff, US","country":"US","name":"Brinckerhoff","_id":5110176,"coord":{"lon":-73.868187,"lat":41.54398}},{"displayName":"Brincliffe, GB","country":"GB","name":"Brincliffe","_id":6930756,"coord":{"lon":-1.50458,"lat":53.363468}},{"displayName":"Brincones, ES","country":"ES","name":"Brincones","_id":6360312,"coord":{"lon":-6.34659,"lat":41.114529}},{"displayName":"Brincones, ES","country":"ES","name":"Brincones","_id":3127621,"coord":{"lon":-6.34865,"lat":41.1134}},{"displayName":"Brindabella, AU","country":"AU","name":"Brindabella","_id":2174020,"coord":{"lon":148.733337,"lat":-35.400002}},{"displayName":"Brindas, FR","country":"FR","name":"Brindas","_id":3030029,"coord":{"lon":4.68973,"lat":45.721809}},{"displayName":"Brindisi di Montagna, IT","country":"IT","name":"Brindisi di Montagna","_id":3181524,"coord":{"lon":15.93977,"lat":40.60952}},{"displayName":"Brindisi, IT","country":"IT","name":"Brindisi","_id":6540109,"coord":{"lon":17.936819,"lat":40.627731}},{"displayName":"Brindisi, IT","country":"IT","name":"Brindisi","_id":3181528,"coord":{"lon":17.936819,"lat":40.627731}},{"displayName":"Brindle Crossing, CA","country":"CA","name":"Brindle Crossing","_id":5908935,"coord":{"lon":-77.332771,"lat":45.933418}},{"displayName":"Brindletown, US","country":"US","name":"Brindletown","_id":5095971,"coord":{"lon":-74.50515,"lat":40.04734}},{"displayName":"Bringalbert South, AU","country":"AU","name":"Bringalbert South","_id":2174008,"coord":{"lon":141.166672,"lat":-36.849998}},{"displayName":"Bringelly, AU","country":"AU","name":"Bringelly","_id":2174006,"coord":{"lon":150.733337,"lat":-33.933331}},{"displayName":"Bringin, ID","country":"ID","name":"Bringin","_id":6777301,"coord":{"lon":111.903503,"lat":-7.0055}},{"displayName":"Brinjahe, DE","country":"DE","name":"Brinjahe","_id":6551817,"coord":{"lon":9.63333,"lat":54.166698}},{"displayName":"Brinjahe, DE","country":"DE","name":"Brinjahe","_id":2944071,"coord":{"lon":9.63333,"lat":54.166672}},{"displayName":"Brinje, HR","country":"HR","name":"Brinje","_id":3203298,"coord":{"lon":15.13389,"lat":45.002499}},{"displayName":"Brink, DE","country":"DE","name":"Brink","_id":2944057,"coord":{"lon":8.2,"lat":53.25}},{"displayName":"Brink, DE","country":"DE","name":"Brink","_id":2944067,"coord":{"lon":7.73952,"lat":51.637089}},{"displayName":"Brink, DE","country":"DE","name":"Brink","_id":2944061,"coord":{"lon":9.73333,"lat":52.433331}},{"displayName":"Brinkley, US","country":"US","name":"Brinkley","_id":4103042,"coord":{"lon":-91.194572,"lat":34.887871}},{"displayName":"Brinkmann, AR","country":"AR","name":"Brinkmann","_id":3863833,"coord":{"lon":-62.037418,"lat":-30.8659}},{"displayName":"Brinkum, DE","country":"DE","name":"Brinkum","_id":6552948,"coord":{"lon":7.56667,"lat":53.266701}},{"displayName":"Brinkum, DE","country":"DE","name":"Brinkum","_id":2944038,"coord":{"lon":7.56667,"lat":53.26667}},{"displayName":"Brinkworth, AU","country":"AU","name":"Brinkworth","_id":2075780,"coord":{"lon":138.399994,"lat":-33.700001}},{"displayName":"Brink’s Vlakfontein, ZA","country":"ZA","name":"Brink’s Vlakfontein","_id":1015633,"coord":{"lon":27.799999,"lat":-26.183331}},{"displayName":"Brinnis, DE","country":"DE","name":"Brinnis","_id":2944037,"coord":{"lon":12.44081,"lat":51.517719}},{"displayName":"Brinon-sur-Sauldre, FR","country":"FR","name":"Brinon-sur-Sauldre","_id":3030024,"coord":{"lon":2.25647,"lat":47.566002}},{"displayName":"Brinsworth, GB","country":"GB","name":"Brinsworth","_id":7301041,"coord":{"lon":-1.36396,"lat":53.40168}},{"displayName":"Brinzio, IT","country":"IT","name":"Brinzio","_id":3181523,"coord":{"lon":8.78963,"lat":45.889381}},{"displayName":"Briollay, FR","country":"FR","name":"Briollay","_id":3030020,"coord":{"lon":-0.50681,"lat":47.564781}},{"displayName":"Brion, ES","country":"ES","name":"Brion","_id":3127619,"coord":{"lon":-8.88333,"lat":42.650002}},{"displayName":"Brion, FR","country":"FR","name":"Brion","_id":3030011,"coord":{"lon":-0.15616,"lat":47.441219}},{"displayName":"Briona, IT","country":"IT","name":"Briona","_id":6535285,"coord":{"lon":8.47973,"lat":45.542469}},{"displayName":"Brione, IT","country":"IT","name":"Brione","_id":6534523,"coord":{"lon":10.14846,"lat":45.642281}},{"displayName":"Brione, IT","country":"IT","name":"Brione","_id":6534621,"coord":{"lon":10.58977,"lat":45.895191}},{"displayName":"Briones, ES","country":"ES","name":"Briones","_id":6359024,"coord":{"lon":-2.78598,"lat":42.524071}},{"displayName":"Briones, ES","country":"ES","name":"Briones","_id":3127614,"coord":{"lon":-2.78572,"lat":42.543968}},{"displayName":"Brionne, FR","country":"FR","name":"Brionne","_id":3030007,"coord":{"lon":0.7151,"lat":49.19553}},{"displayName":"Briosco, IT","country":"IT","name":"Briosco","_id":6534935,"coord":{"lon":9.24064,"lat":45.710079}},{"displayName":"Brioude, FR","country":"FR","name":"Brioude","_id":6455113,"coord":{"lon":3.4,"lat":45.299999}},{"displayName":"Brioude, FR","country":"FR","name":"Brioude","_id":3029995,"coord":{"lon":3.4,"lat":45.299999}},{"displayName":"Brioux-sur-Boutonne, FR","country":"FR","name":"Brioux-sur-Boutonne","_id":3029992,"coord":{"lon":-0.22182,"lat":46.141708}},{"displayName":"Briouze, FR","country":"FR","name":"Briouze","_id":6455206,"coord":{"lon":-0.36806,"lat":48.698479}},{"displayName":"Briouze, FR","country":"FR","name":"Briouze","_id":3029991,"coord":{"lon":-0.36806,"lat":48.698479}},{"displayName":"Brisas del Sol, CL","country":"CL","name":"Brisas del Sol","_id":6693593,"coord":{"lon":-73.077957,"lat":-36.773891}},{"displayName":"Brisbane, AU","country":"AU","name":"Brisbane","_id":7839562,"coord":{"lon":153.029938,"lat":-27.44573}},{"displayName":"Brisbane, AU","country":"AU","name":"Brisbane","_id":2174003,"coord":{"lon":153.028091,"lat":-27.467939}},{"displayName":"Brisbane, US","country":"US","name":"Brisbane","_id":5330810,"coord":{"lon":-122.399971,"lat":37.680771}},{"displayName":"Briscous, FR","country":"FR","name":"Briscous","_id":6454502,"coord":{"lon":-1.33333,"lat":43.466671}},{"displayName":"Briscous, FR","country":"FR","name":"Briscous","_id":3029987,"coord":{"lon":-1.33353,"lat":43.459579}},{"displayName":"Brisee Verdiere, MU","country":"MU","name":"Brisee Verdiere","_id":934677,"coord":{"lon":57.646671,"lat":-20.163891}},{"displayName":"Brisenas, MX","country":"MX","name":"Brisenas","_id":4016756,"coord":{"lon":-102.566673,"lat":20.26667}},{"displayName":"Brisighella, IT","country":"IT","name":"Brisighella","_id":6538483,"coord":{"lon":11.77483,"lat":44.221661}},{"displayName":"Brisighella, IT","country":"IT","name":"Brisighella","_id":3181521,"coord":{"lon":11.77483,"lat":44.221661}},{"displayName":"Brislach, CH","country":"CH","name":"Brislach","_id":7285339,"coord":{"lon":7.54882,"lat":47.42495}},{"displayName":"Brislach, CH","country":"CH","name":"Brislach","_id":2661389,"coord":{"lon":7.5434,"lat":47.417629}},{"displayName":"Brison-Saint-Innocent, FR","country":"FR","name":"Brison-Saint-Innocent","_id":3029986,"coord":{"lon":5.89011,"lat":45.721859}},{"displayName":"Brissac-Quince, FR","country":"FR","name":"Brissac-Quince","_id":3029984,"coord":{"lon":-0.44924,"lat":47.355751}},{"displayName":"Brissago Valtravaglia, IT","country":"IT","name":"Brissago Valtravaglia","_id":3181520,"coord":{"lon":8.74613,"lat":45.948582}},{"displayName":"Brissago, CH","country":"CH","name":"Brissago","_id":7285340,"coord":{"lon":8.68588,"lat":46.12669}},{"displayName":"Brissago, CH","country":"CH","name":"Brissago","_id":2661388,"coord":{"lon":8.71181,"lat":46.120129}},{"displayName":"Brissogne, IT","country":"IT","name":"Brissogne","_id":3181519,"coord":{"lon":7.3926,"lat":45.725658}},{"displayName":"Bristol Bay Borough, US","country":"US","name":"Bristol Bay Borough","_id":5858042,"coord":{"lon":-156.833328,"lat":58.750561}},{"displayName":"Bristol County, US","country":"US","name":"Bristol County","_id":5221078,"coord":{"lon":-71.271721,"lat":41.71677}},{"displayName":"Bristol County, US","country":"US","name":"Bristol County","_id":4931378,"coord":{"lon":-71.166161,"lat":41.833431}},{"displayName":"Bristol, CA","country":"CA","name":"Bristol","_id":5908999,"coord":{"lon":-76.466103,"lat":45.533409}},{"displayName":"Bristol, GB","country":"GB","name":"Bristol","_id":2654675,"coord":{"lon":-2.59665,"lat":51.455231}},{"displayName":"Bristol, US","country":"US","name":"Bristol","_id":4918393,"coord":{"lon":-85.81749,"lat":41.721439}},{"displayName":"Bristol, US","country":"US","name":"Bristol","_id":4608657,"coord":{"lon":-82.188744,"lat":36.595112}},{"displayName":"Bristol, US","country":"US","name":"Bristol","_id":4748993,"coord":{"lon":-82.188469,"lat":36.596489}},{"displayName":"Bristol, US","country":"US","name":"Bristol","_id":5221077,"coord":{"lon":-71.266159,"lat":41.677052}},{"displayName":"Bristol, US","country":"US","name":"Bristol","_id":5282835,"coord":{"lon":-72.949272,"lat":41.671761}},{"displayName":"Bristol, US","country":"US","name":"Bristol","_id":4148912,"coord":{"lon":-84.975754,"lat":30.43214}},{"displayName":"Bristol, US","country":"US","name":"Bristol","_id":4959312,"coord":{"lon":-69.509209,"lat":43.957581}},{"displayName":"Bristol, US","country":"US","name":"Bristol","_id":5083812,"coord":{"lon":-71.736748,"lat":43.59119}},{"displayName":"Bristol, US","country":"US","name":"Bristol","_id":5181688,"coord":{"lon":-74.85183,"lat":40.10067}},{"displayName":"Bristol, US","country":"US","name":"Bristol","_id":5234183,"coord":{"lon":-73.07901,"lat":44.133389}},{"displayName":"Bristol, US","country":"US","name":"Bristol","_id":5246785,"coord":{"lon":-88.049248,"lat":42.55891}},{"displayName":"Briston, GB","country":"GB","name":"Briston","_id":2654673,"coord":{"lon":1.05899,"lat":52.853691}},{"displayName":"Bristow, US","country":"US","name":"Bristow","_id":4749007,"coord":{"lon":-77.536102,"lat":38.722889}},{"displayName":"Bristow, US","country":"US","name":"Bristow","_id":4531370,"coord":{"lon":-96.391121,"lat":35.830631}},{"displayName":"Britannia Beach, CA","country":"CA","name":"Britannia Beach","_id":5909028,"coord":{"lon":-123.202667,"lat":49.632969}},{"displayName":"Britannia, CA","country":"CA","name":"Britannia","_id":5909024,"coord":{"lon":-75.793747,"lat":45.3629}},{"displayName":"Britanski trg, HR","country":"HR","name":"Britanski trg","_id":6618988,"coord":{"lon":15.96497,"lat":45.81284}},{"displayName":"Brithdir and Llanfachreth, GB","country":"GB","name":"Brithdir and Llanfachreth","_id":7300637,"coord":{"lon":-3.78725,"lat":52.775219}},{"displayName":"British Columbia, CA","country":"CA","name":"British Columbia","_id":5909050,"coord":{"lon":-125.003197,"lat":53.999828}},{"displayName":"British Landing, US","country":"US","name":"British Landing","_id":4987027,"coord":{"lon":-84.64505,"lat":45.87751}},{"displayName":"British Virgin Islands, VG","country":"VG","name":"British Virgin Islands","_id":3577718,"coord":{"lon":-64.5,"lat":18.5}},{"displayName":"Brito, PT","country":"PT","name":"Brito","_id":8011176,"coord":{"lon":-8.36247,"lat":41.456039}},{"displayName":"Brito, PT","country":"PT","name":"Brito","_id":2741985,"coord":{"lon":-8.36103,"lat":41.45821}},{"displayName":"Britof, SI","country":"SI","name":"Britof","_id":3203287,"coord":{"lon":13.66667,"lat":46.0}},{"displayName":"Britof, SI","country":"SI","name":"Britof","_id":3203286,"coord":{"lon":14.39037,"lat":46.260239}},{"displayName":"Briton Ferry, GB","country":"GB","name":"Briton Ferry","_id":7299858,"coord":{"lon":-3.80663,"lat":51.634979}},{"displayName":"Briton Ferry, GB","country":"GB","name":"Briton Ferry","_id":2654668,"coord":{"lon":-3.81898,"lat":51.631062}},{"displayName":"Britovo, RU","country":"RU","name":"Britovo","_id":571601,"coord":{"lon":38.149166,"lat":55.475834}},{"displayName":"Brits, ZA","country":"ZA","name":"Brits","_id":1015621,"coord":{"lon":27.78022,"lat":-25.634729}},{"displayName":"Britstown, ZA","country":"ZA","name":"Britstown","_id":1015612,"coord":{"lon":23.50391,"lat":-30.58746}},{"displayName":"Britsum, NL","country":"NL","name":"Britsum","_id":2758309,"coord":{"lon":5.78576,"lat":53.25428}},{"displayName":"Britt, CA","country":"CA","name":"Britt","_id":5909067,"coord":{"lon":-80.559181,"lat":45.774231}},{"displayName":"Britt, US","country":"US","name":"Britt","_id":4849380,"coord":{"lon":-93.801888,"lat":43.09774}},{"displayName":"Brittany Estates Mobile Home Park, US","country":"US","name":"Brittany Estates Mobile Home Park","_id":7190617,"coord":{"lon":-82.282501,"lat":29.7003}},{"displayName":"Brittany Farms-Highlands, US","country":"US","name":"Brittany Farms-Highlands","_id":7258044,"coord":{"lon":-75.214012,"lat":40.269009}},{"displayName":"Brittas, IE","country":"IE","name":"Brittas","_id":3315247,"coord":{"lon":-6.45222,"lat":53.236938}},{"displayName":"Britten, DE","country":"DE","name":"Britten","_id":2944031,"coord":{"lon":6.67651,"lat":49.520611}},{"displayName":"Brittnau, CH","country":"CH","name":"Brittnau","_id":7285343,"coord":{"lon":7.92747,"lat":47.2547}},{"displayName":"Brittnau, CH","country":"CH","name":"Brittnau","_id":2661384,"coord":{"lon":7.94689,"lat":47.259541}},{"displayName":"Brittoli, IT","country":"IT","name":"Brittoli","_id":3181517,"coord":{"lon":13.8616,"lat":42.317341}},{"displayName":"Britton, US","country":"US","name":"Britton","_id":5226523,"coord":{"lon":-97.750938,"lat":45.791618}},{"displayName":"Britz, DE","country":"DE","name":"Britz","_id":6547546,"coord":{"lon":13.8,"lat":52.883301}},{"displayName":"Britz, DE","country":"DE","name":"Britz","_id":2944028,"coord":{"lon":13.81119,"lat":52.88726}},{"displayName":"Britânia, BR","country":"BR","name":"Britânia","_id":3468908,"coord":{"lon":-51.160561,"lat":-15.24111}},{"displayName":"Brive-la-Gaillarde, FR","country":"FR","name":"Brive-la-Gaillarde","_id":6447501,"coord":{"lon":1.53333,"lat":45.150002}},{"displayName":"Brive-la-Gaillarde, FR","country":"FR","name":"Brive-la-Gaillarde","_id":3029974,"coord":{"lon":1.53333,"lat":45.150002}},{"displayName":"Brives-Charensac, FR","country":"FR","name":"Brives-Charensac","_id":6449026,"coord":{"lon":3.92903,"lat":45.047779}},{"displayName":"Brives-Charensac, FR","country":"FR","name":"Brives-Charensac","_id":3029970,"coord":{"lon":3.92878,"lat":45.047798}},{"displayName":"Briviesca, ES","country":"ES","name":"Briviesca","_id":6356374,"coord":{"lon":-3.32483,"lat":42.530041}},{"displayName":"Briviesca, ES","country":"ES","name":"Briviesca","_id":3127611,"coord":{"lon":-3.32315,"lat":42.549931}},{"displayName":"Brivio, IT","country":"IT","name":"Brivio","_id":3181516,"coord":{"lon":9.42685,"lat":45.739182}},{"displayName":"Brix, FR","country":"FR","name":"Brix","_id":6449501,"coord":{"lon":-1.58333,"lat":49.549999}},{"displayName":"Brix, FR","country":"FR","name":"Brix","_id":3029967,"coord":{"lon":-1.58012,"lat":49.54512}},{"displayName":"Brixen im Thale, AT","country":"AT","name":"Brixen im Thale","_id":7873633,"coord":{"lon":12.25473,"lat":47.446239}},{"displayName":"Brixen im Thale, AT","country":"AT","name":"Brixen im Thale","_id":2781394,"coord":{"lon":12.25,"lat":47.450001}},{"displayName":"Brixham, GB","country":"GB","name":"Brixham","_id":7296060,"coord":{"lon":-3.51133,"lat":50.390831}},{"displayName":"Brixham, GB","country":"GB","name":"Brixham","_id":2654663,"coord":{"lon":-3.51585,"lat":50.39431}},{"displayName":"Brixlegg, AT","country":"AT","name":"Brixlegg","_id":7872564,"coord":{"lon":11.91675,"lat":47.428329}},{"displayName":"Brixlegg, AT","country":"AT","name":"Brixlegg","_id":2781391,"coord":{"lon":11.87794,"lat":47.42942}},{"displayName":"Brixton Hill, GB","country":"GB","name":"Brixton Hill","_id":6692466,"coord":{"lon":-0.123,"lat":51.452129}},{"displayName":"Brixton, GB","country":"GB","name":"Brixton","_id":6690877,"coord":{"lon":-0.10652,"lat":51.465931}},{"displayName":"Brixworth, GB","country":"GB","name":"Brixworth","_id":2654660,"coord":{"lon":-0.9035,"lat":52.329121}},{"displayName":"Briñas, ES","country":"ES","name":"Briñas","_id":6359023,"coord":{"lon":-2.8318,"lat":42.603989}},{"displayName":"Brión, ES","country":"ES","name":"Brión","_id":6357283,"coord":{"lon":-8.71734,"lat":42.851791}},{"displayName":"Brka, BA","country":"BA","name":"Brka","_id":3203280,"coord":{"lon":18.72444,"lat":44.829441}},{"displayName":"Brloh, CZ","country":"CZ","name":"Brloh","_id":3078633,"coord":{"lon":14.21857,"lat":48.929871}},{"displayName":"Brnaze, HR","country":"HR","name":"Brnaze","_id":3203262,"coord":{"lon":16.649719,"lat":43.68}},{"displayName":"Brnenec, CZ","country":"CZ","name":"Brnenec","_id":3078620,"coord":{"lon":16.52202,"lat":49.62735}},{"displayName":"Brniste, CZ","country":"CZ","name":"Brniste","_id":3078613,"coord":{"lon":14.70338,"lat":50.729191}},{"displayName":"Brno, CZ","country":"CZ","name":"Brno","_id":3078610,"coord":{"lon":16.60796,"lat":49.195221}},{"displayName":"Brníčko, CZ","country":"CZ","name":"Brníčko","_id":3078618,"coord":{"lon":17.142031,"lat":49.772511}},{"displayName":"Bro, SE","country":"SE","name":"Bro","_id":2719245,"coord":{"lon":17.633329,"lat":59.51667}},{"displayName":"Broad Blunsdon, GB","country":"GB","name":"Broad Blunsdon","_id":2654657,"coord":{"lon":-1.7787,"lat":51.613392}},{"displayName":"Broad Brook, US","country":"US","name":"Broad Brook","_id":5282868,"coord":{"lon":-72.54509,"lat":41.912319}},{"displayName":"Broad Creek, US","country":"US","name":"Broad Creek","_id":4457289,"coord":{"lon":-76.936333,"lat":34.720718}},{"displayName":"Broadalbin, US","country":"US","name":"Broadalbin","_id":5110211,"coord":{"lon":-74.196518,"lat":43.058681}},{"displayName":"Broadbeach, AU","country":"AU","name":"Broadbeach","_id":2173977,"coord":{"lon":153.433426,"lat":-28.027821}},{"displayName":"Broadfield, GB","country":"GB","name":"Broadfield","_id":6621545,"coord":{"lon":-0.20664,"lat":51.097141}},{"displayName":"Broadford, AU","country":"AU","name":"Broadford","_id":2173976,"coord":{"lon":145.066666,"lat":-37.200001}},{"displayName":"Broadford, IE","country":"IE","name":"Broadford","_id":2965980,"coord":{"lon":-8.63222,"lat":52.804722}},{"displayName":"Broadland, GB","country":"GB","name":"Broadland","_id":2654645,"coord":{"lon":1.5,"lat":52.666672}},{"displayName":"Broadlands, US","country":"US","name":"Broadlands","_id":4749103,"coord":{"lon":-77.520271,"lat":39.018162}},{"displayName":"Broadmarsh, AU","country":"AU","name":"Broadmarsh","_id":2173970,"coord":{"lon":147.116669,"lat":-42.650002}},{"displayName":"Broadmeadows, AU","country":"AU","name":"Broadmeadows","_id":2173964,"coord":{"lon":144.918777,"lat":-37.680149}},{"displayName":"Broadmoor, US","country":"US","name":"Broadmoor","_id":5330854,"coord":{"lon":-122.48275,"lat":37.6866}},{"displayName":"Broadstairs, GB","country":"GB","name":"Broadstairs","_id":2654635,"coord":{"lon":1.43938,"lat":51.359081}},{"displayName":"Broadstone, GB","country":"GB","name":"Broadstone","_id":2654634,"coord":{"lon":-1.98333,"lat":50.75}},{"displayName":"Broadus, US","country":"US","name":"Broadus","_id":5642048,"coord":{"lon":-105.407494,"lat":45.443878}},{"displayName":"Broadview Heights, US","country":"US","name":"Broadview Heights","_id":5148273,"coord":{"lon":-81.685127,"lat":41.313938}},{"displayName":"Broadview Park, US","country":"US","name":"Broadview Park","_id":4148944,"coord":{"lon":-80.208656,"lat":26.099529}},{"displayName":"Broadview, CA","country":"CA","name":"Broadview","_id":5909230,"coord":{"lon":-102.584312,"lat":50.36673}},{"displayName":"Broadview, US","country":"US","name":"Broadview","_id":4885637,"coord":{"lon":-87.853394,"lat":41.863918}},{"displayName":"Broadwater, AU","country":"AU","name":"Broadwater","_id":2173950,"coord":{"lon":142.049744,"lat":-38.125271}},{"displayName":"Broadwater, AU","country":"AU","name":"Broadwater","_id":2173951,"coord":{"lon":153.449997,"lat":-29.01667}},{"displayName":"Broadwater, GB","country":"GB","name":"Broadwater","_id":2654630,"coord":{"lon":-0.36667,"lat":50.816669}},{"displayName":"Broadway Acres Mobile Home Park, US","country":"US","name":"Broadway Acres Mobile Home Park","_id":7240784,"coord":{"lon":-84.739441,"lat":43.60556}},{"displayName":"Broadway, GB","country":"GB","name":"Broadway","_id":2654628,"coord":{"lon":-1.85,"lat":52.033329}},{"displayName":"Broadway, US","country":"US","name":"Broadway","_id":4457325,"coord":{"lon":-79.053078,"lat":35.457932}},{"displayName":"Broadway, US","country":"US","name":"Broadway","_id":4749117,"coord":{"lon":-78.798912,"lat":38.613171}},{"displayName":"Broadwey, GB","country":"GB","name":"Broadwey","_id":2654624,"coord":{"lon":-2.46794,"lat":50.650688}},{"displayName":"Broadwoodwidger, GB","country":"GB","name":"Broadwoodwidger","_id":2654620,"coord":{"lon":-4.25201,"lat":50.680679}},{"displayName":"Broager, DK","country":"DK","name":"Broager","_id":2623394,"coord":{"lon":9.68096,"lat":54.88736}},{"displayName":"Brobberow, DE","country":"DE","name":"Brobberow","_id":2944024,"coord":{"lon":12.05,"lat":53.966671}},{"displayName":"Brobergen, DE","country":"DE","name":"Brobergen","_id":2944023,"coord":{"lon":9.18333,"lat":53.599998}},{"displayName":"Broby, SE","country":"SE","name":"Broby","_id":2719212,"coord":{"lon":14.07797,"lat":56.255211}},{"displayName":"Broc, CH","country":"CH","name":"Broc","_id":7285344,"coord":{"lon":7.11931,"lat":46.60033}},{"displayName":"Broc, CH","country":"CH","name":"Broc","_id":2661383,"coord":{"lon":7.09891,"lat":46.605141}},{"displayName":"Brocas, FR","country":"FR","name":"Brocas","_id":6448858,"coord":{"lon":-0.53333,"lat":44.049999}},{"displayName":"Brocas, FR","country":"FR","name":"Brocas","_id":3029960,"coord":{"lon":-0.53232,"lat":44.044289}},{"displayName":"Broccostella, IT","country":"IT","name":"Broccostella","_id":6534717,"coord":{"lon":13.6353,"lat":41.699718}},{"displayName":"Broceni, LV","country":"LV","name":"Broceni","_id":460786,"coord":{"lon":22.533331,"lat":56.700001}},{"displayName":"Brochard, FR","country":"FR","name":"Brochard","_id":3029959,"coord":{"lon":0.68817,"lat":48.540531}},{"displayName":"Brochdorf, DE","country":"DE","name":"Brochdorf","_id":2944021,"coord":{"lon":9.68333,"lat":53.049999}},{"displayName":"Brochet, CA","country":"CA","name":"Brochet","_id":5909245,"coord":{"lon":-101.671806,"lat":57.879978}},{"displayName":"Brochette, HT","country":"HT","name":"Brochette","_id":3729045,"coord":{"lon":-72.417503,"lat":18.53583}},{"displayName":"Brochier, BR","country":"BR","name":"Brochier","_id":3468904,"coord":{"lon":-51.586109,"lat":-29.54528}},{"displayName":"Brochow, PL","country":"PL","name":"Brochow","_id":775334,"coord":{"lon":20.262569,"lat":52.3195}},{"displayName":"Brochterbeck, DE","country":"DE","name":"Brochterbeck","_id":2944019,"coord":{"lon":7.75,"lat":52.216671}},{"displayName":"Brock Hall, US","country":"US","name":"Brock Hall","_id":4349551,"coord":{"lon":-76.761078,"lat":38.850109}},{"displayName":"Brock, DE","country":"DE","name":"Brock","_id":2944012,"coord":{"lon":7.78333,"lat":51.833328}},{"displayName":"Brock, DE","country":"DE","name":"Brock","_id":2944013,"coord":{"lon":7.86667,"lat":52.066669}},{"displayName":"Brockel, DE","country":"DE","name":"Brockel","_id":6552719,"coord":{"lon":9.51667,"lat":53.099998}},{"displayName":"Brockel, DE","country":"DE","name":"Brockel","_id":2943997,"coord":{"lon":9.51667,"lat":53.099998}},{"displayName":"Brockenhurst, GB","country":"GB","name":"Brockenhurst","_id":2654615,"coord":{"lon":-1.57303,"lat":50.819359}},{"displayName":"Brockhagen, DE","country":"DE","name":"Brockhagen","_id":2943978,"coord":{"lon":8.35,"lat":51.98333}},{"displayName":"Brockhampton, GB","country":"GB","name":"Brockhampton","_id":2654612,"coord":{"lon":-2.58333,"lat":51.98333}},{"displayName":"Brocklesby, AU","country":"AU","name":"Brocklesby","_id":2173939,"coord":{"lon":146.683334,"lat":-35.799999}},{"displayName":"Brockley, GB","country":"GB","name":"Brockley","_id":2654608,"coord":{"lon":-2.76667,"lat":51.400002}},{"displayName":"Brockport, US","country":"US","name":"Brockport","_id":5110227,"coord":{"lon":-77.939178,"lat":43.213669}},{"displayName":"Brockscheid, DE","country":"DE","name":"Brockscheid","_id":6554625,"coord":{"lon":6.85,"lat":50.133301}},{"displayName":"Brockscheid, DE","country":"DE","name":"Brockscheid","_id":2943949,"coord":{"lon":6.85,"lat":50.133331}},{"displayName":"Brockton, US","country":"US","name":"Brockton","_id":4931429,"coord":{"lon":-71.018379,"lat":42.083431}},{"displayName":"Brockum, DE","country":"DE","name":"Brockum","_id":6552438,"coord":{"lon":8.41667,"lat":52.466702}},{"displayName":"Brockum, DE","country":"DE","name":"Brockum","_id":2943945,"coord":{"lon":8.41667,"lat":52.466671}},{"displayName":"Brockville, CA","country":"CA","name":"Brockville","_id":5909294,"coord":{"lon":-75.68264,"lat":44.583408}},{"displayName":"Brockway, US","country":"US","name":"Brockway","_id":5181752,"coord":{"lon":-78.799469,"lat":41.249229}},{"displayName":"Brocton, US","country":"US","name":"Brocton","_id":5110239,"coord":{"lon":-79.441162,"lat":42.388672}},{"displayName":"Brocēnu Novads, LV","country":"LV","name":"Brocēnu Novads","_id":7628309,"coord":{"lon":22.65667,"lat":56.714169}},{"displayName":"Brod Moravice, HR","country":"HR","name":"Brod Moravice","_id":3203235,"coord":{"lon":14.97444,"lat":45.465279}},{"displayName":"Brodarica, HR","country":"HR","name":"Brodarica","_id":3213267,"coord":{"lon":15.91972,"lat":43.68}},{"displayName":"Brodek u Prerova, CZ","country":"CZ","name":"Brodek u Prerova","_id":3078584,"coord":{"lon":17.338249,"lat":49.484192}},{"displayName":"Brodenbach, DE","country":"DE","name":"Brodenbach","_id":6553795,"coord":{"lon":7.45,"lat":50.233299}},{"displayName":"Brodenbach, DE","country":"DE","name":"Brodenbach","_id":2943928,"coord":{"lon":7.45,"lat":50.23333}},{"displayName":"Broderick, CA","country":"CA","name":"Broderick","_id":5909303,"coord":{"lon":-106.917969,"lat":51.50008}},{"displayName":"Brodersby, DE","country":"DE","name":"Brodersby","_id":6551818,"coord":{"lon":9.98333,"lat":54.633301}},{"displayName":"Brodersby, DE","country":"DE","name":"Brodersby","_id":2943922,"coord":{"lon":9.98333,"lat":54.633331}},{"displayName":"Brodersby, DE","country":"DE","name":"Brodersby","_id":6551951,"coord":{"lon":9.71667,"lat":54.533298}},{"displayName":"Brodersby, DE","country":"DE","name":"Brodersby","_id":2943923,"coord":{"lon":9.71667,"lat":54.533329}},{"displayName":"Brodersdorf, DE","country":"DE","name":"Brodersdorf","_id":6551720,"coord":{"lon":10.25,"lat":54.383301}},{"displayName":"Brodersdorf, DE","country":"DE","name":"Brodersdorf","_id":2943921,"coord":{"lon":10.25,"lat":54.383331}},{"displayName":"Broderstorf, DE","country":"DE","name":"Broderstorf","_id":6547766,"coord":{"lon":12.2971,"lat":54.113602}},{"displayName":"Broderstorf, DE","country":"DE","name":"Broderstorf","_id":2943919,"coord":{"lon":12.26667,"lat":54.083328}},{"displayName":"Brodhead, US","country":"US","name":"Brodhead","_id":4285573,"coord":{"lon":-84.413834,"lat":37.404251}},{"displayName":"Brodhead, US","country":"US","name":"Brodhead","_id":5246832,"coord":{"lon":-89.376228,"lat":42.61834}},{"displayName":"Brodheadsville, US","country":"US","name":"Brodheadsville","_id":5181761,"coord":{"lon":-75.393791,"lat":40.924541}},{"displayName":"Brodick, GB","country":"GB","name":"Brodick","_id":2654604,"coord":{"lon":-5.14717,"lat":55.57539}},{"displayName":"Brodina, RO","country":"RO","name":"Brodina","_id":683662,"coord":{"lon":25.41667,"lat":47.883331}},{"displayName":"Brodla, PL","country":"PL","name":"Brodla","_id":3102634,"coord":{"lon":19.588791,"lat":50.043308}},{"displayName":"Brodnica, PL","country":"PL","name":"Brodnica","_id":7532702,"coord":{"lon":19.406401,"lat":53.2579}},{"displayName":"Brodnica, PL","country":"PL","name":"Brodnica","_id":3102627,"coord":{"lon":19.39653,"lat":53.25967}},{"displayName":"Brodnica, PL","country":"PL","name":"Brodnica","_id":3102628,"coord":{"lon":16.890961,"lat":52.141232}},{"displayName":"Brodniki, PL","country":"PL","name":"Brodniki","_id":3102621,"coord":{"lon":15.20559,"lat":53.884209}},{"displayName":"Brodokalmak, RU","country":"RU","name":"Brodokalmak","_id":1508802,"coord":{"lon":62.082001,"lat":55.574799}},{"displayName":"Brodosqui, BR","country":"BR","name":"Brodosqui","_id":3468902,"coord":{"lon":-47.658611,"lat":-20.99139}},{"displayName":"Brodsko-Posavska Županija, HR","country":"HR","name":"Brodsko-Posavska Županija","_id":3337512,"coord":{"lon":17.75,"lat":45.166672}},{"displayName":"Brody, PL","country":"PL","name":"Brody","_id":775318,"coord":{"lon":21.22147,"lat":51.024658}},{"displayName":"Brody, PL","country":"PL","name":"Brody","_id":3102615,"coord":{"lon":14.77335,"lat":51.790459}},{"displayName":"Brody, PL","country":"PL","name":"Brody","_id":3102616,"coord":{"lon":19.69746,"lat":49.86742}},{"displayName":"Brody, UA","country":"UA","name":"Brody","_id":711416,"coord":{"lon":25.15027,"lat":50.08791}},{"displayName":"Brody-Parcele, PL","country":"PL","name":"Brody-Parcele","_id":7522516,"coord":{"lon":20.749741,"lat":52.47797}},{"displayName":"Broeckel, DE","country":"DE","name":"Broeckel","_id":2943998,"coord":{"lon":10.21505,"lat":52.51627}},{"displayName":"Broek in Waterland, NL","country":"NL","name":"Broek in Waterland","_id":2758258,"coord":{"lon":4.99583,"lat":52.43417}},{"displayName":"Broek op Langedijk, NL","country":"NL","name":"Broek op Langedijk","_id":2758245,"coord":{"lon":4.80556,"lat":52.674171}},{"displayName":"Broek, BE","country":"BE","name":"Broek","_id":2801008,"coord":{"lon":4.28333,"lat":50.833328}},{"displayName":"Broekhem, NL","country":"NL","name":"Broekhem","_id":2758275,"coord":{"lon":5.82069,"lat":50.871189}},{"displayName":"Broeksterwald, NL","country":"NL","name":"Broeksterwald","_id":2758239,"coord":{"lon":5.99648,"lat":53.274658}},{"displayName":"Broeleck, DE","country":"DE","name":"Broeleck","_id":3207587,"coord":{"lon":7.4,"lat":50.833328}},{"displayName":"Brogden, US","country":"US","name":"Brogden","_id":4457342,"coord":{"lon":-78.034431,"lat":35.29266}},{"displayName":"Brogliano, IT","country":"IT","name":"Brogliano","_id":6535004,"coord":{"lon":11.36549,"lat":45.589191}},{"displayName":"Broglie, FR","country":"FR","name":"Broglie","_id":3029951,"coord":{"lon":0.52915,"lat":49.009109}},{"displayName":"Brognaturo, IT","country":"IT","name":"Brognaturo","_id":6535724,"coord":{"lon":16.3414,"lat":38.60128}},{"displayName":"Brogo, AU","country":"AU","name":"Brogo","_id":2173928,"coord":{"lon":149.833328,"lat":-36.533329}},{"displayName":"Brogueira, PT","country":"PT","name":"Brogueira","_id":8013076,"coord":{"lon":-8.55676,"lat":39.428989}},{"displayName":"Brogueira, PT","country":"PT","name":"Brogueira","_id":2270661,"coord":{"lon":-8.57241,"lat":39.44445}},{"displayName":"Brohl, DE","country":"DE","name":"Brohl","_id":6553668,"coord":{"lon":7.28333,"lat":50.216702}},{"displayName":"Brohl, DE","country":"DE","name":"Brohl","_id":2943897,"coord":{"lon":7.27947,"lat":50.21909}},{"displayName":"Brohl, DE","country":"DE","name":"Brohl","_id":2943896,"coord":{"lon":7.33333,"lat":50.48333}},{"displayName":"Brohl-Lutzing, DE","country":"DE","name":"Brohl-Lutzing","_id":3209903,"coord":{"lon":7.32908,"lat":50.48296}},{"displayName":"Brohl-Lützing, DE","country":"DE","name":"Brohl-Lützing","_id":6553298,"coord":{"lon":7.33333,"lat":50.483299}},{"displayName":"Broich, DE","country":"DE","name":"Broich","_id":2943879,"coord":{"lon":6.18333,"lat":50.849998}},{"displayName":"Broichen, DE","country":"DE","name":"Broichen","_id":2943868,"coord":{"lon":7.15592,"lat":50.956161}},{"displayName":"Broicherdorf, DE","country":"DE","name":"Broicherdorf","_id":2943867,"coord":{"lon":6.58333,"lat":51.23333}},{"displayName":"Broistedt, DE","country":"DE","name":"Broistedt","_id":2943856,"coord":{"lon":10.33058,"lat":52.186562}},{"displayName":"Broitzem, DE","country":"DE","name":"Broitzem","_id":2943855,"coord":{"lon":10.47718,"lat":52.234631}},{"displayName":"Brojce, PL","country":"PL","name":"Brojce","_id":3102597,"coord":{"lon":15.35975,"lat":53.95705}},{"displayName":"Brojce, PL","country":"PL","name":"Brojce","_id":3102598,"coord":{"lon":15.67414,"lat":52.317451}},{"displayName":"Brojce, PL","country":"PL","name":"Brojce","_id":3102599,"coord":{"lon":19.64802,"lat":51.66436}},{"displayName":"Brok, PL","country":"PL","name":"Brok","_id":7533299,"coord":{"lon":21.880501,"lat":52.6982}},{"displayName":"Brok, PL","country":"PL","name":"Brok","_id":775304,"coord":{"lon":21.85704,"lat":52.699478}},{"displayName":"Brokdorf, DE","country":"DE","name":"Brokdorf","_id":6552175,"coord":{"lon":9.33333,"lat":53.866699}},{"displayName":"Brokdorf, DE","country":"DE","name":"Brokdorf","_id":2943851,"coord":{"lon":9.33333,"lat":53.866669}},{"displayName":"Broke, AU","country":"AU","name":"Broke","_id":2173926,"coord":{"lon":151.100006,"lat":-32.75}},{"displayName":"Broken Arrow, US","country":"US","name":"Broken Arrow","_id":4531405,"coord":{"lon":-95.790817,"lat":36.052601}},{"displayName":"Broken Bow, US","country":"US","name":"Broken Bow","_id":4531414,"coord":{"lon":-94.739098,"lat":34.029282}},{"displayName":"Broken Bow, US","country":"US","name":"Broken Bow","_id":5064638,"coord":{"lon":-99.639282,"lat":41.401951}},{"displayName":"Broken Hill Municipality, AU","country":"AU","name":"Broken Hill Municipality","_id":2173910,"coord":{"lon":141.433334,"lat":-31.950001}},{"displayName":"Broken Hill, AU","country":"AU","name":"Broken Hill","_id":2173911,"coord":{"lon":141.433334,"lat":-31.950001}},{"displayName":"Brokopondo, SR","country":"SR","name":"Brokopondo","_id":3384482,"coord":{"lon":-54.966671,"lat":5.06667}},{"displayName":"Brokstedt, DE","country":"DE","name":"Brokstedt","_id":6552176,"coord":{"lon":9.81667,"lat":53.983299}},{"displayName":"Brokstedt, DE","country":"DE","name":"Brokstedt","_id":2943829,"coord":{"lon":9.81667,"lat":53.98333}},{"displayName":"Brolo, IT","country":"IT","name":"Brolo","_id":2525499,"coord":{"lon":14.82958,"lat":38.155361}},{"displayName":"Brombach, DE","country":"DE","name":"Brombach","_id":2943813,"coord":{"lon":8.81667,"lat":49.666672}},{"displayName":"Brombais, BE","country":"BE","name":"Brombais","_id":2800955,"coord":{"lon":4.78921,"lat":50.695221}},{"displayName":"Bromberg, AT","country":"AT","name":"Bromberg","_id":7871940,"coord":{"lon":16.233549,"lat":47.655331}},{"displayName":"Bromberg, AT","country":"AT","name":"Bromberg","_id":2781387,"coord":{"lon":16.200001,"lat":47.666672}},{"displayName":"Brome, DE","country":"DE","name":"Brome","_id":2943795,"coord":{"lon":10.95,"lat":52.599998}},{"displayName":"Bromelton, AU","country":"AU","name":"Bromelton","_id":2173901,"coord":{"lon":152.933334,"lat":-27.98333}},{"displayName":"Bromfield, GB","country":"GB","name":"Bromfield","_id":2654591,"coord":{"lon":-2.76667,"lat":52.383331}},{"displayName":"Bromham, GB","country":"GB","name":"Bromham","_id":7300312,"coord":{"lon":-2.03738,"lat":51.38879}},{"displayName":"Bromham, GB","country":"GB","name":"Bromham","_id":2654589,"coord":{"lon":-0.52906,"lat":52.145081}},{"displayName":"Bromhead, CA","country":"CA","name":"Bromhead","_id":5909391,"coord":{"lon":-103.667686,"lat":49.183361}},{"displayName":"Bromley, GB","country":"GB","name":"Bromley","_id":3333135,"coord":{"lon":0.01167,"lat":51.414749}},{"displayName":"Bromley, GB","country":"GB","name":"Bromley","_id":2654588,"coord":{"lon":0.01519,"lat":51.406059}},{"displayName":"Bromma, SE","country":"SE","name":"Bromma","_id":2719111,"coord":{"lon":17.940001,"lat":59.34}},{"displayName":"Bromoella, SE","country":"SE","name":"Bromoella","_id":2719106,"coord":{"lon":14.46958,"lat":56.075508}},{"displayName":"Bromont, CA","country":"CA","name":"Bromont","_id":5909403,"coord":{"lon":-72.649117,"lat":45.31678}},{"displayName":"Bromont-Lamothe, FR","country":"FR","name":"Bromont-Lamothe","_id":6450327,"coord":{"lon":2.83333,"lat":45.833328}},{"displayName":"Bromont-Lamothe, FR","country":"FR","name":"Bromont-Lamothe","_id":3029934,"coord":{"lon":2.81921,"lat":45.840801}},{"displayName":"Bromsgrove District, GB","country":"GB","name":"Bromsgrove District","_id":7290654,"coord":{"lon":-2.00521,"lat":52.361279}},{"displayName":"Bromsgrove, GB","country":"GB","name":"Bromsgrove","_id":2654579,"coord":{"lon":-2.05983,"lat":52.335739}},{"displayName":"Bromskirchen, DE","country":"DE","name":"Bromskirchen","_id":6553284,"coord":{"lon":8.61667,"lat":51.083302}},{"displayName":"Bromskirchen, DE","country":"DE","name":"Bromskirchen","_id":2943783,"coord":{"lon":8.61667,"lat":51.083328}},{"displayName":"Bromyard, GB","country":"GB","name":"Bromyard","_id":2654578,"coord":{"lon":-2.50875,"lat":52.190189}},{"displayName":"Bron, FR","country":"FR","name":"Bron","_id":6455234,"coord":{"lon":4.91667,"lat":45.73333}},{"displayName":"Bron, FR","country":"FR","name":"Bron","_id":3029931,"coord":{"lon":4.91667,"lat":45.73333}},{"displayName":"Bronchales, ES","country":"ES","name":"Bronchales","_id":6361469,"coord":{"lon":-1.55935,"lat":40.52853}},{"displayName":"Bronchales, ES","country":"ES","name":"Bronchales","_id":3127608,"coord":{"lon":-1.58821,"lat":40.511711}},{"displayName":"Brondbyvester, DK","country":"DK","name":"Brondbyvester","_id":2623340,"coord":{"lon":12.40996,"lat":55.650291}},{"displayName":"Brondello, IT","country":"IT","name":"Brondello","_id":6535844,"coord":{"lon":7.40592,"lat":44.600731}},{"displayName":"Bronderslev, DK","country":"DK","name":"Bronderslev","_id":2623337,"coord":{"lon":9.94102,"lat":57.27021}},{"displayName":"Brondong, ID","country":"ID","name":"Brondong","_id":1648045,"coord":{"lon":112.291496,"lat":-6.877}},{"displayName":"Brong-Ahafo Region, GH","country":"GH","name":"Brong-Ahafo Region","_id":2302547,"coord":{"lon":-1.5,"lat":7.75}},{"displayName":"Brongkal, ID","country":"ID","name":"Brongkal","_id":1965852,"coord":{"lon":112.593803,"lat":-8.1806}},{"displayName":"Brongkalan, ID","country":"ID","name":"Brongkalan","_id":1985548,"coord":{"lon":112.767403,"lat":-7.2575}},{"displayName":"Broni, IT","country":"IT","name":"Broni","_id":3181507,"coord":{"lon":9.26226,"lat":45.06546}},{"displayName":"Broniszewice, PL","country":"PL","name":"Broniszewice","_id":7535721,"coord":{"lon":17.816481,"lat":51.966961}},{"displayName":"Bronkhorstspruit, ZA","country":"ZA","name":"Bronkhorstspruit","_id":1015504,"coord":{"lon":28.742479,"lat":-25.81015}},{"displayName":"Bronkow, DE","country":"DE","name":"Bronkow","_id":6547626,"coord":{"lon":13.9167,"lat":51.666698}},{"displayName":"Bronkow, DE","country":"DE","name":"Bronkow","_id":2943779,"coord":{"lon":13.91667,"lat":51.666672}},{"displayName":"Bronnitsy, RU","country":"RU","name":"Bronnitsy","_id":571557,"coord":{"lon":38.270832,"lat":55.419445}},{"displayName":"Bronnoysund, NO","country":"NO","name":"Bronnoysund","_id":3159954,"coord":{"lon":12.19973,"lat":65.462502}},{"displayName":"Bronow, PL","country":"PL","name":"Bronow","_id":3102555,"coord":{"lon":18.92103,"lat":49.877819}},{"displayName":"Bronquist, US","country":"US","name":"Bronquist","_id":5415005,"coord":{"lon":-104.891647,"lat":38.20195}},{"displayName":"Bronschhofen, CH","country":"CH","name":"Bronschhofen","_id":7285345,"coord":{"lon":9.04941,"lat":47.481339}},{"displayName":"Bronschhofen, CH","country":"CH","name":"Bronschhofen","_id":2661380,"coord":{"lon":9.03454,"lat":47.478352}},{"displayName":"Bronson, US","country":"US","name":"Bronson","_id":4148957,"coord":{"lon":-82.642326,"lat":29.447741}},{"displayName":"Bronson, US","country":"US","name":"Bronson","_id":4987045,"coord":{"lon":-85.194702,"lat":41.872269}},{"displayName":"Bronte, AU","country":"AU","name":"Bronte","_id":2208288,"coord":{"lon":151.266663,"lat":-33.900002}},{"displayName":"Bronte, IT","country":"IT","name":"Bronte","_id":6539194,"coord":{"lon":14.83418,"lat":37.789459}},{"displayName":"Bronte, IT","country":"IT","name":"Bronte","_id":2525498,"coord":{"lon":14.83418,"lat":37.789459}},{"displayName":"Bronx, US","country":"US","name":"Bronx","_id":5819656,"coord":{"lon":-110.115723,"lat":42.992722}},{"displayName":"Bronx, US","country":"US","name":"Bronx","_id":5110253,"coord":{"lon":-73.923569,"lat":40.82732}},{"displayName":"Bronxville, US","country":"US","name":"Bronxville","_id":5110269,"coord":{"lon":-73.832077,"lat":40.938148}},{"displayName":"Bronzani Majdan, BA","country":"BA","name":"Bronzani Majdan","_id":3203227,"coord":{"lon":16.93111,"lat":44.786942}},{"displayName":"Bronzolo, IT","country":"IT","name":"Bronzolo","_id":3181504,"coord":{"lon":11.31948,"lat":46.402309}},{"displayName":"Brook Highland, US","country":"US","name":"Brook Highland","_id":4051894,"coord":{"lon":-86.673882,"lat":33.435661}},{"displayName":"Brook Park, US","country":"US","name":"Brook Park","_id":5148326,"coord":{"lon":-81.804581,"lat":41.39838}},{"displayName":"Brookdale, AU","country":"AU","name":"Brookdale","_id":2075740,"coord":{"lon":115.949997,"lat":-32.700001}},{"displayName":"Brookdale, US","country":"US","name":"Brookdale","_id":4572352,"coord":{"lon":-80.823418,"lat":33.506821}},{"displayName":"Brookdale, US","country":"US","name":"Brookdale","_id":5096049,"coord":{"lon":-74.182922,"lat":40.83371}},{"displayName":"Brookdale, US","country":"US","name":"Brookdale","_id":5330938,"coord":{"lon":-122.106079,"lat":37.106339}},{"displayName":"Brooke, GB","country":"GB","name":"Brooke","_id":2654566,"coord":{"lon":-0.74638,"lat":52.643169}},{"displayName":"Brooker, AU","country":"AU","name":"Brooker","_id":2075738,"coord":{"lon":135.899994,"lat":-34.099998}},{"displayName":"Brookfield Center, US","country":"US","name":"Brookfield Center","_id":5148332,"coord":{"lon":-80.557854,"lat":41.240608}},{"displayName":"Brookfield Village, US","country":"US","name":"Brookfield Village","_id":5330943,"coord":{"lon":-122.186081,"lat":37.73521}},{"displayName":"Brookfield, AU","country":"AU","name":"Brookfield","_id":2173887,"coord":{"lon":152.899994,"lat":-27.5}},{"displayName":"Brookfield, AU","country":"AU","name":"Brookfield","_id":2173886,"coord":{"lon":151.75,"lat":-32.5}},{"displayName":"Brookfield, AU","country":"AU","name":"Brookfield","_id":7932574,"coord":{"lon":144.560257,"lat":-37.700802}},{"displayName":"Brookfield, CA","country":"CA","name":"Brookfield","_id":5909464,"coord":{"lon":-63.281979,"lat":45.250149}},{"displayName":"Brookfield, CA","country":"CA","name":"Brookfield","_id":5909467,"coord":{"lon":-96.060257,"lat":50.134201}},{"displayName":"Brookfield, US","country":"US","name":"Brookfield","_id":4885689,"coord":{"lon":-87.85173,"lat":41.823921}},{"displayName":"Brookfield, US","country":"US","name":"Brookfield","_id":5246835,"coord":{"lon":-88.106483,"lat":43.06057}},{"displayName":"Brookfield, US","country":"US","name":"Brookfield","_id":4378488,"coord":{"lon":-93.073532,"lat":39.78447}},{"displayName":"Brookhaven, US","country":"US","name":"Brookhaven","_id":4419500,"coord":{"lon":-90.440651,"lat":31.57906}},{"displayName":"Brookhaven, US","country":"US","name":"Brookhaven","_id":4556793,"coord":{"lon":-75.382408,"lat":39.869282}},{"displayName":"Brookhaven, US","country":"US","name":"Brookhaven","_id":4800195,"coord":{"lon":-79.90451,"lat":39.611752}},{"displayName":"Brookhaven, US","country":"US","name":"Brookhaven","_id":5110292,"coord":{"lon":-72.915382,"lat":40.77927}},{"displayName":"Brookings County, US","country":"US","name":"Brookings County","_id":5226536,"coord":{"lon":-96.817001,"lat":44.3083}},{"displayName":"Brookings, US","country":"US","name":"Brookings","_id":5226534,"coord":{"lon":-96.798393,"lat":44.311359}},{"displayName":"Brookings, US","country":"US","name":"Brookings","_id":5715905,"coord":{"lon":-124.283981,"lat":42.052608}},{"displayName":"Brooklana, AU","country":"AU","name":"Brooklana","_id":2173882,"coord":{"lon":152.850006,"lat":-30.26667}},{"displayName":"Brookland, US","country":"US","name":"Brookland","_id":4103117,"coord":{"lon":-90.582047,"lat":35.90007}},{"displayName":"Brooklawn, US","country":"US","name":"Brooklawn","_id":4500950,"coord":{"lon":-75.120728,"lat":39.87817}},{"displayName":"Brooklawn, US","country":"US","name":"Brooklawn","_id":4500951,"coord":{"lon":-75.119621,"lat":39.874279}},{"displayName":"Brooklet, AU","country":"AU","name":"Brooklet","_id":2173878,"coord":{"lon":153.516663,"lat":-28.73333}},{"displayName":"Brooklet, US","country":"US","name":"Brooklet","_id":4184540,"coord":{"lon":-81.66317,"lat":32.379631}},{"displayName":"Brookline, US","country":"US","name":"Brookline","_id":4931482,"coord":{"lon":-71.121162,"lat":42.33176}},{"displayName":"Brookline, US","country":"US","name":"Brookline","_id":5083836,"coord":{"lon":-71.658127,"lat":42.73481}},{"displayName":"Brooklyn Center, US","country":"US","name":"Brooklyn Center","_id":5019330,"coord":{"lon":-93.332733,"lat":45.07608}},{"displayName":"Brooklyn Heights, US","country":"US","name":"Brooklyn Heights","_id":5148352,"coord":{"lon":-81.688179,"lat":41.425331}},{"displayName":"Brooklyn Park, US","country":"US","name":"Brooklyn Park","_id":5019335,"coord":{"lon":-93.356339,"lat":45.094131}},{"displayName":"Brooklyn Park, US","country":"US","name":"Brooklyn Park","_id":4349599,"coord":{"lon":-76.616364,"lat":39.228439}},{"displayName":"Brooklyn, NZ","country":"NZ","name":"Brooklyn","_id":2192941,"coord":{"lon":174.75,"lat":-41.316669}},{"displayName":"Brooklyn, US","country":"US","name":"Brooklyn","_id":5110302,"coord":{"lon":-73.949577,"lat":40.650101}},{"displayName":"Brooklyn, US","country":"US","name":"Brooklyn","_id":4254985,"coord":{"lon":-86.369164,"lat":39.539211}},{"displayName":"Brooklyn, US","country":"US","name":"Brooklyn","_id":4849448,"coord":{"lon":-92.445457,"lat":41.733608}},{"displayName":"Brooklyn, US","country":"US","name":"Brooklyn","_id":4987064,"coord":{"lon":-84.248283,"lat":42.105869}},{"displayName":"Brooklyn, US","country":"US","name":"Brooklyn","_id":5148346,"coord":{"lon":-81.735413,"lat":41.43977}},{"displayName":"Brooklyn, US","country":"US","name":"Brooklyn","_id":5246849,"coord":{"lon":-89.370399,"lat":42.853611}},{"displayName":"Brookmont, US","country":"US","name":"Brookmont","_id":4349611,"coord":{"lon":-77.120262,"lat":38.942059}},{"displayName":"Brookneal, US","country":"US","name":"Brookneal","_id":4749193,"coord":{"lon":-78.944183,"lat":37.05014}},{"displayName":"Brookridge, US","country":"US","name":"Brookridge","_id":4148975,"coord":{"lon":-82.492043,"lat":28.5511}},{"displayName":"Brooks County, US","country":"US","name":"Brooks County","_id":4676547,"coord":{"lon":-98.23362,"lat":27.033661}},{"displayName":"Brooks Mill, US","country":"US","name":"Brooks Mill","_id":5560368,"coord":{"lon":-120.310783,"lat":41.279339}},{"displayName":"Brooks, CA","country":"CA","name":"Brooks","_id":5909514,"coord":{"lon":-111.885094,"lat":50.583408}},{"displayName":"Brooks, US","country":"US","name":"Brooks","_id":4285588,"coord":{"lon":-85.709679,"lat":38.06118}},{"displayName":"Brooks, US","country":"US","name":"Brooks","_id":4959359,"coord":{"lon":-69.120872,"lat":44.55035}},{"displayName":"Brookshire, US","country":"US","name":"Brookshire","_id":4676571,"coord":{"lon":-95.951073,"lat":29.78606}},{"displayName":"Brookside Village, US","country":"US","name":"Brookside Village","_id":4676580,"coord":{"lon":-95.325218,"lat":29.586901}},{"displayName":"Brookside, US","country":"US","name":"Brookside","_id":4931520,"coord":{"lon":-73.357338,"lat":42.16898}},{"displayName":"Brookside, US","country":"US","name":"Brookside","_id":4051955,"coord":{"lon":-86.916656,"lat":33.637878}},{"displayName":"Brookside, US","country":"US","name":"Brookside","_id":4141674,"coord":{"lon":-75.726883,"lat":39.667061}},{"displayName":"Brookstead, AU","country":"AU","name":"Brookstead","_id":2173861,"coord":{"lon":151.449997,"lat":-27.76667}},{"displayName":"Brookston, US","country":"US","name":"Brookston","_id":4918417,"coord":{"lon":-86.867233,"lat":40.60281}},{"displayName":"Brooksville, US","country":"US","name":"Brooksville","_id":4148986,"coord":{"lon":-82.387871,"lat":28.555269}},{"displayName":"Brooksville, US","country":"US","name":"Brooksville","_id":4285607,"coord":{"lon":-84.065758,"lat":38.682571}},{"displayName":"Brooksville, US","country":"US","name":"Brooksville","_id":4419539,"coord":{"lon":-88.582268,"lat":33.23457}},{"displayName":"Brookton, AU","country":"AU","name":"Brookton","_id":7839475,"coord":{"lon":116.999939,"lat":-32.355331}},{"displayName":"Brooktrails, US","country":"US","name":"Brooktrails","_id":5330993,"coord":{"lon":-123.385292,"lat":39.443771}},{"displayName":"Brookvale, AU","country":"AU","name":"Brookvale","_id":2208303,"coord":{"lon":151.266663,"lat":-33.76667}},{"displayName":"Brookville, AU","country":"AU","name":"Brookville","_id":2173860,"coord":{"lon":147.616669,"lat":-37.333328}},{"displayName":"Brookville, US","country":"US","name":"Brookville","_id":4254999,"coord":{"lon":-85.012741,"lat":39.423111}},{"displayName":"Brookville, US","country":"US","name":"Brookville","_id":4507188,"coord":{"lon":-84.411339,"lat":39.83672}},{"displayName":"Brookville, US","country":"US","name":"Brookville","_id":5110358,"coord":{"lon":-73.567352,"lat":40.81316}},{"displayName":"Brookville, US","country":"US","name":"Brookville","_id":5181828,"coord":{"lon":-79.083092,"lat":41.161171}},{"displayName":"Brookwood, US","country":"US","name":"Brookwood","_id":4051971,"coord":{"lon":-87.320831,"lat":33.255669}},{"displayName":"Brooloo, AU","country":"AU","name":"Brooloo","_id":2173858,"coord":{"lon":152.699997,"lat":-26.5}},{"displayName":"Broomall, US","country":"US","name":"Broomall","_id":4556802,"coord":{"lon":-75.356583,"lat":39.981499}},{"displayName":"Broome County, US","country":"US","name":"Broome County","_id":5110365,"coord":{"lon":-75.83297,"lat":42.250629}},{"displayName":"Broome, AU","country":"AU","name":"Broome","_id":7839347,"coord":{"lon":121.807213,"lat":-18.20866}},{"displayName":"Broome, AU","country":"AU","name":"Broome","_id":2075720,"coord":{"lon":122.23333,"lat":-17.966669}},{"displayName":"Broome, GB","country":"GB","name":"Broome","_id":2654552,"coord":{"lon":-2.88333,"lat":52.416672}},{"displayName":"Broomehill-Tambellup, AU","country":"AU","name":"Broomehill-Tambellup","_id":7839348,"coord":{"lon":117.652969,"lat":-34.013199}},{"displayName":"Broomfield County, US","country":"US","name":"Broomfield County","_id":5415040,"coord":{"lon":-105.086647,"lat":39.92054}},{"displayName":"Broomfield, US","country":"US","name":"Broomfield","_id":5415035,"coord":{"lon":-105.086647,"lat":39.92054}},{"displayName":"Broomfleet, GB","country":"GB","name":"Broomfleet","_id":2654549,"coord":{"lon":-0.66667,"lat":53.73333}},{"displayName":"Broons, FR","country":"FR","name":"Broons","_id":3029925,"coord":{"lon":-2.25952,"lat":48.317478}},{"displayName":"Brooweena, AU","country":"AU","name":"Brooweena","_id":2173851,"coord":{"lon":152.266663,"lat":-25.6}},{"displayName":"Brora, GB","country":"GB","name":"Brora","_id":2654545,"coord":{"lon":-3.85182,"lat":58.009892}},{"displayName":"Brorup, DK","country":"DK","name":"Brorup","_id":2623321,"coord":{"lon":9.01756,"lat":55.481941}},{"displayName":"Broscauti, RO","country":"RO","name":"Broscauti","_id":683656,"coord":{"lon":26.450001,"lat":47.950001}},{"displayName":"Broseley, GB","country":"GB","name":"Broseley","_id":2654539,"coord":{"lon":-2.48269,"lat":52.613209}},{"displayName":"Broshniv-Osada, UA","country":"UA","name":"Broshniv-Osada","_id":711400,"coord":{"lon":24.197479,"lat":48.996201}},{"displayName":"Broska, UA","country":"UA","name":"Broska","_id":711398,"coord":{"lon":28.783001,"lat":45.37328}},{"displayName":"Brossard, CA","country":"CA","name":"Brossard","_id":5909628,"coord":{"lon":-73.465874,"lat":45.450081}},{"displayName":"Brossard, CA","country":"CA","name":"Brossard","_id":5909629,"coord":{"lon":-73.465828,"lat":45.450081}},{"displayName":"Brossasco, IT","country":"IT","name":"Brossasco","_id":3181503,"coord":{"lon":7.36172,"lat":44.56863}},{"displayName":"Brosso, IT","country":"IT","name":"Brosso","_id":3181502,"coord":{"lon":7.80392,"lat":45.493259}},{"displayName":"Brostadbotn, NO","country":"NO","name":"Brostadbotn","_id":7626404,"coord":{"lon":17.694889,"lat":69.08873}},{"displayName":"Brosteni, RO","country":"RO","name":"Brosteni","_id":683637,"coord":{"lon":25.700001,"lat":47.23333}},{"displayName":"Brosteni, RO","country":"RO","name":"Brosteni","_id":683641,"coord":{"lon":27.033331,"lat":45.75}},{"displayName":"Brosteni, RO","country":"RO","name":"Brosteni","_id":683646,"coord":{"lon":22.979441,"lat":44.76083}},{"displayName":"Brot-Plamboz, CH","country":"CH","name":"Brot-Plamboz","_id":7285347,"coord":{"lon":6.75321,"lat":46.98481}},{"displayName":"Brot-Plamboz, CH","country":"CH","name":"Brot-Plamboz","_id":2661377,"coord":{"lon":6.74784,"lat":46.985409}},{"displayName":"Brotas, BR","country":"BR","name":"Brotas","_id":3468899,"coord":{"lon":-48.126671,"lat":-22.28417}},{"displayName":"Brothen, DE","country":"DE","name":"Brothen","_id":2943700,"coord":{"lon":10.66755,"lat":53.479469}},{"displayName":"Broto, ES","country":"ES","name":"Broto","_id":6358314,"coord":{"lon":-0.15642,"lat":42.56707}},{"displayName":"Broto, ES","country":"ES","name":"Broto","_id":3127605,"coord":{"lon":-0.12351,"lat":42.60434}},{"displayName":"Broto, ID","country":"ID","name":"Broto","_id":8183572,"coord":{"lon":111.410004,"lat":-8.021}},{"displayName":"Brotterode, DE","country":"DE","name":"Brotterode","_id":2943697,"coord":{"lon":10.43333,"lat":50.833328}},{"displayName":"Brou, FR","country":"FR","name":"Brou","_id":3029898,"coord":{"lon":1.16539,"lat":48.21719}},{"displayName":"Brou-sur-Chantereine, FR","country":"FR","name":"Brou-sur-Chantereine","_id":3029855,"coord":{"lon":2.63333,"lat":48.883331}},{"displayName":"Brouay, FR","country":"FR","name":"Brouay","_id":6427103,"coord":{"lon":-0.56667,"lat":49.216671}},{"displayName":"Brouay, FR","country":"FR","name":"Brouay","_id":3029894,"coord":{"lon":-0.56159,"lat":49.212212}},{"displayName":"Brouch, LU","country":"LU","name":"Brouch","_id":2960718,"coord":{"lon":6.02306,"lat":49.736111}},{"displayName":"Brouckerque, FR","country":"FR","name":"Brouckerque","_id":3029890,"coord":{"lon":2.29378,"lat":50.954762}},{"displayName":"Brough, GB","country":"GB","name":"Brough","_id":2654532,"coord":{"lon":-0.58333,"lat":53.700001}},{"displayName":"Broughal, IE","country":"IE","name":"Broughal","_id":2965961,"coord":{"lon":-7.77528,"lat":53.190559}},{"displayName":"Broughshane, GB","country":"GB","name":"Broughshane","_id":2654515,"coord":{"lon":-6.20899,"lat":54.892601}},{"displayName":"Broughton Astley, GB","country":"GB","name":"Broughton Astley","_id":2654502,"coord":{"lon":-1.21768,"lat":52.52787}},{"displayName":"Broughton, AU","country":"AU","name":"Broughton","_id":2173832,"coord":{"lon":141.350006,"lat":-36.166672}},{"displayName":"Broughton, CA","country":"CA","name":"Broughton","_id":5909677,"coord":{"lon":-59.965141,"lat":46.083439}},{"displayName":"Broughton, GB","country":"GB","name":"Broughton","_id":7291158,"coord":{"lon":-0.68714,"lat":52.050739}},{"displayName":"Broughton, GB","country":"GB","name":"Broughton","_id":2654510,"coord":{"lon":-0.69351,"lat":52.050381}},{"displayName":"Broughton, GB","country":"GB","name":"Broughton","_id":2654507,"coord":{"lon":-3.0,"lat":53.166672}},{"displayName":"Broughton, GB","country":"GB","name":"Broughton","_id":2654506,"coord":{"lon":-0.55,"lat":53.566669}},{"displayName":"Broughton, GB","country":"GB","name":"Broughton","_id":2654509,"coord":{"lon":-0.76667,"lat":52.366669}},{"displayName":"Broulee, AU","country":"AU","name":"Broulee","_id":2173824,"coord":{"lon":150.17392,"lat":-35.854691}},{"displayName":"Broumov, CZ","country":"CZ","name":"Broumov","_id":3078577,"coord":{"lon":16.33181,"lat":50.585659}},{"displayName":"Brouqueyran, FR","country":"FR","name":"Brouqueyran","_id":6448426,"coord":{"lon":-0.18333,"lat":44.48333}},{"displayName":"Brouqueyran, FR","country":"FR","name":"Brouqueyran","_id":3029872,"coord":{"lon":-0.17454,"lat":44.483719}},{"displayName":"Broussard, US","country":"US","name":"Broussard","_id":4317985,"coord":{"lon":-91.961227,"lat":30.14715}},{"displayName":"Brousse, FR","country":"FR","name":"Brousse","_id":3029869,"coord":{"lon":3.21516,"lat":45.26012}},{"displayName":"Brout-Vernet, FR","country":"FR","name":"Brout-Vernet","_id":3029852,"coord":{"lon":3.27324,"lat":46.187561}},{"displayName":"Brovary, UA","country":"UA","name":"Brovary","_id":711390,"coord":{"lon":30.766666,"lat":50.5}},{"displayName":"Brovello-Carpugnino, IT","country":"IT","name":"Brovello-Carpugnino","_id":6534834,"coord":{"lon":8.53173,"lat":45.842468}},{"displayName":"Brovki, RU","country":"RU","name":"Brovki","_id":571546,"coord":{"lon":41.450001,"lat":46.466667}},{"displayName":"Brovst, DK","country":"DK","name":"Brovst","_id":2623306,"coord":{"lon":9.52801,"lat":57.095619}},{"displayName":"Broward County, US","country":"US","name":"Broward County","_id":4149007,"coord":{"lon":-80.483109,"lat":26.15036}},{"displayName":"Broward Estates, US","country":"US","name":"Broward Estates","_id":4149010,"coord":{"lon":-80.193382,"lat":26.125641}},{"displayName":"Brown City, US","country":"US","name":"Brown City","_id":4987112,"coord":{"lon":-82.989662,"lat":43.21225}},{"displayName":"Brown County, US","country":"US","name":"Brown County","_id":5064663,"coord":{"lon":-99.950401,"lat":42.433331}},{"displayName":"Brown County, US","country":"US","name":"Brown County","_id":5246898,"coord":{"lon":-87.966766,"lat":44.46666}},{"displayName":"Brown County, US","country":"US","name":"Brown County","_id":4676632,"coord":{"lon":-98.983658,"lat":31.78348}},{"displayName":"Brown County, US","country":"US","name":"Brown County","_id":5226553,"coord":{"lon":-98.308708,"lat":45.55275}},{"displayName":"Brown County, US","country":"US","name":"Brown County","_id":5019385,"coord":{"lon":-94.683594,"lat":44.233292}},{"displayName":"Brown Deer, US","country":"US","name":"Brown Deer","_id":5246917,"coord":{"lon":-87.964531,"lat":43.163342}},{"displayName":"Brown Hill, KN","country":"KN","name":"Brown Hill","_id":3575516,"coord":{"lon":-62.599998,"lat":17.116671}},{"displayName":"Brown Stones, ZA","country":"ZA","name":"Brown Stones","_id":1015420,"coord":{"lon":29.98381,"lat":-29.19655}},{"displayName":"Brownfield, US","country":"US","name":"Brownfield","_id":4959433,"coord":{"lon":-70.908684,"lat":43.938129}},{"displayName":"Brownfield, US","country":"US","name":"Brownfield","_id":5517675,"coord":{"lon":-102.274353,"lat":33.181198}},{"displayName":"Brownhills, GB","country":"GB","name":"Brownhills","_id":2654490,"coord":{"lon":-1.93333,"lat":52.633331}},{"displayName":"Browning, US","country":"US","name":"Browning","_id":5642247,"coord":{"lon":-113.01342,"lat":48.556919}},{"displayName":"Brownings Landing, CA","country":"CA","name":"Brownings Landing","_id":5909847,"coord":{"lon":-119.802902,"lat":61.300201}},{"displayName":"Brownlee Park, US","country":"US","name":"Brownlee Park","_id":4987154,"coord":{"lon":-85.142487,"lat":42.318932}},{"displayName":"Brownlow Hill, AU","country":"AU","name":"Brownlow Hill","_id":2173799,"coord":{"lon":150.666672,"lat":-34.033329}},{"displayName":"Brownlow, AU","country":"AU","name":"Brownlow","_id":2075684,"coord":{"lon":139.266663,"lat":-34.25}},{"displayName":"Browns Lake, US","country":"US","name":"Browns Lake","_id":5246937,"coord":{"lon":-88.231201,"lat":42.69252}},{"displayName":"Browns Mills, US","country":"US","name":"Browns Mills","_id":4500959,"coord":{"lon":-74.582932,"lat":39.97261}},{"displayName":"Browns Plains, AU","country":"AU","name":"Browns Plains","_id":2173777,"coord":{"lon":153.033325,"lat":-27.65}},{"displayName":"Brownsboro, US","country":"US","name":"Brownsboro","_id":4676737,"coord":{"lon":-95.613571,"lat":32.302368}},{"displayName":"Brownsburg, US","country":"US","name":"Brownsburg","_id":4255056,"coord":{"lon":-86.397774,"lat":39.84338}},{"displayName":"Brownsburg-Chatham, CA","country":"CA","name":"Brownsburg-Chatham","_id":5909969,"coord":{"lon":-74.415901,"lat":45.683418}},{"displayName":"Brownsdale, CA","country":"CA","name":"Brownsdale","_id":5909998,"coord":{"lon":-53.114761,"lat":48.033192}},{"displayName":"Brownsdale, US","country":"US","name":"Brownsdale","_id":5019445,"coord":{"lon":-92.869347,"lat":43.740238}},{"displayName":"Brownsfield, US","country":"US","name":"Brownsfield","_id":4318037,"coord":{"lon":-91.120659,"lat":30.546579}},{"displayName":"Brownsport (historical), US","country":"US","name":"Brownsport (historical)","_id":4234576,"coord":{"lon":-88.042526,"lat":38.05616}},{"displayName":"Brownstown, US","country":"US","name":"Brownstown","_id":4255063,"coord":{"lon":-86.041924,"lat":38.878941}},{"displayName":"Brownstown, US","country":"US","name":"Brownstown","_id":5181940,"coord":{"lon":-76.213837,"lat":40.123711}},{"displayName":"Brownsville, US","country":"US","name":"Brownsville","_id":5234282,"coord":{"lon":-72.470917,"lat":43.468681}},{"displayName":"Brownsville, US","country":"US","name":"Brownsville","_id":4149077,"coord":{"lon":-80.241158,"lat":25.82176}},{"displayName":"Brownsville, US","country":"US","name":"Brownsville","_id":4676740,"coord":{"lon":-97.497482,"lat":25.901751}},{"displayName":"Brownsville, US","country":"US","name":"Brownsville","_id":4285708,"coord":{"lon":-86.267754,"lat":37.192551}},{"displayName":"Brownsville, US","country":"US","name":"Brownsville","_id":4318055,"coord":{"lon":-92.154297,"lat":32.487091}},{"displayName":"Brownsville, US","country":"US","name":"Brownsville","_id":4609116,"coord":{"lon":-89.262291,"lat":35.593971}},{"displayName":"Brownsville, US","country":"US","name":"Brownsville","_id":5181946,"coord":{"lon":-79.883942,"lat":40.023689}},{"displayName":"Brownsville, US","country":"US","name":"Brownsville","_id":5716061,"coord":{"lon":-122.98481,"lat":44.393459}},{"displayName":"Brownsweg, SR","country":"SR","name":"Brownsweg","_id":3384475,"coord":{"lon":-55.166672,"lat":5.01667}},{"displayName":"Brownton, US","country":"US","name":"Brownton","_id":5019460,"coord":{"lon":-94.350258,"lat":44.731911}},{"displayName":"Browntown, US","country":"US","name":"Browntown","_id":5181950,"coord":{"lon":-75.787422,"lat":41.309799}},{"displayName":"Brownville, US","country":"US","name":"Brownville","_id":4959464,"coord":{"lon":-69.033371,"lat":45.306999}},{"displayName":"Brownville, US","country":"US","name":"Brownville","_id":5096031,"coord":{"lon":-74.295151,"lat":40.400661}},{"displayName":"Brownville, US","country":"US","name":"Brownville","_id":5110449,"coord":{"lon":-75.984093,"lat":44.007}},{"displayName":"Brownville, US","country":"US","name":"Brownville","_id":5110450,"coord":{"lon":-74.380707,"lat":41.79982}},{"displayName":"Brownwood, US","country":"US","name":"Brownwood","_id":4676798,"coord":{"lon":-98.991158,"lat":31.70932}},{"displayName":"Broxbourne District, GB","country":"GB","name":"Broxbourne District","_id":7290563,"coord":{"lon":-0.04821,"lat":51.730259}},{"displayName":"Broxbourne, GB","country":"GB","name":"Broxbourne","_id":2654481,"coord":{"lon":-0.01923,"lat":51.74712}},{"displayName":"Broxburn, AU","country":"AU","name":"Broxburn","_id":2173770,"coord":{"lon":151.666672,"lat":-27.700001}},{"displayName":"Broxburn, GB","country":"GB","name":"Broxburn","_id":2654480,"coord":{"lon":-3.47133,"lat":55.934151}},{"displayName":"Broxton, US","country":"US","name":"Broxton","_id":4184813,"coord":{"lon":-82.88681,"lat":31.625191}},{"displayName":"Broxtowe District, GB","country":"GB","name":"Broxtowe District","_id":7290615,"coord":{"lon":-1.25781,"lat":52.973049}},{"displayName":"Brozas, ES","country":"ES","name":"Brozas","_id":2520790,"coord":{"lon":-6.7777,"lat":39.612782}},{"displayName":"Brozolo, IT","country":"IT","name":"Brozolo","_id":6534287,"coord":{"lon":8.07193,"lat":45.116951}},{"displayName":"Broût-Vernet, FR","country":"FR","name":"Broût-Vernet","_id":6446530,"coord":{"lon":3.28333,"lat":46.183331}},{"displayName":"Brrnakot, AM","country":"AM","name":"Brrnakot","_id":174942,"coord":{"lon":45.972408,"lat":39.497421}},{"displayName":"Brsadin, HR","country":"HR","name":"Brsadin","_id":3203221,"coord":{"lon":18.91111,"lat":45.362782}},{"displayName":"Brtnice, CZ","country":"CZ","name":"Brtnice","_id":3078561,"coord":{"lon":15.67642,"lat":49.30695}},{"displayName":"Bruailles, FR","country":"FR","name":"Bruailles","_id":3029829,"coord":{"lon":4.14863,"lat":45.342171}},{"displayName":"Brual, DE","country":"DE","name":"Brual","_id":2943690,"coord":{"lon":7.28333,"lat":53.099998}},{"displayName":"Bruarong, AU","country":"AU","name":"Bruarong","_id":2173769,"coord":{"lon":146.850006,"lat":-36.416672}},{"displayName":"Bruay-la-Buissiere, FR","country":"FR","name":"Bruay-la-Buissiere","_id":3029825,"coord":{"lon":2.55,"lat":50.48333}},{"displayName":"Bruay-la-Buissière, FR","country":"FR","name":"Bruay-la-Buissière","_id":6617278,"coord":{"lon":2.5487,"lat":50.480999}},{"displayName":"Bruay-sur-lEscaut, FR","country":"FR","name":"Bruay-sur-lEscaut","_id":3029824,"coord":{"lon":3.5438,"lat":50.399181}},{"displayName":"Bruce Mines, CA","country":"CA","name":"Bruce Mines","_id":5910127,"coord":{"lon":-83.799919,"lat":46.30006}},{"displayName":"Bruce Rock, AU","country":"AU","name":"Bruce Rock","_id":7839349,"coord":{"lon":118.023849,"lat":-31.966511}},{"displayName":"Bruce Rock, AU","country":"AU","name":"Bruce Rock","_id":2075657,"coord":{"lon":118.150002,"lat":-31.883329}},{"displayName":"Bruce, US","country":"US","name":"Bruce","_id":4419654,"coord":{"lon":-89.348961,"lat":33.992062}},{"displayName":"Brucedale, AU","country":"AU","name":"Brucedale","_id":2173766,"coord":{"lon":147.416672,"lat":-35.033329}},{"displayName":"Bruceton, US","country":"US","name":"Bruceton","_id":4609163,"coord":{"lon":-88.244492,"lat":36.03812}},{"displayName":"Bruceville, US","country":"US","name":"Bruceville","_id":5331154,"coord":{"lon":-121.417168,"lat":38.335751}},{"displayName":"Bruceville-Eddy, US","country":"US","name":"Bruceville-Eddy","_id":4676794,"coord":{"lon":-97.251671,"lat":31.30517}},{"displayName":"Bruch, DE","country":"DE","name":"Bruch","_id":2943664,"coord":{"lon":7.53333,"lat":51.5}},{"displayName":"Bruch, DE","country":"DE","name":"Bruch","_id":6554301,"coord":{"lon":6.78333,"lat":49.950001}},{"displayName":"Bruch, DE","country":"DE","name":"Bruch","_id":2943668,"coord":{"lon":6.78333,"lat":49.950001}},{"displayName":"Bruch, FR","country":"FR","name":"Bruch","_id":6449283,"coord":{"lon":0.4121,"lat":44.205299}},